id,externalId,validatedOn,rvvCode,status,textSigns,side,roadName,roadType,roadNumber,roadSectionId,nwbVersion,countyName,countyCode,townName,bgtCode,imageUrl,firstSeenOn,lastSeenOn,expectedRemovedOn,placedOn,removedOn,longitude,latitude,geometry_wkt
00023858-5015-40e0-9648-4219390b4793,,,J38,PLACED,"[ { ""type"": ""VRIJ"", ""text"": ""4x"" } ]",W,Bachlaan,,,600752043.0,2024-03-01,Aalsmeer,GM0358,Aalsmeer,,https://wegkenmerken.ndw.nu/api/images/5a48a8ea-d961-4539-aee2-a7aac7b6a7e0,2021-12-08,2022-11-14,,,,4.7681548388301,52.249735912668,POINT (4.768155 52.249736)
00023d6c-896c-414e-8a14-9fdd37f83914,,,J38,PLACED,[ ],O,Munnikenweg,,,600729297.0,2024-03-01,Lansingerland,GM1621,Berkel en Rodenrijs,,https://wegkenmerken.ndw.nu/api/images/e7aa3d82-0bb5-4693-8641-118053aaa4dd,2016-08-26,2022-09-23,,,,4.4992308768282,52.031049433234,POINT (4.499231 52.031049)
00047aa8-7b07-4eb2-873e-bac8886fa367,,,J38,PLACED,"[ { ""type"": ""VRIJ"", ""text"": ""drempels"" } ]",N,Zuid-Hollandweg,,,268267126.0,2024-03-01,Vijfheerenlanden,GM1961,Leerdam,,https://wegkenmerken.ndw.nu/api/images/76325214-12ba-4e2c-acd0-3ff5f031a4cd,2016-05-11,2022-07-22,,,,5.0900987689393,51.889417565683,POINT (5.090099 51.889418)
000dd1be-25b7-4cb1-b2fe-c90d3d8fede9,,,J38,PLACED,[ ],W,Lage Valkseweg,2.0,801.0,600947914.0,2024-03-01,Ede,GM0228,Wekerom,,https://wegkenmerken.ndw.nu/api/images/71f7ffca-a607-4d98-ad49-1a99c915e2c0,2018-06-29,2022-06-20,,,,5.712977787615,52.116603548244,POINT (5.712978 52.116604)
00128b47-98c3-4098-b260-0cb06c58d57e,,,J38,PLACED,[ ],Z,Beelaertsstraat,,,366075018.0,2024-03-01,Sittard-Geleen,GM1883,Obbicht,,https://wegkenmerken.ndw.nu/api/images/7eeaeccd-321e-4652-b805-bb812f7399d1,2016-08-17,2022-10-05,,,,5.7882117401829,51.028606663954,POINT (5.788212 51.028607)
0014c91e-6f34-4464-8b48-a32b6c1e5c9e,,,J38,PLACED,[ ],Z,Operaweg,,,600969143.0,2024-03-01,Amersfoort,GM0307,Amersfoort,,https://wegkenmerken.ndw.nu/api/images/6f7d8ba1-732a-4e1d-bdab-65d5ccc73476,2016-06-13,2022-05-30,,,,5.412591630044,52.157940552149,POINT (5.412592 52.157941)
0017ccc9-e193-4462-896e-84e195dc17c6,,,J38,PLACED,[ ],O,Molenweg,,,356285017.0,2024-03-01,Renkum,GM0274,Renkum,,https://wegkenmerken.ndw.nu/api/images/27bf5bcd-9edb-4964-a5f1-6047780f587f,2016-10-10,2022-03-23,,,,5.7298702593938,51.97521436825,POINT (5.72987 51.975214)
002351e1-ff07-4737-b24d-76feba5a4c7f,,,J38,PLACED,[ ],N,Kosterijweg,,,348325012.0,2024-03-01,Barneveld,GM0203,Kootwijkerbroek,,https://wegkenmerken.ndw.nu/api/images/8a899156-ea58-40c7-842a-e51c742446d7,2016-07-21,2022-08-10,,,,5.670186812245,52.15274033845,POINT (5.670187 52.15274)
0026bd8a-52e0-4519-9f09-346e15dda407,,,J38,PLACED,[ ],W,Parallelweg,,,327302003.0,2024-03-01,Renswoude,GM0339,Renswoude,,https://wegkenmerken.ndw.nu/api/images/cb56f73f-9aba-44fd-ba58-6446ea3b00f7,2016-02-12,2024-02-19,,,,5.5170113955515,52.050257140949,POINT (5.517011 52.050257)
002ac4cb-22c7-4730-bc58-a1c14b98810d,,,J38,PLACED,[ ],O,Couperuslaan,,,601136776.0,2024-03-01,Harderwijk,GM0243,Harderwijk,,https://wegkenmerken.ndw.nu/api/images/be087bc8-43c5-4b6a-8efd-d2f0d10da163,2016-09-20,2022-09-20,,,,5.6307596164742,52.345109313628,POINT (5.63076 52.345109)
003416b6-ae2d-47ed-99e6-88a850fcf6a3,,,J38,PLACED,[ ],O,Bloklaan,2.0,403.0,600946104.0,2024-03-01,Wijdemeren,GM1696,Loosdrecht,,https://wegkenmerken.ndw.nu/api/images/bf91907b-91d6-4db1-a435-7b6cb68d3f97,2017-02-01,2022-02-25,,,,5.0442434632838,52.20065724713,POINT (5.044243 52.200657)
003e1f09-8751-428f-9aa0-d79553626ccf,,,J38,PLACED,[ ],W,Korte Welleweg,,,148263011.0,2024-03-01,Voorne aan Zee,GM1992,Zwartewaal,,https://wegkenmerken.ndw.nu/api/images/44177236-fc4e-4151-8b99-78d4dab4fe29,2021-09-22,2022-09-19,,,,4.2188816936824,51.86752485206,POINT (4.218882 51.867525)
00433212-6421-4694-a3bb-a708b3120775,,,J38,PLACED,[ ],O,Kerkweg,,,220456005.0,2024-03-01,Schagen,GM0441,Sint Maarten,,https://wegkenmerken.ndw.nu/api/images/43d8a0ab-45a2-4b74-9d74-3e70210ce052,2016-11-08,2022-06-30,,,,4.7294395664905,52.739392692698,POINT (4.72944 52.739393)
0045a91a-3079-4908-803e-31edded109c4,,,J38,PLACED,[ ],N,Goudse Houtsingel,,,600892607.0,2024-03-01,Gouda,GM0513,Gouda,,https://wegkenmerken.ndw.nu/api/images/0eab91ad-2e98-40b0-b3f8-79fb65f0d866,2020-05-20,2022-06-13,,,,4.7273390240527,52.021932610151,POINT (4.727339 52.021933)
00511ddb-7c87-41e8-85ff-2fc0b9d9ba1a,,,J38,PLACED,[ ],N,Goverwelletunnel,,,600892803.0,2024-03-01,Gouda,GM0513,Gouda,,https://wegkenmerken.ndw.nu/api/images/0ad20377-98d0-4ff7-80b9-7007c132e8a5,2020-05-20,2022-06-13,,,,4.7419971463308,52.016824521612,POINT (4.741997 52.016825)
0052703b-399e-4460-8ed4-eff0a8918e94,,,J38,PLACED,[ ],Z,Rijksstraatweg,,,600463036.0,2024-03-01,Pijnacker-Nootdorp,GM1926,Delfgauw,,https://wegkenmerken.ndw.nu/api/images/91322050-113a-457d-94fe-62f5f04011af,2016-02-04,2022-05-30,,,,4.3922354150282,51.991595931179,POINT (4.392235 51.991596)
0054c977-c5bd-45e1-9764-9eed1824e75d,,,J38,PLACED,[ ],O,Lunenburg,,,601078002.0,2024-03-01,Dordrecht,GM0505,Dordrecht,,https://wegkenmerken.ndw.nu/api/images/66d47e88-5437-4e4c-bbd5-2ee0e735fc07,2016-03-08,2022-04-29,,,,4.6792316954325,51.774735037308,POINT (4.679232 51.774735)
005e4fe7-ac94-4f05-92a4-625c995378ee,,,J38,PLACED,[ ],N,Breudijk,,,253315004.0,2024-03-01,Woerden,GM0632,Harmelen,,https://wegkenmerken.ndw.nu/api/images/3fb7de31-c1af-4e3a-a4df-f64922ca6f0b,2016-06-09,2022-07-01,,,,4.9725662157169,52.106674390812,POINT (4.972566 52.106674)
005fc0ae-6994-47d5-bf4d-681021b9a238,,,J38,PLACED,[ ],N,Paardekopweg,,,375172001.0,2024-03-01,Deurne,GM0762,Deurne,,https://wegkenmerken.ndw.nu/api/images/e6a8cb96-830e-4564-aabc-6959b312f0b5,2020-11-03,2022-12-07,,,,5.8627968742846,51.461079564319,POINT (5.862797 51.46108)
00709831-06d4-4234-8923-43b42845ac2a,,,J38,PLACED,[ ],O,Grubbenvorsterweg,,,405162001.0,2024-03-01,Horst aan de Maas,GM1507,Hegelsom,,https://wegkenmerken.ndw.nu/api/images/4599b369-88a5-41c2-b4ad-d6e50471f40b,2021-11-26,2022-10-25,,,,6.0772337508203,51.420128797954,POINT (6.077234 51.420129)
007546af-00ce-4449-b3a4-bbd0034419b1,,,J38,PLACED,[ ],N,Booldersdijk,,,600220301.0,2024-03-01,Nederweert,GM0946,Nederweert,,https://wegkenmerken.ndw.nu/api/images/6ba24345-fea0-400f-8bb1-61d5790ae2eb,2021-06-28,2022-06-28,,,,5.7013613201906,51.318262420865,POINT (5.701361 51.318262)
0079f2e2-7d7b-449d-a70e-1a6041ea5000,,,J38,PLACED,[ ],N,Parklaan,,,398104049.0,2024-03-01,Roerdalen,GM1669,Melick,,https://wegkenmerken.ndw.nu/api/images/c0eea65f-5e9e-423f-9673-d9bfeaea19ea,2016-04-13,2022-03-03,,,,6.0185070364713,51.159846903513,POINT (6.018507 51.159847)
007d99cb-f5bc-41b7-a64d-6bf24c42c954,,,J38,PLACED,[ ],N,Zuideropgaande,,,465442007.0,2024-03-01,Hoogeveen,GM0118,Hollandscheveld,,https://wegkenmerken.ndw.nu/api/images/f533ffa7-6fa4-4c17-9d97-6c2e102c67a8,2020-03-23,2022-03-11,,,,6.5368297280235,52.673073417861,POINT (6.53683 52.673073)
00819634-0776-4493-8bdb-10d001ba72c2,,,J38,PLACED,[ ],W,Apeldoornsestraat,,,340333005.0,2024-03-01,Barneveld,GM0203,Voorthuizen,,https://wegkenmerken.ndw.nu/api/images/32e512f1-9397-42c1-9e0d-ec9c55a07427,2016-07-18,2022-08-12,,,,5.6101577178314,52.187651044547,POINT (5.610158 52.187651)
00850b1c-59ac-4c78-ae3e-63ae06948b36,,,J38,PLACED,[ ],N,C. van Eesterenlaan,,,600383256.0,2025-09-01,Amsterdam,GM0363,Amsterdam,,,2025-09-09,2025-09-09,,2025-09-09,,4.93861184818176,52.3722403994745,POINT (4.938612 52.37224)
00866c96-17c8-4868-a4af-efc7ef499c91,,,J38,PLACED,[ ],W,Admiralengracht,,,,,Amsterdam,GM0363,Amsterdam,,https://wegkenmerken.ndw.nu/api/images/18151cff-39da-4bfe-a28f-17458fa6db37,2016-08-23,2022-05-19,,,,4.8560990766535,52.371163768049,POINT (4.856099 52.371164)
008b2466-c291-466c-8f3a-3306d72ac7fc,,,J38,PLACED,[ ],W,'t Spijk,,,211391018.0,2024-03-01,Velsen,GM0453,Velsen-Zuid,,https://wegkenmerken.ndw.nu/api/images/1175014e-de34-4346-b50e-39901f43eacb,2019-12-27,2022-11-28,,,,4.6642200565102,52.446701319377,POINT (4.66422 52.446701)
008d817f-e207-4522-b7f4-9bb5cb854888,,,J38,PLACED,[ ],O,Heereweg,,,215450004.0,2024-03-01,Bergen (NH),GM0373,Schoorl,,https://wegkenmerken.ndw.nu/api/images/685f3d60-1bd1-4c15-b6a8-7ebe0ad97aee,2016-09-20,2022-11-15,,,,4.6876317567364,52.712258315398,POINT (4.687632 52.712258)
00957449-546b-4b8f-86d8-a5a6453b417d,,,J38,PLACED,[ ],Z,Koningin Wilhelminalaan,,,307324048.0,2024-03-01,Amersfoort,GM0307,Amersfoort,,https://wegkenmerken.ndw.nu/api/images/6e698f95-87ab-40df-b752-1027591c18a0,2020-04-16,2022-05-17,,,,5.3711092146108,52.150617548721,POINT (5.371109 52.150618)
00a195ed-82a3-4b60-bd97-67c180d37a80,,,J38,PLACED,[ ],Z,Oostvaardersdijk,2.0,701.0,600946535.0,2024-03-01,Almere,GM0034,Almere,,https://wegkenmerken.ndw.nu/api/images/d9a0b4f2-59fe-49fd-b050-a6cd899d16a1,2016-01-15,2022-03-16,,,,5.2279792519318,52.419794652372,POINT (5.227979 52.419795)
00a9df76-f938-4a3b-9af3-1972d96530ed,,,J38,PLACED,[ ],Z,Molenweg,,,601015463.0,2024-03-01,Land van Cuijk,GM1982,Vierlingsbeek,,https://wegkenmerken.ndw.nu/api/images/f064c28c-c235-430c-b939-7aafa161b16f,2021-01-26,2022-11-07,,,,5.9983895545858,51.597961321135,POINT (5.99839 51.597961)
00b0ee78-7030-4be3-a1d4-4b9823183358,,,J38,PLACED,[ ],Z,Oudelandseweg,,,600762584.0,2024-03-01,Woerden,GM0632,Woerden,,https://wegkenmerken.ndw.nu/api/images/0a864426-75d0-471c-82a0-622b3b0c6f7c,2018-06-07,2024-02-19,,,,4.8932835394815,52.091959949987,POINT (4.893284 52.09196)
00bd1695-f6bd-4c99-90e3-17c7d230ea69,,,J38,PLACED,[ ],O,Kapelweg,,,292199001.0,2024-03-01,Boxtel,GM0757,Boxtel,,https://wegkenmerken.ndw.nu/api/images/d685f60a-b299-4130-845d-a3be665a3af5,2016-02-12,2022-02-23,,,,5.2730572218985,51.588184587468,POINT (5.273057 51.588185)
00c0664c-4187-4014-a2a5-a9236a3a3813,,,J38,PLACED,"[ { ""type"": ""VRIJ"", ""text"": ""3 x"" } ]",W,Achterdijkshoorn,,,164293109.0,2024-03-01,Midden-Delfland,GM1842,Den Hoorn,,https://wegkenmerken.ndw.nu/api/images/29c9ffba-c3c6-480f-b73e-129052477906,2016-11-17,2022-11-10,,,,4.3258227724739,52.002963921641,POINT (4.325823 52.002964)
00c1842b-75ef-405f-9ea1-80c25ae50579,,,J38,PLACED,[ ],L,Amsterdamsevaart,,,213377010.0,2024-03-01,Haarlem,GM0392,Haarlem,,https://wegkenmerken.ndw.nu/api/images/586bd093-9047-46cc-bbb0-93a8d96d7977,2020-10-06,2022-10-02,,,,4.6812135622439,52.382999917322,POINT (4.681214 52.383)
00c3a38d-d592-428c-992a-7d53a82561de,,,J38,PLACED,[ ],W,Kievitstraat,,,600380933.0,2024-03-01,Woerden,GM0632,Woerden,,https://wegkenmerken.ndw.nu/api/images/b3b907a7-a7a4-4c55-a721-2a66de5b980a,2016-06-01,2022-07-06,,,,4.8835238673925,52.091141103542,POINT (4.883524 52.091141)
00c90c2c-21d7-4100-896e-95da491ce481,,,J38,PLACED,[ ],Z,Dijkstraat,,,356161001.0,2024-03-01,Asten,GM0743,Asten,,https://wegkenmerken.ndw.nu/api/images/d4421b6e-82f4-495e-8f56-b0916ab7d832,2016-04-28,2022-03-21,,,,5.7241608644121,51.415102965001,POINT (5.724161 51.415103)
00d3f378-d38f-44d9-8125-82c0dcc6fbb7,,,J38,PLACED,[ ],Z,Nieuwgraaf,,,600994169.0,2024-03-01,Duiven,GM0226,Duiven,,https://wegkenmerken.ndw.nu/api/images/81f263d0-d105-4205-bf30-499e1d596767,2020-03-24,2022-03-11,,,,5.9894600369273,51.966518666571,POINT (5.98946 51.966519)
00d4a1fd-dec1-4cfd-b52c-b17caf594290,,,J38,PLACED,[ ],O,Persingensestraat,,,600837213.0,2024-03-01,Berg en Dal,GM1945,Persingen,,https://wegkenmerken.ndw.nu/api/images/6dec100e-c8c2-4af5-9296-40dbfc668f8c,2022-03-14,2022-03-14,,,,5.923087134137,51.840851232704,POINT (5.923087 51.840851)
00d54ff5-1d25-4a64-bc8e-73e3bd3838b5,,,J38,PLACED,[ ],O,Hillegommerdijk,,,601089308.0,2024-03-01,Haarlemmermeer,GM0394,Lisserbroek,,https://wegkenmerken.ndw.nu/api/images/0ca36812-c151-4f8b-9c25-3112fd0d3588,2016-06-27,2022-07-13,,,,4.5833166009027,52.276825279058,POINT (4.583317 52.276825)
00d797de-7b25-4eff-a28f-d42a637acd74,,,J38,PLACED,[ ],O,Koppelweg,,,600418483.0,2024-03-01,Doesburg,GM0221,Doesburg,,https://wegkenmerken.ndw.nu/api/images/9178b0d4-79ba-4c69-a582-cf1f6f9d8214,2016-09-08,2022-10-11,,,,6.1334134381137,52.008199035873,POINT (6.133413 52.008199)
00d93de7-8e90-42df-b311-5749db2cb6ed,,,J38,PLACED,[ ],O,Bruynisstraat,,,317267134.0,2025-03-01,Tiel,GM0281,Tiel,,,2025-03-17,2025-03-17,,2025-03-17,,5.44499251708832,51.8924566404816,POINT (5.444993 51.892457)
00d958c8-1f9f-4b5f-80a0-06b7136efcbf,,,J38,PLACED,[ ],O,Lozerlaan,,,601013984.0,2024-03-01,'s-Gravenhage,GM0518,'s-Gravenhage,,https://wegkenmerken.ndw.nu/api/images/cbb3c6f5-606c-48d2-9779-c785a3852448,2016-10-03,2022-10-11,,,,4.2485849657236,52.037343443551,POINT (4.248585 52.037343)
00da2771-8446-4e8a-921e-e3c7040688b0,,,J38,PLACED,[ ],W,Hoofdweg,,,600742505.0,2024-03-01,Haarlemmermeer,GM0394,Nieuw-Vennep,,https://wegkenmerken.ndw.nu/api/images/e5d6dd84-9f79-4463-9448-0d181fe38d17,2016-06-28,2022-07-14,,,,4.6581630048572,52.281763682742,POINT (4.658163 52.281764)
00dc5021-8b5e-4a4f-bda5-7d2f919300bf,,,J38,PLACED,[ ],W,Valburgsestraat,,,600826142.0,2024-03-01,Overbetuwe,GM1734,Slijk-Ewijk,,https://wegkenmerken.ndw.nu/api/images/429d2871-7b69-41fc-afd2-84ead50f1b35,2021-01-22,2022-02-03,,,,5.780446312654,51.901629418587,POINT (5.780446 51.901629)
00e94f27-3bda-41d3-b28a-66b94cd59dd1,,,J38,PLACED,[ ],N,Leidsevaart,,,190349001.0,2024-03-01,Noordwijk,GM0575,Noordwijkerhout,,https://wegkenmerken.ndw.nu/api/images/960c8511-742f-4796-b31b-0bcd6a68b0b2,2016-05-17,2022-06-09,,,,4.5172534546323,52.258145978075,POINT (4.517253 52.258146)
00ef2e5e-dd24-4044-a4b5-1098307ac713,,,J38,PLACED,[ ],O,Weversstraat,,,383218006.0,2024-03-01,Land van Cuijk,GM1982,Beugen,,https://wegkenmerken.ndw.nu/api/images/3ef7fe7e-6f07-4288-ab9e-e186d2bae088,2017-01-10,2022-11-09,,,,5.9243727968533,51.670739250153,POINT (5.924373 51.670739)
00f2fc06-b150-47bb-979b-fda30195a2fb,,,J38,PLACED,[ ],Z,Schapenatjesduin,,,600929500.0,2024-03-01,'s-Gravenhage,GM0518,'s-Gravenhage,,https://wegkenmerken.ndw.nu/api/images/49fe8301-0414-4bb0-9ca5-4058538defbd,2020-09-30,2022-10-04,,,,4.2203051361444,52.064313417571,POINT (4.220305 52.064313)
00f4790b-5900-4f10-ac44-b14f8757188b,,,J38,PLACED,[ ],N,Leguijt,,,166193001.0,2024-03-01,Steenbergen,GM0851,Steenbergen,,https://wegkenmerken.ndw.nu/api/images/45a3fbf4-1f2b-4a78-8f14-940285775d6b,2016-06-03,2022-07-07,,,,4.3512324550426,51.554584777501,POINT (4.351232 51.554585)
00f5d947-7ac3-4786-a73e-d76156965a52,,,J38,PLACED,[ ],W,Groenezoom,,,600981642.0,2024-03-01,Dordrecht,GM0505,Dordrecht,,https://wegkenmerken.ndw.nu/api/images/dcce5194-da33-4101-b67b-e6a7d4f4134b,2016-03-10,2022-04-20,,,,4.7102731007609,51.80290040883,POINT (4.710273 51.8029)
00f63aaa-9c0b-4bf6-93bc-6e0ec2cd5e79,,,J38,PLACED,"[ { ""type"": ""VRIJ"", ""text"": ""3x"" } ]",W,Rijnbandijk,,,341277012.0,2024-03-01,Neder-Betuwe,GM1740,Opheusden,,https://wegkenmerken.ndw.nu/api/images/9ebb4e79-a13c-45dd-a706-0314c3f0a7de,2018-02-28,2022-02-28,,,,5.6121892137641,51.939289176163,POINT (5.612189 51.939289)
00f68824-2191-42b6-89cc-1b304aaac781,,,J38,PLACED,[ ],R,Leuvenumseweg,2.0,302.0,600947637.0,2024-03-01,Harderwijk,GM0243,Harderwijk,,https://wegkenmerken.ndw.nu/api/images/9324fb70-b7ce-4721-bd78-ecc6d2ba5b1f,2016-09-19,2022-09-19,,,,5.6402420414626,52.331979843838,POINT (5.640242 52.33198)
00f7ce02-20ec-4a51-a25d-e2317cb2cefc,,,J38,PLACED,[ ],O,Hoekseweg,,,188241001.0,2024-03-01,Hoeksche Waard,GM1963,Strijen,,https://wegkenmerken.ndw.nu/api/images/762e0dc6-74d8-4747-9567-1dc301d5c15c,2016-10-28,2022-09-12,,,,4.5262983652417,51.770602857591,POINT (4.526298 51.770603)
00f86af7-1029-41cf-ae37-92ed684d2bad,,,J38,PLACED,[ ],W,Vreuchdenberchdreef,,,272318004.0,2024-03-01,Utrecht,GM0344,Utrecht,,https://wegkenmerken.ndw.nu/api/images/8d79d63d-61a0-4dd0-badd-975aaa747194,2016-04-19,2022-03-22,,,,5.1150009073733,52.119803282106,POINT (5.115001 52.119803)
00f96be4-9960-44ef-9205-ef05f0ae3cf3,,,J38,PLACED,[ ],W,Bentz-Berg,,,267288041.0,2024-03-01,Vijfheerenlanden,GM1961,Vianen,,https://wegkenmerken.ndw.nu/api/images/b9775704-79a4-43f9-9ac8-0eac4f3ee9cb,2020-07-22,2022-07-10,,,,5.075713502531,51.986589773708,POINT (5.075714 51.98659)
010814e5-8032-4f0c-96b9-9f7a34fdb173,,,J38,PLACED,[ ],O,Achterzeedijk,,,601059406.0,2024-03-01,Barendrecht,GM0489,Barendrecht,,https://wegkenmerken.ndw.nu/api/images/ad5cc97c-02ae-43da-85d3-95030ef22029,2016-10-14,2022-11-14,,,,4.5458061050958,51.834822792295,POINT (4.545806 51.834823)
010994a2-b15f-4092-84f0-bde0e3dd613f,,,J38,PLACED,[ ],O,Hondsbergweg,,,377196004.0,2024-03-01,Land van Cuijk,GM1982,Overloon,,https://wegkenmerken.ndw.nu/api/images/23cdc51e-db5b-4a6b-bc80-49be4ce127cd,2020-02-03,2022-11-07,,,,5.8788013820834,51.575918521325,POINT (5.878801 51.575919)
010b7baf-5748-44cd-ba2f-3059402fba87,,,J38,PLACED,[ ],W,Vosseneindseweg,,,370240008.0,2024-03-01,Heumen,GM0252,Heumen,,https://wegkenmerken.ndw.nu/api/images/6ee28f0e-fbfc-4b0e-b8e0-6df271e9513e,2021-06-15,2022-04-30,,,,5.827766729592,51.767713608329,POINT (5.827767 51.767714)
01145eac-cb8d-40a6-8a32-6db7d3eea56d,,,J38,PLACED,[ ],Z,Runsdijk,,,600266463.0,2024-03-01,Boxtel,GM0757,Esch,,https://wegkenmerken.ndw.nu/api/images/01835c88-70db-48d9-9da0-e1dbdea58803,2016-05-20,2022-02-22,,,,5.3001875546122,51.614352550994,POINT (5.300188 51.614353)
01149da6-430b-48d2-8282-625f334a0d14,,,J38,PLACED,[ ],N,Gedempte Insteekhaven,,,245377120.0,2024-03-01,Amsterdam,GM0363,Amsterdam,,https://wegkenmerken.ndw.nu/api/images/7cc97585-33eb-448b-8fd6-20925096a5b6,2016-07-26,2022-06-03,,,,4.9163993035562,52.383808824816,POINT (4.916399 52.383809)
011931f8-a518-4cb8-a85a-3adf4c0938cf,,,J38,PLACED,[ ],L,Groene Kruisweg,2.0,493.0,600276339.0,2024-03-01,Nissewaard,GM1930,Spijkenisse,,https://wegkenmerken.ndw.nu/api/images/2faaf26b-6705-4d3b-ba64-1b147538eca5,2016-05-04,2022-06-16,,,,4.3035738655579,51.855693860588,POINT (4.303574 51.855694)
01263bf5-0083-4532-b3b2-2591799fb4fd,,,J38,PLACED,[ ],Z,Gastelseweg,,,600733280.0,2024-03-01,Rucphen,GM0840,Rucphen,,https://wegkenmerken.ndw.nu/api/images/569d1729-b290-4c90-acc5-726326aea08c,2020-08-13,2022-07-13,,,,4.5465598244291,51.53969567748,POINT (4.54656 51.539696)
0126e88a-798b-4420-80c5-8ddaad23f65a,,,J38,PLACED,[ ],W,Eeuwigelaan,,,215440017.0,2024-03-01,Bergen (NH),GM0373,Bergen (NH),,https://wegkenmerken.ndw.nu/api/images/93a219d3-df2a-42aa-9caa-cbd151aa63b7,2016-09-20,2022-11-10,,,,4.6874172684829,52.667084517943,POINT (4.687417 52.667085)
0128d23b-e16e-4901-8607-fafbf59a0496,,,J38,PLACED,[ ],W,Vreestraat,,,319236001.0,2024-03-01,Oss,GM0828,Geffen,,https://wegkenmerken.ndw.nu/api/images/6c83d1af-95bb-4172-91bb-632136145512,2016-11-03,2022-08-16,,,,5.454111139351,51.754584889034,POINT (5.454111 51.754585)
013a81a6-d1be-4d57-8c51-868751a4a78e,,,J38,PLACED,[ ],Z,Rozenvendreef,,,600728158.0,2024-03-01,Roosendaal,GM1674,Roosendaal,,https://wegkenmerken.ndw.nu/api/images/d700ebf7-3b19-41fe-9f79-3b6c10d67ccb,2016-01-18,2022-03-16,,,,4.4892008909899,51.515746697188,POINT (4.489201 51.515747)
0141ae24-f798-4e30-96ea-5ae4d8b3e523,74544076-BFC1-4F77-9AAB-52712BAEA574,,J38,PLACED,[ ],ZZO,Kilweg,,,600405639.0,2025-08-01,Hoeksche Waard,GM1963,'s-Gravendeel,,,2025-08-21,2025-08-21,,2025-08-21,,4.624518073959924,51.774746796146644,POINT (4.624518 51.774747)
0142b3af-e5b8-4813-b777-6a6d9e3729d7,,,J38,PLACED,[ ],R,Sandelingen-W,,,203255007.0,2024-03-01,Hendrik-Ido-Ambacht,GM0531,Hendrik-Ido-Ambacht,,https://wegkenmerken.ndw.nu/api/images/5fd4b4fb-0941-4780-a258-64a4d8d61d71,2016-05-09,2022-05-03,,,,4.6156104146702,51.837631034673,POINT (4.61561 51.837631)
01432f74-497d-4ae7-a09e-fdf289a25d41,,,J38,PLACED,"[ { ""type"": ""VRIJ"", ""text"": ""Pas op! Slechte berm"" } ]",O,Hopweg,,,356477004.0,2024-03-01,Noordoostpolder,GM0171,Rutten,,https://wegkenmerken.ndw.nu/api/images/4b2b9653-3aac-419a-96f2-a9e2f65ce85d,2016-02-19,2022-03-07,,,,5.7444167982568,52.831121937473,POINT (5.744417 52.831122)
014438b3-d4c7-41c6-8b00-0b6b091d6595,,,J38,PLACED,[ ],O,Zuiddijk,,,133231007.0,2024-03-01,Goeree-Overflakkee,GM1924,Herkingen,,https://wegkenmerken.ndw.nu/api/images/9b949a41-d592-450b-98cd-79cf1d30773c,2020-10-19,2022-10-19,,,,4.113426182679,51.72576831382,POINT (4.113426 51.725768)
014c173a-bc51-4bf8-9a69-84fea88712ba,,,J38,PLACED,[ ],N,Asserwijk,,,600869298.0,2024-03-01,Assen,GM0106,Assen,,https://wegkenmerken.ndw.nu/api/images/1c91286e-dcdf-46f8-af59-9a01a6fb5687,2016-09-06,2022-07-18,,,,6.5222148666835,53.004336824978,POINT (6.522215 53.004337)
015008a7-e440-4d33-af33-7be7d304501e,,,J38,PLACED,[ ],N,Provincialeweg,2.0,216.0,244258003.0,2024-03-01,Molenlanden,GM1978,Giessenburg,,https://wegkenmerken.ndw.nu/api/images/27021f1f-05b7-454b-ace1-c7fc22a329df,2016-07-04,2022-09-20,,,,4.9130042746535,51.850372589478,POINT (4.913004 51.850373)
0151bd02-285d-4789-ba5a-b2906b4eb5c7,,,J38,PLACED,[ ],O,Peppelweg,,,234272002.0,2024-03-01,Molenlanden,GM1978,Groot-Ammers,,https://wegkenmerken.ndw.nu/api/images/4fbc6264-6575-43c3-b76e-91a10c3997fc,2017-10-27,2022-09-20,,,,4.864400325485,51.917240372205,POINT (4.8644 51.91724)
015514ec-f8ea-4e6a-b468-4072a74334e4,,,J38,PLACED,[ ],W,Barnseweg,,,600811323.0,2024-03-01,Barneveld,GM0203,Barneveld,,https://wegkenmerken.ndw.nu/api/images/8d39f9ea-4cd3-44f6-8892-fdb93f9c2187,2020-07-29,2022-08-08,,,,5.6012287104703,52.141340425804,POINT (5.601229 52.14134)
01648328-3a23-443f-aae6-a19dc67def98,,,J38,PLACED,[ ],N,Strokelweg,,,601031249.0,2024-03-01,Harderwijk,GM0243,Harderwijk,,https://wegkenmerken.ndw.nu/api/images/accc38a0-f4ee-4704-92ea-e42ad8faf2cd,2016-09-21,2022-09-19,,,,5.6397502958615,52.331003908193,POINT (5.63975 52.331004)
01663d52-a093-4e5b-ae98-ceb2fd51786b,,,J38,PLACED,[ ],Z,Daatselaarseweg,,,332310003.0,2024-03-01,Renswoude,GM0339,Renswoude,,https://wegkenmerken.ndw.nu/api/images/c59c0e14-4c30-483a-ba6a-931d206b4e4a,2020-04-22,2024-02-19,,,,5.5507506200633,52.088413082392,POINT (5.550751 52.088413)
016ad47f-620a-4f46-a164-e3c07d7a0a21,,,J38,PLACED,[ ],N,Prins Hendriklaan,,,601059822.0,2024-03-01,Hilvarenbeek,GM0798,Esbeek,,https://wegkenmerken.ndw.nu/api/images/0165e643-8b1a-4e88-8855-553bff453056,2016-07-07,2022-07-04,,,,5.1190945446937,51.431023693112,POINT (5.119095 51.431024)
01753cbc-faa7-4008-bc2d-ebbd14a406e4,,,J38,PLACED,[ ],O,Arendstraat,,,600989232.0,2024-03-01,Haarlemmermeer,GM0394,Badhoevedorp,,https://wegkenmerken.ndw.nu/api/images/8daa06a4-a122-42b9-9a98-889106a48c37,2020-07-21,2022-07-18,,,,4.7806621201582,52.336594652648,POINT (4.780662 52.336595)
01768721-4fba-4333-9eac-c3f59d091b39,,,J38,PLACED,[ ],Z,Zieuwentseweg,,,467299005.0,2024-03-01,Berkelland,GM1859,Beltrum,,https://wegkenmerken.ndw.nu/api/images/dbbe73e1-bc59-4386-a4cd-2e77530d51f8,2016-12-05,2022-03-10,,,,6.5344841639279,52.029383431777,POINT (6.534484 52.029383)
01772bc1-671a-45f6-b927-810db3b3ac5b,,,J38,PLACED,[ ],N,Lotsweg,,,601001856.0,2024-03-01,Midden-Delfland,GM1842,Schipluiden,,https://wegkenmerken.ndw.nu/api/images/d5efe61e-6310-4cef-98e4-046194009410,2021-11-17,2022-11-10,,,,4.315706219942,51.996434062568,POINT (4.315706 51.996434)
01831c6a-cf97-4d9a-9196-1b39e1426836,,,J38,PLACED,[ ],L,Groene Kruisweg,2.0,492.0,600944559.0,2024-03-01,Rotterdam,GM0599,Hoogvliet Rotterdam,,https://wegkenmerken.ndw.nu/api/images/d7081e5a-9e68-48da-86d4-f0f0e7d02122,2020-03-26,2022-03-16,,,,4.381091917833,51.861641588887,POINT (4.381092 51.861642)
0184da7b-246d-4b72-bb20-c2bbe751c2c5,,,J38,PLACED,[ ],W,Kerkweg,,,220456005.0,2024-03-01,Schagen,GM0441,Sint Maarten,,https://wegkenmerken.ndw.nu/api/images/25f4d2ae-ef5b-4001-9a2e-003199e77820,2016-11-08,2022-06-30,,,,4.7305781128752,52.739331176975,POINT (4.730578 52.739331)
018934d1-d81a-4cb5-8621-33b913f395fc,,,J38,PLACED,[ ],N,Heensedijk,,,153208004.0,2024-03-01,Steenbergen,GM0851,De Heen,,https://wegkenmerken.ndw.nu/api/images/963faa0b-bc5c-4251-a752-e6aa09452589,2016-06-08,2022-07-05,,,,4.2611748906878,51.615532081143,POINT (4.261175 51.615532)
018c1085-b859-423a-ad84-230dd5f0a580,,,J38,PLACED,[ ],O,Willeskop,2.0,228.0,600945811.0,2024-03-01,Montfoort,GM0335,Montfoort,,https://wegkenmerken.ndw.nu/api/images/d863821a-3a24-466a-a7a9-b5761dab2677,2017-01-26,2022-09-13,,,,4.9088260156631,52.023752553595,POINT (4.908826 52.023753)
01a0bf93-8ecc-49d8-a8e3-027a82a4661e,,,J38,PLACED,[ ],O,Rijksweg,,,119214009.0,2024-03-01,Schouwen-Duiveland,GM1676,Nieuwerkerk,,https://wegkenmerken.ndw.nu/api/images/7c3cc3a2-f8a0-4667-98ad-fa45865f3095,2020-10-15,2022-10-05,,,,4.015519179755,51.650023588698,POINT (4.015519 51.650024)
01a30160-778f-4cc0-8de1-8c5724e68436,,,J38,PLACED,[ ],Z,Diefdijk,,,275273005.0,2024-03-01,Vijfheerenlanden,GM1961,Schoonrewoerd,,https://wegkenmerken.ndw.nu/api/images/dbb2c291-1419-4b81-9e58-be7fe2a69ddb,2018-06-28,2022-07-10,,,,5.1395843092922,51.922532272285,POINT (5.139584 51.922532)
01a44996-9467-4a3e-879e-ff07835600c2,,,J38,PLACED,"[ { ""type"": ""VRIJ"", ""text"": ""situatie gewijzigd"" } ]",O,Terbekeweg,,,372390041.0,2024-03-01,Elburg,GM0230,Elburg,,https://wegkenmerken.ndw.nu/api/images/fe2db715-5693-4380-bebe-46595b73cfc4,2016-06-17,2022-06-28,,,,5.8499976161541,52.444131376992,POINT (5.849998 52.444131)
01a8ead0-6d35-44ab-aefc-b8b6f86ff1ef,,,J38,PLACED,[ ],NW,Basisweg,,102.0,231379024.0,2025-09-01,Amsterdam,GM0363,Amsterdam,,,2025-09-09,2025-09-09,,2025-09-09,,4.81266716939712,52.3923254644877,POINT (4.812667 52.392325)
01a91b99-a6dd-4e2e-bcb2-26951baf3030,4CA91F0F-3A9C-4285-BB24-969898A02ECA,,J38,PLACED,[ ],OZO,Poortlaan,,,601094797.0,2025-08-01,Hoeksche Waard,GM1963,Oud-Beijerland,,https://wegkenmerken.ndw.nu/api/images/2ade27bc-c5ba-4116-8410-027eb2a89388,2016-11-03,2025-08-21,,,,4.4363384354736635,51.81972246282082,POINT (4.436338 51.819722)
01abe1ec-44bb-4aa9-af28-f3eaebfb8e44,,,J38,PLACED,[ ],O,Slingerweg,2.0,704.0,600969776.0,2024-03-01,Zeewolde,GM0050,Zeewolde,,https://wegkenmerken.ndw.nu/api/images/077094e2-3e55-4104-a98d-12cf1f12a1b3,2016-05-02,2022-05-06,,,,5.4425465051385,52.279263539389,POINT (5.442547 52.279264)
01bbebb1-7473-432a-83a3-b1c28746a4ff,,,J38,PLACED,[ ],Z,J.P. de Waardpad,,,,,Rotterdam,GM0599,Rotterdam,,https://wegkenmerken.ndw.nu/api/images/e9e5c11a-c0ba-43f7-a238-9ef7112819c3,2022-03-22,2022-03-22,,,,4.5292185017563,51.869583301287,POINT (4.529219 51.869583)
01bbec8f-019d-4226-b712-06a70ca912d7,,,J38,PLACED,[ ],N,Hoornse Jaagweg,,,257423020.0,2024-03-01,Edam-Volendam,GM0385,Oosthuizen,,https://wegkenmerken.ndw.nu/api/images/7a865895-c1b5-4224-8481-8f338c0dd170,2016-11-02,2022-11-22,,,,5.0013421542123,52.592475186064,POINT (5.001342 52.592475)
01c0ddd2-f7f5-4540-82fa-5a7e62138cfd,,,J38,PLACED,[ ],O,Hoofdweg,,,600250106.0,2024-03-01,Haarlemmermeer,GM0394,Nieuw-Vennep,,https://wegkenmerken.ndw.nu/api/images/2b91bca2-5736-45a5-882b-0ce63d815c15,2016-06-29,2022-07-13,,,,4.6085656775219,52.246998103,POINT (4.608566 52.246998)
01c1df0c-938f-4451-8a33-5da80838c38e,,,J38,PLACED,[ ],O,Veersedijk,,,236278021.0,2024-03-01,Molenlanden,GM1978,Groot-Ammers,,https://wegkenmerken.ndw.nu/api/images/0a733bd5-57ef-4d8f-9e59-84be922d1262,2016-10-12,2022-09-20,,,,4.8602930725392,51.937120483471,POINT (4.860293 51.93712)
01c9490e-adf7-49d7-ae96-2813e774359e,,,J38,PLACED,[ ],W,Jurgensstraat,,,600386569.0,2024-03-01,Stein,GM0971,Elsloo,,https://wegkenmerken.ndw.nu/api/images/f17b07fc-f09d-4eb6-9dfa-92850b81b189,2020-01-28,2022-01-11,,,,5.7707422101697,50.94778143623,POINT (5.770742 50.947781)
01cc89e8-f43f-4ecf-a171-c3541037dae9,,,J38,PLACED,[ ],Z,Spieringweg,,,601004164.0,2024-03-01,Haarlemmermeer,GM0394,Zwaanshoek,,https://wegkenmerken.ndw.nu/api/images/e4695b2d-790c-43a6-b3f5-709062361323,2016-06-27,2022-07-14,,,,4.6125517588651,52.30498247966,POINT (4.612552 52.304982)
01ce6a6f-6ab6-4346-803b-a49eb623dc8c,,,J38,PLACED,[ ],O,Sint Vincentiusstraat,,,377151001.0,2024-03-01,Deurne,GM0762,Neerkant,,https://wegkenmerken.ndw.nu/api/images/ea7669ae-8dd2-4612-9df8-156bc5e7f010,2016-11-14,2022-12-13,,,,5.8784184162322,51.371858070429,POINT (5.878418 51.371858)
01d3020e-008c-413a-8435-87ed9ec9db71,,,J38,PLACED,[ ],O,Zwartemeerweg,,,601024031.0,2024-03-01,Noordoostpolder,GM0171,Kraggenburg,,https://wegkenmerken.ndw.nu/api/images/2b07fe1e-5ddc-40b7-a73a-3fe962f94abd,2016-02-24,2022-03-07,,,,5.9614495932724,52.649344421325,POINT (5.96145 52.649344)
01d7df89-66be-4b91-a345-b8a41831b7ce,,,J38,PLACED,[ ],Z,Roosendaalseweg,,,336344001.0,2024-03-01,Putten,GM0273,Putten,,https://wegkenmerken.ndw.nu/api/images/4414374b-04bd-4d32-9706-0866b122402a,2022-06-15,2024-02-19,,,,5.5830765408138,52.240245773886,POINT (5.583077 52.240246)
01e38c3a-841e-4fdb-828b-b97a0a236014,,,J38,PLACED,[ ],W,Vijverhof,,,600242020.0,2024-03-01,Koggenland,GM1598,Avenhorn,,https://wegkenmerken.ndw.nu/api/images/283d8750-1017-46ee-afc1-58a5aaa13b62,2016-09-27,2022-10-09,,,,4.9482739295879,52.624148843418,POINT (4.948274 52.624149)
01e3c6fd-72a8-4f9a-879e-95eabd0302f6,,,J38,PLACED,[ ],Z,Hengevelderweg,,,,,Hof Van Twente,GM1735,Diepenheim,,https://wegkenmerken.ndw.nu/api/images/cce284a6-9a66-41c8-b4c2-91f148cdc1c5,2016-07-06,2022-06-02,,,,6.5912838979512,52.197212223845,POINT (6.591284 52.197212)
01e5e2e5-bb25-494e-b992-1329bf84be64,,,J38,PLACED,[ ],R,Grote Beer,2.0,915.0,210259036.0,2024-03-01,Alblasserdam,GM0482,Alblasserdam,,https://wegkenmerken.ndw.nu/api/images/81d2551e-d1c5-4cea-af9c-fe68e74e4fae,2016-10-21,2022-11-25,,,,4.6654479957621,51.855708375507,POINT (4.665448 51.855708)
01e737a0-c022-4ab0-90c0-4af55218b966,,,J38,PLACED,[ ],O,Kanaaldijk,,,600751691.0,2024-03-01,Bergen (NH),GM0373,Bergen (NH),,https://wegkenmerken.ndw.nu/api/images/c387a8cc-dfed-42ba-ac40-ea6b4b3b29d1,2021-11-25,2022-11-10,,,,4.7459708173884,52.677261557668,POINT (4.745971 52.677262)
01e86138-c0d8-4ef3-bf68-51186ff52c65,,,J38,PLACED,[ ],Z,Hofdijklaan,,,600429109.0,2024-03-01,Leiderdorp,GM0547,Leiderdorp,,https://wegkenmerken.ndw.nu/api/images/84d11060-589c-4233-819b-9f3df3844924,2016-02-26,2022-03-03,,,,4.5414179671019,52.172928337742,POINT (4.541418 52.172928)
01eddc6e-e113-4315-881f-601710056a22,,,J38,PLACED,[ ],N,Vuurlijn,,,600754898.0,2024-03-01,Uithoorn,GM0451,De Kwakel,,https://wegkenmerken.ndw.nu/api/images/3206f753-426d-4122-8ff4-20c592f261e4,2020-12-02,2022-11-11,,,,4.8086056706913,52.24415643591,POINT (4.808606 52.244156)
01ef7b5b-1ab3-44f8-b764-cccbd7b6e866,,,J38,PLACED,[ ],Z,Hopweg,,,356477004.0,2024-03-01,Noordoostpolder,GM0171,Rutten,,https://wegkenmerken.ndw.nu/api/images/6a8388f3-3a98-4af6-b0c4-dec76285397a,2016-02-19,2022-03-07,,,,5.7637214266811,52.818982948208,POINT (5.763721 52.818983)
01f9aaf1-bcbf-468d-b6d1-833e45248d41,,,J38,PLACED,[ ],Z,Duinweg,,,130257005.0,2024-03-01,Voorne aan Zee,GM1992,Hellevoetsluis,,https://wegkenmerken.ndw.nu/api/images/e3872487-b42d-4708-afd5-8cfb7ab91824,2016-12-06,2022-10-02,,,,4.0843593873513,51.839676881305,POINT (4.084359 51.839677)
02040d13-650f-4f31-a8f8-af00007a6d7f,,,J38,PLACED,[ ],O,Hospitaaldreef,,,600961309.0,2024-03-01,Almere,GM0034,Almere,,https://wegkenmerken.ndw.nu/api/images/c458f7a8-e8a2-49d5-bf34-a6fc503a4045,2018-04-04,2022-03-22,,,,5.2186909650023,52.369671373132,POINT (5.218691 52.369671)
020bffd4-a6ce-4e3d-bfe1-5f8e7f3a8bca,,,J38,PLACED,[ ],Z,Noldijk,,,196257018.0,2024-03-01,Barendrecht,GM0489,Barendrecht,,https://wegkenmerken.ndw.nu/api/images/d5adda41-0f25-4dc7-a6b9-57fbd445adc9,2020-11-12,2022-11-11,,,,4.5688763903442,51.847243293937,POINT (4.568876 51.847243)
0217d085-0ecb-43f4-9d76-3e380b08a470,,,J38,PLACED,[ ],Z,Witte Hoeflaan,,,601138808.0,2024-03-01,Oss,GM0828,Oss,,https://wegkenmerken.ndw.nu/api/images/026933d6-8cca-44fc-9666-b8d6cb4a74c1,2016-11-03,2022-08-18,,,,5.5167799621472,51.746136552383,POINT (5.51678 51.746137)
02217f7a-53b9-4904-b7a5-a1ff4b0950cf,,,J38,PLACED,[ ],ZZO,Eerste Constantijn Huygensstraat,,,240373138.0,2025-09-01,Amsterdam,GM0363,Amsterdam,,https://wegkenmerken.ndw.nu/api/images/ae88f28e-fc2a-4f79-aa18-c53326309427,2016-08-23,2025-09-09,,,,4.8733683238334,52.365360084056,POINT (4.873368 52.36536)
0227197a-2eea-421e-8c3a-49b18fd839b4,,,J38,PLACED,[ ],Z,Provincialeweg Oost,2.0,228.0,230294002.0,2024-03-01,Krimpenerwaard,GM1931,Haastrecht,,https://wegkenmerken.ndw.nu/api/images/4c3a07c5-0ee1-47b0-94fe-978f582202b5,2021-11-18,2022-11-01,,,,4.8459847117179,52.017209946179,POINT (4.845985 52.01721)
022bd6a2-b045-4a71-a890-a1cf21ebcb12,,,J38,PLACED,[ ],N,Legmeerdijk,,,600753943.0,2024-03-01,Aalsmeer,GM0358,Aalsmeer,,https://wegkenmerken.ndw.nu/api/images/107929c9-20ad-458e-91b1-1f2dd86c4aa3,2016-09-27,2022-11-15,,,,4.7847775986734,52.258272484543,POINT (4.784778 52.258272)
022e0ac8-850e-460f-85bd-d91255793b93,,,J38,PLACED,[ ],Z,Huibevendreef,,,257197073.0,2024-03-01,Tilburg,GM0855,Tilburg,,https://wegkenmerken.ndw.nu/api/images/ae395852-f4b5-40c0-b073-d7edc9d98023,2016-06-28,2022-06-15,,,,5.0063621656562,51.578667436708,POINT (5.006362 51.578667)
0234d6b2-2449-4d66-9286-08eed05cfbc5,,,J38,PLACED,[ ],W,Bornsestraat,,,601295809.0,2025-01-01,Dinkelland,GM1774,Saasveld,,https://wegkenmerken.ndw.nu/api/images/09f7d4dc-dd67-4784-afa9-de947677e050,2016-12-21,2022-11-03,,,,6.8144150427475,52.344295052903,POINT (6.814415 52.344295)
024d6870-a4be-4b65-9383-b6cedc4dd810,,,J38,PLACED,[ ],Z,Nieuwe Meerlaan,,,600757088.0,2024-03-01,Amstelveen,GM0362,Amstelveen,,https://wegkenmerken.ndw.nu/api/images/d32d5a43-1a74-419d-9718-06becb073322,2020-10-15,2022-07-13,,,,4.8181092196798,52.31863381005,POINT (4.818109 52.318634)
024e0ee6-ea6a-4161-85d6-32942b4023db,,,J38,PLACED,[ ],O,Thomas Morelaan,,,194306042.0,2024-03-01,Zoetermeer,GM0637,Zoetermeer,,https://wegkenmerken.ndw.nu/api/images/284eb8fc-a7e1-492e-beb2-2f72216290c9,2022-07-20,2022-07-20,,,,4.54731476698,52.062879542337,POINT (4.547315 52.06288)
025163f8-6eb7-4475-898e-095bca813113,,,J38,PLACED,[ ],N,Parkdreef,,,190307059.0,2024-03-01,Zoetermeer,GM0637,Zoetermeer,,https://wegkenmerken.ndw.nu/api/images/74255102-9fe8-4534-a24c-b019ae7ba01b,2020-07-22,2022-08-04,,,,4.5123516493301,52.067268802554,POINT (4.512352 52.067269)
0251ccdf-1b16-4b00-baaa-d40719e3fa77,,,J38,PLACED,[ ],W,Dijkstraat,,,355161003.0,2024-03-01,Asten,GM0743,Asten,,https://wegkenmerken.ndw.nu/api/images/0bc5f09e-0077-4146-bd66-c698aeea128b,2016-04-28,2022-03-21,,,,5.7156913026181,51.41540703358,POINT (5.715691 51.415407)
02532b4f-d82a-4764-aa2e-f706ca9b2fd9,,,J38,PLACED,[ ],W,Marconiweg,,,207247015.0,2024-03-01,Dordrecht,GM0505,Dordrecht,,https://wegkenmerken.ndw.nu/api/images/34793753-8cef-4ad7-b159-49115659f1eb,2020-04-09,2022-04-05,,,,4.645930796807,51.799448478733,POINT (4.645931 51.799448)
025dfd39-2bd8-4e6f-9353-6ac0bf101fc7,,,J38,PLACED,[ ],O,Westerdokskade,,,600762737.0,2024-03-01,Amsterdam,GM0363,Amsterdam,,https://wegkenmerken.ndw.nu/api/images/04ee69cc-013b-421e-8eeb-00857e64b4f8,2018-07-12,2022-06-01,,,,4.8910458629586,52.382599860229,POINT (4.891046 52.3826)
025e55ed-c3e2-45ab-a5c8-ee9f289cebb5,TECH-GM0439-006204,,J38,PLACED,[ ],N,Westerweg,,,601275190.0,2025-09-01,Purmerend,GM0439,Purmerend,,https://wegkenmerken.ndw.nu/api/images/b8e97dfc-246e-4c51-918f-1a6527e98786,2020-01-08,2025-10-03,,,,4.97780601599743,52.48972378045235,POINT (4.977806 52.489724)
02605a24-0ddb-44f1-8f9d-bc6c95d17292,,,J38,PLACED,[ ],N,Hillegommerdijk,,,203359001.0,2024-03-01,Haarlemmermeer,GM0394,Zwaanshoek,,https://wegkenmerken.ndw.nu/api/images/c55afe51-3a5b-427d-b8e4-bb25811aec2e,2016-06-27,2022-07-13,,,,4.6107561211028,52.310530479747,POINT (4.610756 52.31053)
026ea17d-3116-464f-81cb-206584d3fc58,,,J38,PLACED,[ ],Z,Zeeweg,,,150196001.0,2024-03-01,Steenbergen,GM0851,Nieuw-Vossemeer,,https://wegkenmerken.ndw.nu/api/images/b9824287-e5f9-4552-9b12-c0319f2a10ca,2016-06-09,2022-07-06,,,,4.234550028521,51.563448677145,POINT (4.23455 51.563449)
026fbfb4-8aa9-4a81-bcf6-8a2c0d43936f,,,J38,PLACED,[ ],N,Zijdeweg,,,474328008.0,2024-03-01,Berkelland,GM1859,Neede,,https://wegkenmerken.ndw.nu/api/images/37b2e1f2-5c68-495d-ad63-05ca117e17c4,2016-12-02,2022-03-02,,,,6.5905162850365,52.161231484666,POINT (6.590516 52.161231)
0276f364-73d5-45d2-91e1-313c1e040b1b,,,J38,PLACED,[ ],N,Rijsven,,,328163021.0,2024-03-01,Eindhoven,GM0772,Eindhoven,,https://wegkenmerken.ndw.nu/api/images/314cddd3-a408-4975-97cd-ed7b264447ce,2016-08-24,2022-08-04,,,,5.5177969291196,51.425371795353,POINT (5.517797 51.425372)
027884bf-65d3-4668-91da-61ae82f1e53f,,,J38,PLACED,[ ],W,Voskuilerweg,,,601253043.0,2024-09-01,Woudenberg,GM0351,Woudenberg,,https://wegkenmerken.ndw.nu/api/images/ad6d60b1-f55b-4f9b-86eb-d7bf793cf8ac,2016-10-03,2022-11-02,,,,5.4604971377219,52.088256323904,POINT (5.460497 52.088256)
027aa4d2-a98e-4585-b9c4-7359edc0cfce,,,J38,PLACED,[ ],W,Nieuwe Veer,,,600423922.0,2024-03-01,Molenlanden,GM1978,Streefkerk,,https://wegkenmerken.ndw.nu/api/images/293ada97-44e4-4a63-beaf-bc52c6778398,2020-09-02,2022-09-19,,,,4.75282962214,51.908600490691,POINT (4.75283 51.9086)
02801bd9-29f1-4aeb-88ea-2326ee909ff9,,,J38,PLACED,[ ],N,Vierhoeksingel,,,327240090.0,2024-03-01,Oss,GM0828,Oss,,https://wegkenmerken.ndw.nu/api/images/b3ed8af6-6fa8-459f-8636-ccac3bc32c37,2016-10-25,2022-08-20,,,,5.5149920016379,51.768851588017,POINT (5.514992 51.768852)
028c8c1f-102a-43d5-b816-c9e94c5d9814,,,J38,PLACED,[ ],Z,Korteweg,,,173237001.0,2024-03-01,Hoeksche Waard,GM1963,Oud-Beijerland,,https://wegkenmerken.ndw.nu/api/images/8324f66a-0a96-48e7-b152-f4d324a36ea2,2018-09-06,2022-09-02,,,,4.3971189566316,51.751414182536,POINT (4.397119 51.751414)
028e7cad-7f5e-4803-953e-e4a5b88fc63c,,,J38,PLACED,[ ],W,Hei- en Boeicopseweg,,,600426339.0,2024-03-01,Vijfheerenlanden,GM1961,Hei- en Boeicop,,https://wegkenmerken.ndw.nu/api/images/c59cdae7-086d-432b-b551-495c1ea47d30,2016-10-17,2022-07-10,,,,5.0553332336441,51.949052342814,POINT (5.055333 51.949052)
02959bc9-2cbd-43c6-a5ac-4e9b8a209638,,,J38,PLACED,[ ],O,Oude Beilerweg,,,473481006.0,2024-03-01,Midden-Drenthe,GM1731,Westerbork,,https://wegkenmerken.ndw.nu/api/images/3cc194be-3d03-4402-87de-c531a6db8718,2016-11-22,2022-11-02,,,,6.6032377203733,52.849158663012,POINT (6.603238 52.849159)
029768bb-1faa-453b-a6fc-040033aae2c0,,,J38,PLACED,[ ],W,Pearl S. Buckstraat,,,212371004.0,2024-03-01,Haarlem,GM0392,Haarlem,,https://wegkenmerken.ndw.nu/api/images/c382d345-9004-4f7e-984d-9fc353618459,2016-09-07,2022-10-12,,,,4.6684036596523,52.355636002828,POINT (4.668404 52.355636)
02988e5e-12fe-4cb1-8ef4-64668b60d260,,,J38,PLACED,[ ],Z,Zouwendijk,,,256277010.0,2024-03-01,Vijfheerenlanden,GM1961,Meerkerk,,https://wegkenmerken.ndw.nu/api/images/c183cc3c-4b6a-4d1d-ba65-c41a5a3fad0a,2016-10-18,2022-07-11,,,,4.9967577950464,51.93450369365,POINT (4.996758 51.934504)
029891ce-7587-46f3-93cb-abd24b5b7136,,,J38,PLACED,[ ],W,Heideweg,,,240262004.0,2024-03-01,Molenlanden,GM1978,Giessenburg,,https://wegkenmerken.ndw.nu/api/images/0170f7c7-bab2-4b6f-9298-dc4c68abb2c5,2016-07-06,2022-09-23,,,,4.8925925846954,51.874337830362,POINT (4.892593 51.874338)
029ab10f-72c6-4176-81c2-c6695b5432e6,,,J38,PLACED,[ ],O,J.C. Wilslaan,,,600214878.0,2024-03-01,Apeldoorn,GM0200,Apeldoorn,,https://wegkenmerken.ndw.nu/api/images/51574c45-a695-44bb-873e-a174c7512161,2016-12-06,2022-11-29,,,,5.9111923415715,52.219097401385,POINT (5.911192 52.219097)
02a0f935-2dd5-43ef-8130-9070f4f12ffe,,,J38,PLACED,[ ],Z,Broekkant,,,372244010.0,2024-03-01,Heumen,GM0252,Malden,,https://wegkenmerken.ndw.nu/api/images/99dbca8f-0006-45a3-9292-eed333199b22,2016-07-01,2022-04-30,,,,5.8440344688252,51.787892591571,POINT (5.844034 51.787893)
02a10c6d-8905-4891-918d-24e558489f65,,,J38,PLACED,[ ],O,Jan Olphert Vaillantlaan,,,,,Amsterdam,GM0363,Amsterdam,,https://wegkenmerken.ndw.nu/api/images/eebc419f-594d-4266-a9ec-e7fe000abd8a,2022-06-01,2022-06-01,,,,4.9756492775447,52.360951610981,POINT (4.975649 52.360952)
02a27476-285c-4690-b0ad-9723f1b018da,,,J38,PLACED,[ ],N,Kanaaldijk-Noord,,,256263001.0,2024-03-01,Molenlanden,GM1978,Arkel,,https://wegkenmerken.ndw.nu/api/images/6161089e-b348-4d14-8950-6a90378377c1,2016-07-04,2022-09-15,,,,4.9982257845285,51.870036493471,POINT (4.998226 51.870036)
02a48244-38af-41d0-8a28-6e3a19e7b7bd,,,J38,PLACED,[ ],N,Schelde-Rijnweg,,,149188011.0,2024-03-01,Tholen,GM0716,Tholen,,https://wegkenmerken.ndw.nu/api/images/09740e8e-5ca1-41d8-b666-af7277491f51,2021-01-25,2022-03-04,,,,4.2281246717484,51.533105810679,POINT (4.228125 51.533106)
02add2fc-80a6-47f6-9c73-9cb5a0bde72a,,,J38,PLACED,"[ { ""type"": ""VRIJ"", ""text"": ""drempels"" } ]",Z,Burgemeester Janssenstraat,,,399125008.0,2024-03-01,Beesel,GM0889,Beesel,,https://wegkenmerken.ndw.nu/api/images/0c0204de-f040-4b11-b114-2b76db164abe,2016-10-12,2022-12-03,,,,6.0314965775878,51.252259439633,POINT (6.031497 51.252259)
02b4958a-b085-49fd-a1a7-77cc4f713418,,,J38,PLACED,[ ],W,Het Masker,,,600895779.0,2024-03-01,Amersfoort,GM0307,Amersfoort,,https://wegkenmerken.ndw.nu/api/images/aeecd417-8f20-4ac8-b2de-6fb740abe33a,2016-05-18,2022-05-04,,,,5.3953173484725,52.18701153587,POINT (5.395317 52.187012)
02b49eb2-8dc5-4c0c-93f4-3a850416492d,,,J38,PLACED,[ ],W,Geldersedijk,,,600710548.0,2024-03-01,Goeree-Overflakkee,GM1924,Dirksland,,https://wegkenmerken.ndw.nu/api/images/688dbbf6-e77b-40cb-ba00-2c82241d944e,2020-10-19,2022-10-21,,,,4.1137379541415,51.731075175145,POINT (4.113738 51.731075)
02b5532e-05fa-4104-ad27-b024712f5e1e,,,J38,PLACED,[ ],O,Horst 20,,,324403195.0,2024-03-01,Lelystad,GM0995,Lelystad,,https://wegkenmerken.ndw.nu/api/images/56b24dbf-4efd-4e50-ab75-eb3ceb8d9548,2020-03-16,2022-03-19,,,,5.4956236558849,52.501655404391,POINT (5.495624 52.501655)
02b96076-3522-4e4b-9616-56e635f4737b,,,J38,PLACED,[ ],O,Sluisjesdijk,,,180269006.0,2024-03-01,Rotterdam,GM0599,Rotterdam,,https://wegkenmerken.ndw.nu/api/images/0552218e-c0db-4547-bde0-7731b5d82f93,2021-03-22,2022-03-21,,,,4.4456771992695,51.897143424514,POINT (4.445677 51.897143)
02c8feb4-1811-453b-a9ba-9365cbedbb6b,,,J38,PLACED,[ ],O,Johannes Postweg,,,420468007.0,2024-03-01,Westerveld,GM1701,Darp,,https://wegkenmerken.ndw.nu/api/images/c71075f4-411d-4e41-a343-e8a3a72ce24a,2016-03-30,2022-06-03,,,,6.2046650135518,52.794726208509,POINT (6.204665 52.794726)
02e1bc1c-c1c1-4b3c-83fe-379302941c34,,,J38,PLACED,[ ],N,Marie Curielaan,,,601196062.0,2024-04-01,Almere,GM0034,Almere,,https://wegkenmerken.ndw.nu/api/images/877a5e7a-c7f4-49ae-a884-83a2e9e14309,2016-01-15,2022-03-15,,,,5.2815818545767,52.360617127046,POINT (5.281582 52.360617)
02e940fe-e565-46ef-826c-95f01aee0a61,,,J38,PLACED,[ ],W,Laan van Meerdervoort,,,600159240.0,2024-03-01,'s-Gravenhage,GM0518,'s-Gravenhage,,https://wegkenmerken.ndw.nu/api/images/c567ed04-6c5a-4912-9552-39857732762f,2016-09-07,2022-10-05,,,,4.2402501171502,52.065602428414,POINT (4.24025 52.065602)
02ebac80-1aac-499a-a98a-3ccc6e19e4c3,,,J38,PLACED,[ ],W,P.C. Boutensstraat,,,,,Haarlem,GM0392,Haarlem,,https://wegkenmerken.ndw.nu/api/images/be8ee0fa-b601-47bf-b1c6-bad1615351ba,2016-08-31,2022-09-28,,,,4.6445702168449,52.419270869302,POINT (4.64457 52.419271)
02f91ebd-7709-485e-b2f1-c1d645e9474c,,,J38,PLACED,[ ],W,Ripselaan,,,200335001.0,2024-03-01,Kaag en Braassem,GM1884,Rijpwetering,,https://wegkenmerken.ndw.nu/api/images/b1243dc6-e2b3-4d96-8280-94ba331a736d,2016-02-15,2022-03-25,,,,4.5883652531122,52.196495069527,POINT (4.588365 52.196495)
03008a5b-59f2-4f45-93ad-4eab047e81e6,,,J38,PLACED,[ ],Z,Repelsestraat,,,296254007.0,2024-03-01,West Betuwe,GM1960,Neerijnen,,https://wegkenmerken.ndw.nu/api/images/fbf95986-76fd-4f26-b0af-1ef3b8ae5a9f,2016-08-15,2022-04-29,,,,5.2886272075018,51.834678355434,POINT (5.288627 51.834678)
0304a3d6-d0bb-48e4-ab6d-6111bdc27b1c,,,J38,PLACED,[ ],W,Maasstraat,,,394210001.0,2024-03-01,Land van Cuijk,GM1982,Sambeek,,https://wegkenmerken.ndw.nu/api/images/e6e4d51f-5711-4a80-98f8-5a4842bf173d,2021-01-18,2022-11-08,,,,6.0011834571384,51.632244609529,POINT (6.001183 51.632245)
03060193-4652-484f-873b-b659c361126a,,,J38,PLACED,[ ],Z,Nieuwe Zeeweg,,,600906551.0,2024-03-01,Noordwijk,GM0575,Noordwijk,,https://wegkenmerken.ndw.nu/api/images/c61ae65e-eccb-4d1f-9794-5c560dc7fd81,2016-07-08,2022-06-10,,,,4.4396912524576,52.242273606778,POINT (4.439691 52.242274)
030a030e-01c1-4499-87a0-873862ed5bb2,,,J38,PLACED,[ ],W,Pater Kustersweg,,,360033012.0,2024-03-01,Eijsden-Margraten,GM1903,Cadier en Keer,,https://wegkenmerken.ndw.nu/api/images/61369796-98c5-4640-9d75-e879bacfc283,2016-05-12,2022-03-18,,,,5.7464648865775,50.838197798607,POINT (5.746465 50.838198)
031703dd-ed30-40dc-b82e-f3b12d0067de,,,J38,PLACED,[ ],W,Hoeksekade,,,192286002.0,2024-03-01,Lansingerland,GM1621,Bergschenhoek,,https://wegkenmerken.ndw.nu/api/images/3377d931-5cdc-48c9-9e15-925c9022e522,2016-08-26,2022-09-20,,,,4.5315039111492,51.974305393637,POINT (4.531504 51.974305)
0319cd0d-f362-4992-ac4e-88a5a751a239,,,J38,PLACED,[ ],N,Zouwendijk,,,600423275.0,2024-03-01,Vijfheerenlanden,GM1961,Ameide,,https://wegkenmerken.ndw.nu/api/images/bab02e4e-61a4-4b19-8383-67a6ad9bdc8d,2016-10-18,2022-07-11,,,,4.9950290703432,51.942352670416,POINT (4.995029 51.942353)
0319d48b-5f1e-4175-89dd-85dfcece1968,,,J38,PLACED,[ ],W,Tarwe,,,375241015.0,2024-03-01,Heumen,GM0252,Malden,,https://wegkenmerken.ndw.nu/api/images/cea87e53-28fa-4eaa-a4cd-a70fad84858d,2016-07-07,2022-04-30,,,,5.8605831210651,51.775511740669,POINT (5.860583 51.775512)
031e6160-5382-4e65-9f66-9ed328676118,,,J38,PLACED,[ ],Z,G.K. van Hogendorpweg,,,601175289.0,2024-03-01,Rotterdam,GM0599,Rotterdam,,https://wegkenmerken.ndw.nu/api/images/a05fa446-577a-4bfb-8da1-254329933858,2016-08-05,2024-02-19,,,,4.4613980852595,51.957059668409,POINT (4.461398 51.95706)
03215c2e-29e5-4560-93a8-55f9a99eea58,,,J38,PLACED,[ ],W,Maasstraat,,,601242531.0,2024-08-01,Land van Cuijk,GM1982,Sambeek,,https://wegkenmerken.ndw.nu/api/images/bc4a49e3-26ec-4c97-9832-900c9f7f386b,2021-01-18,2022-11-08,,,,5.981820458844,51.639164891019,POINT (5.98182 51.639165)
03275df2-c262-4691-9398-6861f5bbaefa,,,J38,PLACED,[ ],R,Kp Paalgraven,,,335230006.0,2024-03-01,Bernheze,GM1721,Nistelrode,,https://wegkenmerken.ndw.nu/api/images/21f7053f-0984-476b-9ebe-a99a03ba6565,2015-10-24,2022-04-21,,,,5.5738350834805,51.730733384153,POINT (5.573835 51.730733)
0334cb6f-07f7-439f-8d97-707087e4c1b6,,,J38,PLACED,[ ],O,Karel Doormanweg,,,600819135.0,2024-03-01,Noordoostpolder,GM0171,Tollebeek,,https://wegkenmerken.ndw.nu/api/images/dea28706-a580-4d15-99c4-3a790516c01e,2016-02-15,2022-02-27,,,,5.709483474524,52.679618091982,POINT (5.709483 52.679618)
03387506-2194-45ec-9dfb-abc445601a5d,,,J38,PLACED,[ ],Z,Fietspad,,,,,Veenendaal,GM0345,Veenendaal,,https://wegkenmerken.ndw.nu/api/images/3a8b675c-0be4-411b-a096-10803d395a19,2020-01-16,2022-01-06,,,,5.5201767054493,52.02411491697,POINT (5.520177 52.024115)
033cf9ac-edea-43c1-ada0-167217011c58,,,J38,PLACED,[ ],Z,Polderweg,,,269283005.0,2024-03-01,Vijfheerenlanden,GM1961,Vianen,,https://wegkenmerken.ndw.nu/api/images/dc8613ba-b932-4f3f-8ae7-00f02a704b13,2018-02-21,2022-07-10,,,,5.0915105784942,51.965857645333,POINT (5.091511 51.965858)
03450ab9-0c20-4bd4-80b7-7c9960642329,,,J38,PLACED,[ ],Z,Schaardijk,,,,,Rotterdam,GM0599,Rotterdam,,https://wegkenmerken.ndw.nu/api/images/c60e5805-4695-468c-8daf-7ac85cc905ff,2018-03-23,2022-03-21,,,,4.5348530608557,51.90443688314,POINT (4.534853 51.904437)
0345611f-35fe-496a-a6cf-41c746ae6dac,,2025-02-07,J38,PLACED,[ ],O,Glanestraat,,,532346001.0,2025-02-01,Losser,GM0168,Overdinkel,,,2016-07-11,2025-02-07,,,,7.0246560089684,52.234704666391,POINT (7.024656 52.234705)
034f46d6-61f4-4ef9-96d7-72d4cc8f8a34,,,J38,PLACED,[ ],N,Tolakkerweg,2.0,417.0,279327006.0,2024-03-01,De Bilt,GM0310,Hollandsche Rading,,https://wegkenmerken.ndw.nu/api/images/88271543-a150-4adc-9b9c-494713091b39,2016-04-12,2022-03-17,,,,5.1714077491407,52.16858195732,POINT (5.171408 52.168582)
0350aa92-6ba7-439c-8b96-b40ee607ff4b,TECH-GM0439-006202,,J38,PLACED,[ ],W,Westerweg,,,600924783.0,2025-09-01,Purmerend,GM0439,Purmerend,,https://wegkenmerken.ndw.nu/api/images/97abafd0-b1f8-438f-89eb-20a92f815d69,2016-01-26,2025-10-03,,,,4.974876419588747,52.487034452296584,POINT (4.974876 52.487034)
03516a40-f070-4219-9a00-86e3e8873d6a,,,J38,PLACED,[ ],N,Zeedijk,,,600711716.0,2024-03-01,Voorne aan Zee,GM1992,Oudenhoorn,,https://wegkenmerken.ndw.nu/api/images/0250dcda-8531-4f86-8c6a-60139becd5d2,2016-05-04,2022-10-03,,,,4.171058160304,51.814153116511,POINT (4.171058 51.814153)
035c783f-b675-490c-9910-d6a400ac4a1d,,,J38,PLACED,"[ { ""type"": ""VRIJ"", ""text"": ""bromfiets drempels"" } ]",N,Rykswg,1.0,27.0,,,Geertruidenberg,GM0779,Raamsdonksveer,,https://wegkenmerken.ndw.nu/api/images/5508c054-ff07-422b-b22c-df85e81f8194,2016-09-13,2022-09-12,,,,4.8897443310379,51.718146789901,POINT (4.889744 51.718147)
035e09c2-7e12-409e-998d-a3321fa6ba90,,,J38,PLACED,[ ],O,Hoogstratensebaan,,,224162005.0,2024-03-01,Baarle-Nassau,GM0744,Castelre,,https://wegkenmerken.ndw.nu/api/images/de2a2283-769e-4e9d-9d0c-e6929e59a1fd,2017-01-12,2022-01-25,,,,4.7721039615357,51.417650102847,POINT (4.772104 51.41765)
035ea011-3d0a-41bb-964e-cae035f8417b,,,J38,PLACED,[ ],O,Gasthuisweg,,,271260001.0,2024-03-01,West Betuwe,GM1960,Herwijnen,,https://wegkenmerken.ndw.nu/api/images/2c72af0f-5a21-487a-bbe6-e70ccee3f70a,2016-08-29,2022-05-05,,,,5.1251216980645,51.859318055706,POINT (5.125122 51.859318)
0365fbb7-e170-45e2-8998-f94dd528a2a7,,,J38,PLACED,[ ],N,Kruishoeveweg,,,600784632.0,2024-03-01,Vught,GM0865,Vught,,https://wegkenmerken.ndw.nu/api/images/890d623b-dcd5-4fee-9a91-8f60a143bfb6,2016-08-17,2022-07-27,,,,5.2389974647416,51.651339658621,POINT (5.238997 51.65134)
0367ecf5-19f0-4f17-8356-600c206e3700,,,J38,PLACED,[ ],N,Zuiderlaan,,,600852540.0,2024-03-01,Voorst,GM0285,Twello,,https://wegkenmerken.ndw.nu/api/images/4c47a3ca-31e0-4eab-a24a-6a2f117e3b82,2021-02-26,2022-04-03,,,,6.1031969990003,52.225336983866,POINT (6.103197 52.225337)
0372bc95-8892-461c-8d1e-e952f0125d70,,,J38,PLACED,"[ { ""type"": ""VRIJ"", ""text"": ""slechte berm"" } ]",O,Rijnlanderweg,,,600744271.0,2024-03-01,Haarlemmermeer,GM0394,Nieuw-Vennep,,https://wegkenmerken.ndw.nu/api/images/3960f52d-ce46-41bb-9c48-5ae3c4d1c749,2016-07-22,2022-07-13,,,,4.6608879087428,52.255431472287,POINT (4.660888 52.255431)
038d18b3-adcc-4fff-846b-c5f2ff2c70e1,,,J38,PLACED,[ ],O,Laanweg,,,217448024.0,2024-03-01,Bergen (NH),GM0373,Schoorl,,https://wegkenmerken.ndw.nu/api/images/950f1427-76b3-44ea-9e0e-91279137d663,2016-09-20,2022-11-14,,,,4.7052416342025,52.704260109773,POINT (4.705242 52.70426)
038ed05e-60ef-47ab-a3f3-96599fa1df5a,,,J38,PLACED,[ ],Z,Provincialeweg,2.0,216.0,601166884.0,2024-03-01,Molenlanden,GM1978,Giessenburg,,https://wegkenmerken.ndw.nu/api/images/532bd701-941d-48b2-8176-7de7d8a3e7b2,2016-07-04,2022-09-20,,,,4.9112249776036,51.85331126987,POINT (4.911225 51.853311)
0391ba32-78c9-4254-9325-6535e7f7be47,,,J38,PLACED,[ ],Z,Brahmslaan,,,184323043.0,2024-03-01,Leiden,GM0546,Leiden,,https://wegkenmerken.ndw.nu/api/images/80bf4198-6fd4-474c-9485-8f4bbbaac5f9,2016-03-16,2022-03-28,,,,4.4712030233273,52.139444241906,POINT (4.471203 52.139444)
039a4f02-7579-40cb-98fb-67231e1bdef3,,,J38,PLACED,[ ],W,van der Molenallee,,,367286027.0,2024-03-01,Renkum,GM0274,Doorwerth,,https://wegkenmerken.ndw.nu/api/images/67b4dbfb-c138-4aa5-914b-01721c1991ec,2016-10-13,2022-03-23,,,,5.8028673456892,51.978662197055,POINT (5.802867 51.978662)
039b5191-23f5-4b43-b974-841f420f0d34,,,J38,PLACED,[ ],N,Hoofdweg,,,601003924.0,2024-03-01,Haarlemmermeer,GM0394,Nieuw-Vennep,,https://wegkenmerken.ndw.nu/api/images/4c52cf3a-b43b-4b84-891c-9221fd0617fd,2016-06-28,2022-07-14,,,,4.6447573519626,52.272298101027,POINT (4.644757 52.272298)
039efbc4-5f42-4780-bcb2-583151d67291,,,J38,PLACED,[ ],Z,Westerringdijk,,,601250707.0,2024-09-01,Wormerland,GM0880,Wijdewormer,,https://wegkenmerken.ndw.nu/api/images/83f06c94-8a8c-4da1-97a4-ca0dc26a7027,2016-09-13,2022-09-24,,,,4.8369321862974,52.478698713863,POINT (4.836932 52.478699)
03a2786f-02f7-4ce8-94dd-94c60d4dda05,,,J38,PLACED,[ ],N,Zesstedenweg,,,258416002.0,2024-03-01,Edam-Volendam,GM0385,Warder,,https://wegkenmerken.ndw.nu/api/images/27171efa-d40d-4e38-9001-1d63ad1823fa,2016-11-04,2022-11-16,,,,5.0089879229208,52.561374829141,POINT (5.008988 52.561375)
03aa7800-612f-4cf5-9132-90fb7dacbffa,,,J38,PLACED,[ ],N,Westeinde,,,600859881.0,2024-03-01,Dalfsen,GM0148,Nieuwleusen,,https://wegkenmerken.ndw.nu/api/images/6c15d25e-ef20-4d23-92f4-fa114fe82e49,2016-05-12,2022-04-26,,,,6.2434502836313,52.560231276827,POINT (6.24345 52.560231)
03adb3d0-46c4-4eb6-96fa-c5127314b941,,,J38,PLACED,[ ],Z,De Jagerweg,,,212243085.0,2024-03-01,Dordrecht,GM0505,Dordrecht,,https://wegkenmerken.ndw.nu/api/images/c38e18e3-6ed2-4f9e-bb55-cb85d208c035,2016-03-07,2022-04-29,,,,4.6831571134272,51.779504934061,POINT (4.683157 51.779505)
03b093b6-297b-42f9-a555-354adf4d5f70,,,J38,PLACED,[ ],NNO,Beethovenstraat,,,600407810.0,2025-09-01,Amsterdam,GM0363,Amsterdam,,https://wegkenmerken.ndw.nu/api/images/158d567d-f903-4269-a160-5692ea06ef58,2016-08-17,2025-09-09,,,,4.8768588186678,52.343504729869,POINT (4.876859 52.343505)
03b39476-1b2b-43e4-98ec-4adeeee131fe,,,J38,PLACED,[ ],O,Grafwegen,2.0,843.0,600954767.0,2024-03-01,Berg en Dal,GM1945,Groesbeek,,https://wegkenmerken.ndw.nu/api/images/cefca2a9-8d5c-4b24-9f95-4a2703c8b754,2016-09-13,2022-03-13,,,,5.9501905991804,51.749529723884,POINT (5.950191 51.74953)
03be76ab-57ae-4f97-bad7-24b5cb7c4b6e,,,J38,PLACED,[ ],W,Lekdijk,,,215268001.0,2024-03-01,Molenlanden,GM1978,Nieuw-Lekkerland,,https://wegkenmerken.ndw.nu/api/images/17bb0f22-caab-458b-ba55-427865e94d4d,2020-09-02,2022-09-19,,,,4.7024237695535,51.895135377227,POINT (4.702424 51.895135)
03c25491-b289-4a23-b9ab-4a8da3457fd1,,,J38,PLACED,[ ],N,Bloemendijk,,,164209002.0,2024-03-01,Steenbergen,GM0851,Dinteloord,,https://wegkenmerken.ndw.nu/api/images/750e4080-42ab-4886-8d6f-df3724177a91,2016-06-07,2022-07-01,,,,4.3395262352078,51.628176261291,POINT (4.339526 51.628176)
03c27121-a272-4620-90e8-57e84c3fefea,,,J38,PLACED,[ ],N,Kerkelaan,,,601233372.0,2024-07-01,Oldambt,GM1895,Midwolda,,https://wegkenmerken.ndw.nu/api/images/6e3b980e-59e0-4aa4-8210-0f4baa73a579,2016-06-08,2024-02-19,,,,6.994602587907,53.193936395108,POINT (6.994603 53.193936)
03c3de2c-f595-4698-9bb9-ecfb89f27812,,,J38,PLACED,[ ],W,Wijttenbachstraat,,,600124203.0,2024-03-01,Amsterdam,GM0363,Amsterdam,,https://wegkenmerken.ndw.nu/api/images/f68a378c-bfce-4eab-80c2-439c261dea95,2018-09-11,2022-06-02,,,,4.9299327141088,52.361233901717,POINT (4.929933 52.361234)
03c86f1f-9084-4a9b-b947-d4eb0c1e8750,,,J38,PLACED,[ ],N,Komkommerweg,,,600237743.0,2024-03-01,Pijnacker-Nootdorp,GM1926,Pijnacker,,https://wegkenmerken.ndw.nu/api/images/4b997078-25e3-41f6-acc5-9586011af5f6,2020-05-14,2022-05-30,,,,4.4151524308086,52.011878341337,POINT (4.415152 52.011878)
03d222d8-f0c6-4a70-a43b-885a782938d6,,,J38,PLACED,[ ],O,Osen,,,383108005.0,2024-03-01,Maasgouw,GM1641,Heel,,https://wegkenmerken.ndw.nu/api/images/8775ee93-1e69-42e4-8b50-13747fed929e,2016-11-10,2022-04-03,,,,5.9144317781025,51.174626765486,POINT (5.914432 51.174627)
03d2c895-0f81-430f-bab2-e28dbfd84e8b,,,J38,PLACED,[ ],O,Naardervaart,,,600160983.0,2024-03-01,Gooise Meren,GM1942,Muiderberg,,https://wegkenmerken.ndw.nu/api/images/336e2dd1-43d1-4a73-9f5d-4d16a461cd18,2018-05-30,2022-06-22,,,,5.113987154436,52.314006236056,POINT (5.113987 52.314006)
03d60a86-80d6-4a78-8264-b4332f988c50,,,J38,PLACED,"[ { ""type"": ""VRIJ"", ""text"": ""2 X"" } ]",N,Martin Luther Kinglaan,,,195304014.0,2024-03-01,Zoetermeer,GM0637,Zoetermeer,,https://wegkenmerken.ndw.nu/api/images/0362d961-4fc3-4cf4-bfd5-d4f8ec6a2863,2016-07-19,2022-07-20,,,,4.5512896157331,52.057205314362,POINT (4.55129 52.057205)
03dee708-4f14-4966-87ef-ba7902aeb712,,,J38,PLACED,[ ],Z,Hogeweg,,,168239004.0,2024-03-01,Hoeksche Waard,GM1963,Zuid-Beijerland,,https://wegkenmerken.ndw.nu/api/images/83024d10-f929-47d0-b185-24f65e0d6f33,2020-08-13,2022-09-05,,,,4.3720642296285,51.75970136951,POINT (4.372064 51.759701)
03e2ce84-7732-4a3f-a342-b894ab9420ff,,,J38,PLACED,[ ],O,Van Alkemadelaan,,,,,Den Haag,GM0518,'s-Gravenhage,,https://wegkenmerken.ndw.nu/api/images/ed921ce4-23c9-4f77-a531-ca7228220f57,2016-09-15,2022-10-26,,,,4.3267411990189,52.096135883547,POINT (4.326741 52.096136)
03eae9dd-80fa-4886-9274-42de842c8b80,,,J38,PLACED,[ ],O,Mortelsgraaf,,,303185002.0,2024-03-01,Oirschot,GM0823,Oirschot,,https://wegkenmerken.ndw.nu/api/images/65936a91-a482-4fa9-86b0-870d9ac92d9e,2016-09-29,2022-10-06,,,,5.3436691743189,51.524492664418,POINT (5.343669 51.524493)
03f87760-7aef-4b91-9883-9087a0dba961,,,J38,PLACED,[ ],W,Zeijerstroeten,,,600870900.0,2024-03-01,Assen,GM0106,Ubbena,,https://wegkenmerken.ndw.nu/api/images/5e154305-beed-4e98-9e37-f3aebd134c50,2016-09-05,2022-07-08,,,,6.5608236693817,53.046208387885,POINT (6.560824 53.046208)
03f945d2-ada4-4ced-aa2a-1c1ccfc31e4e,,,J38,PLACED,[ ],N,Kanaaldijk,,,234411005.0,2024-03-01,Wormerland,GM0880,Spijkerboor,,,2022-10-25,2022-10-25,,,,4.835009027585,52.537079276145,POINT (4.835009 52.537079)
04005b58-c3d0-4438-801c-8ae51aecfcad,,,J38,PLACED,[ ],W,Tweemanspolder,,,600735263.0,2024-03-01,Zuidplas,GM1892,Zevenhuizen,,https://wegkenmerken.ndw.nu/api/images/9b1cde79-a59d-4394-9c89-0741eed5b685,2016-07-11,2022-08-12,,,,4.5660637566201,52.008736074332,POINT (4.566064 52.008736)
04029d08-0e2b-4421-afd3-f5503074f4a5,,,J38,PLACED,[ ],W,Kromhoek,,,420539003.0,2024-03-01,Opsterland,GM0086,Frieschepalen,,https://wegkenmerken.ndw.nu/api/images/5433e873-f8c1-4df2-a53e-0f6bd63dfbdf,2018-02-21,2022-02-18,,,,6.2130383402659,53.110106280302,POINT (6.213038 53.110106)
040377c0-f0c1-4b26-ad3e-0fd8e42cc913,,,J38,PLACED,[ ],Z,Hereweg,,,601194372.0,2024-04-01,Landgraaf,GM0882,Landgraaf,,https://wegkenmerken.ndw.nu/api/images/cb9dfc54-da82-4921-97a6-c6203a05de65,2016-09-12,2022-11-08,,,,6.0267496129564,50.901245765929,POINT (6.02675 50.901246)
04194b03-d47b-4145-b6b5-50440a266985,,,J38,PLACED,[ ],Z,Meerweg,,,496578004.0,2024-03-01,Midden-Groningen,GM1952,Overschild,,https://wegkenmerken.ndw.nu/api/images/de5737e8-2bd6-41e7-89e9-37d97e33929f,2022-05-11,2022-05-11,,,,6.7863812558003,53.280577468185,POINT (6.786381 53.280577)
041c4e91-7443-42be-b0b1-f0f6600af4df,,,J38,PLACED,[ ],W,Soestdijkseweg Noord,,,287324018.0,2024-03-01,De Bilt,GM0310,Bilthoven,,https://wegkenmerken.ndw.nu/api/images/b98ff13d-e22d-4e92-a839-79c3bfecef2a,2016-02-18,2022-03-13,,,,5.2219706138774,52.149105267778,POINT (5.221971 52.149105)
042031b6-19d2-4c77-9270-311843422db7,,,J38,PLACED,[ ],O,Runsdijk,,,600266463.0,2024-03-01,Boxtel,GM0757,Esch,,https://wegkenmerken.ndw.nu/api/images/7c029b07-19fd-4d95-9333-67a9ac69f795,2016-05-20,2022-02-22,,,,5.2991703225506,51.614624054706,POINT (5.29917 51.614624)
0439f275-5291-4e87-8a85-87164c626024,,,J38,PLACED,[ ],W,Stenenkamerseweg,,,601151879.0,2024-03-01,Putten,GM0273,Putten,,https://wegkenmerken.ndw.nu/api/images/b6ac046f-25fa-4716-9707-5b506dfdac53,2016-06-02,2022-06-14,,,,5.5668569429821,52.261190886068,POINT (5.566857 52.261191)
043c1df1-086e-4b4e-b17b-1c87cd4d0480,,,J38,PLACED,[ ],Z,Mgr. G.W. van Heukelumstraat,,,269300050.0,2024-03-01,Nieuwegein,GM0356,Nieuwegein,,https://wegkenmerken.ndw.nu/api/images/124d93ae-1df5-4bdc-b1d8-821f3f41d423,2016-02-18,2022-03-03,,,,5.0953390189737,52.040572390318,POINT (5.095339 52.040572)
043d71be-e5f5-4e4d-9072-ba77c90be390,,,J38,PLACED,[ ],Z,Keverdijk,,,600778988.0,2024-03-01,Gooise Meren,GM1942,Naarden,,https://wegkenmerken.ndw.nu/api/images/4d392c1b-5ceb-4a1d-876b-9493c31b6975,2021-06-03,2022-06-22,,,,5.1438925360156,52.298474079591,POINT (5.143893 52.298474)
0443d98b-ec1c-4f38-a363-fa29309f1dca,,,J38,PLACED,[ ],Z,Ammerzodenlaan,,,313338025.0,2024-03-01,Amersfoort,GM0307,Amersfoort,,https://wegkenmerken.ndw.nu/api/images/e195bcec-1432-4110-a344-83d8009f58fd,2021-04-20,2022-05-16,,,,5.4106363623485,52.210003595448,POINT (5.410636 52.210004)
044453a9-c762-422e-b9c4-e25114a6bbaa,,,J38,PLACED,[ ],W,Geerkade,,,245328006.0,2024-03-01,De Ronde Venen,GM0736,Wilnis,,https://wegkenmerken.ndw.nu/api/images/c9047cbb-4b77-404f-8b45-ab890afc49e6,2020-10-29,2022-09-30,,,,4.9275947017066,52.167146621766,POINT (4.927595 52.167147)
044b83e7-0bc4-4252-bc78-60f52894b3b2,,,J38,PLACED,[ ],W,Dorpenweg,,,600810783.0,2024-03-01,Oss,GM0828,Haren,,https://wegkenmerken.ndw.nu/api/images/0a321dce-65f0-473d-89b2-8ef93019abc8,2016-10-17,2022-08-12,,,,5.5884038637244,51.804923969258,POINT (5.588404 51.804924)
044d9947-14ad-41c0-9bfe-b258cef6e39b,,,J38,PLACED,[ ],W,van Klaverweijdeweg,,,600735687.0,2024-03-01,Kaag en Braassem,GM1884,Hoogmade,,https://wegkenmerken.ndw.nu/api/images/5ad21e92-cd3f-413e-a6af-d9c128309841,2016-03-09,2022-03-26,,,,4.5620544800856,52.164350515244,POINT (4.562054 52.164351)
044e1a65-5195-428a-afca-d4535df56664,,,J38,PLACED,[ ],W,Vrijheidsweg,,,600709145.0,2024-03-01,Goeree-Overflakkee,GM1924,Ouddorp,,https://wegkenmerken.ndw.nu/api/images/92341f2c-ac7a-48c0-9786-12b9756087c1,2020-10-29,2022-10-31,,,,3.9154865346404,51.823903340453,POINT (3.915487 51.823903)
0453c0f9-bd71-47a5-a248-827f3539bad6,,,J38,PLACED,[ ],R,Haarlemmerweg,2.0,200.0,600952822.0,2024-03-01,Amsterdam,GM0363,Amsterdam,,https://wegkenmerken.ndw.nu/api/images/2851e24f-e9fb-42e7-aecb-b26785732f4f,2020-06-09,2022-05-27,,,,4.8380037003208,52.384821184502,POINT (4.838004 52.384821)
04617deb-fc91-430f-9f21-fc951eb401ee,,,J38,PLACED,[ ],O,Provincialeweg Oost,2.0,228.0,230294002.0,2024-03-01,Krimpenerwaard,GM1931,Haastrecht,,https://wegkenmerken.ndw.nu/api/images/6eaa160f-fed9-48a4-a3aa-197a3a21e036,2021-11-18,2022-11-01,,,,4.8384367641378,52.014945161729,POINT (4.838437 52.014945)
0463228b-4f77-43b8-8194-efeb6045c0d8,,,J38,PLACED,[ ],W,Doelpad,,,601219681.0,2024-05-01,Midden-Delfland,GM1842,Maasland,,https://wegkenmerken.ndw.nu/api/images/38f43888-6bad-459b-867d-5d4e1077e566,2016-11-22,2022-11-15,,,,4.2780806706115,51.93777379168,POINT (4.278081 51.937774)
046372c9-b3c1-4e60-9192-14c29560f7c8,,,J38,PLACED,"[ { ""type"": ""VRIJ"", ""text"": ""8x"" } ]",N,Groenendijk,,,600286342.0,2024-03-01,Zuidplas,GM1892,Nieuwerkerk aan den IJssel,,https://wegkenmerken.ndw.nu/api/images/1d5b5554-93c8-4741-8d48-ef97b659761f,2022-08-09,2022-08-09,,,,4.6359559362142,51.942936484043,POINT (4.635956 51.942936)
04666711-64bd-4fb8-8dbd-4fca11857afd,,,J38,PLACED,[ ],N,Broekstraat,,,401332001.0,2024-03-01,Voorst,GM0285,Klarenbeek,,https://wegkenmerken.ndw.nu/api/images/ac60cebc-7db2-4322-af9b-5b1ced42de39,2021-02-24,2022-03-29,,,,6.0614614343702,52.178370846196,POINT (6.061461 52.178371)
0468fb29-4a75-4619-9725-a4f46784a53a,,,J38,PLACED,[ ],N,Hoenderparklaan,,,154295072.0,2024-03-01,Westland,GM1783,Kwintsheul,,https://wegkenmerken.ndw.nu/api/images/6e63373b-1890-4ee2-a54c-52219bfd91a9,2016-01-18,2022-02-16,,,,4.2622331060947,52.009165099264,POINT (4.262233 52.009165)
046d4437-283a-448e-82af-bc8cc244865d,,,J38,PLACED,[ ],Z,IJweg,,,600737559.0,2024-03-01,Haarlemmermeer,GM0394,Nieuw-Vennep,,https://wegkenmerken.ndw.nu/api/images/203b9dc1-7877-4a67-88f2-bce5b7906404,2020-08-07,2022-07-14,,,,4.5962385116721,52.266090249429,POINT (4.596239 52.26609)
0475cc5a-7bdc-4788-97ba-c4964eb30161,,,J38,PLACED,[ ],Z,Holyweg,,,600459320.0,2024-03-01,Vlaardingen,GM0622,Vlaardingen,,https://wegkenmerken.ndw.nu/api/images/12864313-087a-429a-a86a-974b3a913d7b,2016-03-31,2022-07-12,,,,4.3343785721799,51.939278235386,POINT (4.334379 51.939278)
04808c37-a191-4898-a609-1b0b2949e1f4,,,J38,PLACED,[ ],O,Hildebrandhove,,,600729406.0,2024-03-01,Zoetermeer,GM0637,Zoetermeer,,https://wegkenmerken.ndw.nu/api/images/d8b58024-25ac-4d3a-9669-35bbaa8b27bf,2016-07-14,2022-07-29,,,,4.4897315416581,52.065635036311,POINT (4.489732 52.065635)
048ab4fd-ec58-4a93-be3c-7993e712ab9d,,,J38,PLACED,"[ { ""type"": ""VRIJ"", ""text"": ""3x"" } ]",W,Kloosterweg,,,502594001.0,2024-03-01,Eemsdelta,GM1979,Krewerd,,https://wegkenmerken.ndw.nu/api/images/d176551e-f8ef-40cd-be4e-3fbd68b60a2b,2020-07-20,2022-07-25,,,,6.8397208857785,53.352500190694,POINT (6.839721 53.3525)
048f65b6-e866-41f2-b551-0a233c394d9c,,,J38,PLACED,[ ],W,Hogenkampseweg,,,358287037.0,2024-03-01,Renkum,GM0274,Renkum,,https://wegkenmerken.ndw.nu/api/images/72aaaaea-1814-44b9-90b8-00bd184a70aa,2016-10-10,2022-03-23,,,,5.7376645911663,51.981368926821,POINT (5.737665 51.981369)
04987391-f509-4b13-98fd-0edd9dc2610c,,,J38,PLACED,[ ],N,Broekstraat,,,334244002.0,2024-03-01,Oss,GM0828,Berghem,,https://wegkenmerken.ndw.nu/api/images/d8cb5b99-4fce-40f4-8e54-145769305ebc,2016-10-25,2022-08-16,,,,5.5672703264166,51.78953809986,POINT (5.56727 51.789538)
049ccd72-41f3-4f22-bb32-6efadc980b1d,,,J38,PLACED,"[ { ""type"": ""VRIJ"", ""text"": ""cameratoezicht"" } ]",N,Remweg,,,216375130.0,2024-03-01,Haarlemmermeer,GM0394,Vijfhuizen,,https://wegkenmerken.ndw.nu/api/images/5d14f67a-ecc4-45f0-9513-dd62c9563608,2020-07-16,2022-07-14,,,,4.6997840277657,52.374654550618,POINT (4.699784 52.374655)
04a9bf4e-5b3a-4f85-aa52-6be7a615475e,,,J38,PLACED,[ ],W,Nieuwe Veer,,,600423922.0,2024-03-01,Molenlanden,GM1978,Streefkerk,,https://wegkenmerken.ndw.nu/api/images/5e612820-8785-48b0-a667-cc8c2b51861e,2020-09-02,2022-09-19,,,,4.7607160327,51.910531787593,POINT (4.760716 51.910532)
04b59ce1-594a-4d4f-94dc-2d3e153c80c3,,,J38,PLACED,[ ],N,Kanaaldijk,,,600751691.0,2024-03-01,Bergen (NH),GM0373,Bergen (NH),,https://wegkenmerken.ndw.nu/api/images/f7f9eba6-a3c6-4609-adca-48ab98601e16,2016-01-18,2022-11-10,,,,4.7406767249539,52.681119327589,POINT (4.740677 52.681119)
04b8d76e-4314-4196-a85d-ab1c4f863468,,,J38,PLACED,[ ],N,Boonevlietweg,,,244277006.0,2024-03-01,Molenlanden,GM1978,Langerak,,https://wegkenmerken.ndw.nu/api/images/be61bfa9-2c5f-453f-8645-2caf50d1c5f0,2016-10-12,2022-09-20,,,,4.9100485521303,51.933599925232,POINT (4.910049 51.9336)
04b8e9a8-dfde-4236-8dd8-53dffa93afdd,,,J38,PLACED,[ ],W,Nieuweweg,,,600770183.0,2024-03-01,Stichtse Vecht,GM1904,Tienhoven,,https://wegkenmerken.ndw.nu/api/images/3ef89077-eb23-4989-b18a-c102883eaf9d,2017-08-22,2022-05-03,,,,5.0353076852734,52.163236059233,POINT (5.035308 52.163236)
04c4a3c6-96b8-41f8-84c3-62cd071f3b19,,,J38,PLACED,[ ],W,Leimuiderdijk,,,212343002.0,2024-03-01,Haarlemmermeer,GM0394,Burgerveen,,https://wegkenmerken.ndw.nu/api/images/2bf9e2d7-9548-4a98-8df2-92f34b944eff,2016-07-11,2022-07-13,,,,4.673928790681,52.233189086382,POINT (4.673929 52.233189)
04c98ce1-4ab3-4b8f-bfeb-01e45ff17328,,2025-03-07,J38,PLACED,[ ],N,Tiekenveenweg,,,601050504.0,2025-03-01,Losser,GM0168,Overdinkel,,,2016-07-11,2025-03-07,,,,7.0193381219881,52.233148643806,POINT (7.019338 52.233149)
04cd6a5c-cc9e-4310-8649-076905349223,,,J38,PLACED,[ ],O,Autenasekade,,,600423200.0,2024-03-01,Vijfheerenlanden,GM1961,Vianen,,https://wegkenmerken.ndw.nu/api/images/964c767a-1a27-4baf-bb8d-17273aa28b06,2022-07-10,2022-07-10,,,,5.1011545216455,51.967423254131,POINT (5.101155 51.967423)
04d6cae2-a5fb-4962-a888-dffba23f7c61,,,J38,PLACED,[ ],N,Geel-groenlaan,,,600730163.0,2024-03-01,Zoetermeer,GM0637,Zoetermeer,,https://wegkenmerken.ndw.nu/api/images/337749dc-efe2-46ad-80d6-f88398da12f9,2016-07-21,2022-07-28,,,,4.4937040872923,52.042583807834,POINT (4.493704 52.042584)
04e145e9-09bf-4d09-8c29-a3a4c2cdfa59,,,J38,PLACED,[ ],W,Pauwenkamp,,,345367011.0,2024-03-01,Harderwijk,GM0243,Harderwijk,,https://wegkenmerken.ndw.nu/api/images/f6da78d0-7a74-45d2-a7c8-e33fa265ff1c,2016-09-22,2022-09-21,,,,5.6482166779808,52.342196240928,POINT (5.648217 52.342196)
04e537d7-659b-4a30-a222-a5ce81685acb,,,J38,PLACED,[ ],Z,Zweedsestraat,,,601222285.0,2024-06-01,Deventer,GM0150,Deventer,,https://wegkenmerken.ndw.nu/api/images/f8314590-0122-45ca-a681-578636e9bfad,2016-08-10,2022-06-18,,,,6.2001372440191,52.247131748754,POINT (6.200137 52.247132)
04ed583d-c1a4-4735-89f6-776ca6146c1c,,,J38,PLACED,[ ],O,Laan van Bovenduist,,,601475924.0,2025-10-01,Amersfoort,GM0307,Amersfoort,,https://wegkenmerken.ndw.nu/api/images/3344b71f-5c16-45ad-b7f8-7d3a6da66fbd,2020-05-15,2022-05-16,,,,5.4089983985453,52.206442109489,POINT (5.408998 52.206442)
04ef4a38-9a84-4fe8-a037-80b5f6c3f5d5,,,J38,PLACED,[ ],Z,Zwolseweg,,,413350009.0,2024-03-01,Deventer,GM0150,Deventer,,https://wegkenmerken.ndw.nu/api/images/6f354d7d-5085-4a02-a7d2-860460803b06,2016-08-04,2022-06-13,,,,6.1443531514968,52.264609457089,POINT (6.144353 52.264609)
04fa9585-c81f-45d6-81d2-a121ecbf7cbd,,,J38,PLACED,[ ],Z,Mispelweg,,,335312002.0,2024-03-01,Ede,GM0228,Lunteren,,https://wegkenmerken.ndw.nu/api/images/adcbd1f0-2f5f-459a-ac69-95fb6bce4c19,2018-06-26,2022-06-20,,,,5.5769937526251,52.097835977627,POINT (5.576994 52.097836)
04ffc381-5926-458e-b690-26355a2eeb3d,,,J38,PLACED,"[ { ""type"": ""VRIJ"", ""text"": ""3x"" } ]",N,Kloosterweg,,,502594002.0,2024-03-01,Eemsdelta,GM1979,Krewerd,,https://wegkenmerken.ndw.nu/api/images/31d9751b-9b2c-4730-a79c-b06f5d0f6de4,2020-07-20,2022-07-25,,,,6.8350073111915,53.351829555104,POINT (6.835007 53.35183)
0502ae85-8305-49da-811e-6b70d10b535f,,,J38,PLACED,[ ],L,Vredenburghlaan,2.0,457.0,600459559.0,2024-03-01,Waddinxveen,GM0627,Waddinxveen,,https://wegkenmerken.ndw.nu/api/images/4f2115c9-69bf-4df9-9dce-8bd6ff57d958,2021-08-17,2022-08-03,,,,4.6290971272112,52.02914164242,POINT (4.629097 52.029142)
05079f0d-9ca1-4a88-a73a-8ff24b015b31,,,J38,PLACED,[ ],O,Elbeweg,,,,,Rotterdam,GM0599,Europoort Rotterdam,,https://wegkenmerken.ndw.nu/api/images/8cd74606-22ef-4d08-be1e-5672dfe4fdc6,2021-03-23,2022-03-08,,,,4.1221680398751,51.954243701285,POINT (4.122168 51.954244)
05093ebc-e699-4fef-98ff-42e5e4cff3fc,,,J38,PLACED,[ ],N,Haarlemmermeerstraat,,,236370036.0,2024-03-01,Amsterdam,GM0363,Amsterdam,,https://wegkenmerken.ndw.nu/api/images/04a2b19d-08ba-422d-aa7b-e7ba3cf3764c,2021-08-23,2024-02-19,,,,4.8504348990198,52.354694718227,POINT (4.850435 52.354695)
0509b7f5-06cc-455f-a00a-665afc3f8046,,,J38,PLACED,[ ],O,Mariabergstraat,,,600843993.0,2024-03-01,Beekdaelen,GM1954,Schinveld,,https://wegkenmerken.ndw.nu/api/images/0dfb9cf1-7443-413d-afcf-1ed6eb2dbd21,2020-08-21,2022-08-16,,,,5.9780517653722,50.96492947149,POINT (5.978052 50.964929)
050bf9b7-7655-4651-8b63-8c9ee43997be,,,J38,PLACED,"[ { ""type"": ""VRIJ"", ""text"": ""3x"" } ]",W,Groenhaagweg,,,384059007.0,2024-03-01,Beekdaelen,GM1954,Merkelbeek,,https://wegkenmerken.ndw.nu/api/images/48737273-3b89-4f09-811a-affcec1d4837,2021-08-13,2022-08-16,,,,5.9211715724621,50.957154698971,POINT (5.921172 50.957155)
050e47f2-6485-4efb-8f44-df0830705f10,,,J38,PLACED,[ ],O,Hollander,,,374134001.0,2024-03-01,Leudal,GM1640,Heythuysen,,https://wegkenmerken.ndw.nu/api/images/b52bfe3f-cff4-483e-bee5-b13abd49f83f,2016-03-14,2022-05-05,,,,5.858041491033,51.290141156506,POINT (5.858041 51.290141)
050fe435-df7e-4467-b006-a54de93845cb,,,J38,PLACED,[ ],W,Molenstraat,,,601246475.0,2024-08-01,Hulst,GM0677,Clinge,,https://wegkenmerken.ndw.nu/api/images/2276b450-c4cc-4d6f-bc31-9d702e481a55,2016-07-22,2022-07-25,,,,4.0760234903329,51.263379478635,POINT (4.076023 51.263379)
05183a5d-d32c-448c-a053-8c1a588f0fff,,,J38,PLACED,[ ],O,Willeskop,2.0,228.0,243296002.0,2024-03-01,Oudewater,GM0589,Oudewater,,https://wegkenmerken.ndw.nu/api/images/46f4d0f2-fa66-46c7-94a9-0f74401f0306,2016-07-20,2022-09-13,,,,4.9003747709542,52.023549360284,POINT (4.900375 52.023549)
051a64d8-b936-4a65-a254-1f63136de2db,,,J38,PLACED,[ ],W,Kapelweg,,,292199001.0,2024-03-01,Boxtel,GM0757,Boxtel,,https://wegkenmerken.ndw.nu/api/images/49efc68b-b5f8-43c4-9c97-724a1a273bd9,2022-02-23,2022-02-23,,,,5.2691215370057,51.588086421298,POINT (5.269122 51.588086)
051f3d1f-0d05-4581-ac72-5ea2f7a606e3,,,J38,PLACED,[ ],O,Maatkampsweg,,,483362015.0,2024-03-01,Almelo,GM0141,Bornerbroek,,https://wegkenmerken.ndw.nu/api/images/e5dc364a-b99a-4ff5-b459-db384e326b3c,2016-10-31,2022-11-14,,,,6.65794247703,52.312054007083,POINT (6.657942 52.312054)
052825dd-e0cb-4ef5-b3fa-8226da02787d,,,J38,PLACED,[ ],O,Lodijkepad,,,,,Bergen Op Zoom,GM0748,Bergen Op Zoom,,https://wegkenmerken.ndw.nu/api/images/51384cdd-cfcf-42d5-bf55-d4291c2c346b,2016-03-22,2022-06-22,,,,4.2769337595322,51.475423886969,POINT (4.276934 51.475424)
05313b4b-4bdb-4e11-833e-07d13b559254,,,J38,PLACED,[ ],W,Bovenkerkerweg,,,235353052.0,2024-03-01,Amstelveen,GM0362,Amstelveen,,https://wegkenmerken.ndw.nu/api/images/47874bfc-3476-4209-918c-841b37e436d1,2016-08-05,2022-11-02,,,,4.8381031175549,52.277466382354,POINT (4.838103 52.277466)
05361b3a-fa1d-4e9f-967c-d855423dd22e,,,J38,PLACED,[ ],O,Gaardedreef,,,600250202.0,2024-03-01,Zoetermeer,GM0637,Zoetermeer,,https://wegkenmerken.ndw.nu/api/images/6fe92bba-9625-4dd9-814b-7dea0a8a49f9,2018-07-05,2022-08-01,,,,4.5097405698512,52.059695370006,POINT (4.509741 52.059695)
0536a5b6-5b6f-460b-8a71-4c66c61e96f4,,,J38,PLACED,[ ],W,Kadelaan,,,187308057.0,2024-03-01,Zoetermeer,GM0637,Zoetermeer,,https://wegkenmerken.ndw.nu/api/images/69f480cd-d5d3-46bf-bdbd-481a8e582050,2018-07-06,2022-07-29,,,,4.4974603625358,52.07206971595,POINT (4.49746 52.07207)
0541ce1c-8d01-40c2-b620-12f8e04e6f07,,,J38,PLACED,[ ],W,Heiweg,,,217263001.0,2024-03-01,Molenlanden,GM1978,Oud-Alblas,,https://wegkenmerken.ndw.nu/api/images/4c7740a0-0b7a-4e67-a416-ee7c581fdb9e,2016-10-13,2022-09-19,,,,4.7278580971944,51.870582074705,POINT (4.727858 51.870582)
054847e6-ec3e-4c42-af82-3491b0c2a792,,,J38,PLACED,[ ],O,Hoofdstraat,,,444531004.0,2024-03-01,Noordenveld,GM1699,Een,,https://wegkenmerken.ndw.nu/api/images/e2f81c23-3156-4c7d-95e4-b6ca1a194155,2016-02-02,2022-02-17,,,,6.3930814407838,53.075973599434,POINT (6.393081 53.075974)
054a860e-8067-4e58-8643-24176ed41527,,,J38,PLACED,[ ],Z,Oostelijk Halfrond,,,240360026.0,2024-03-01,Amstelveen,GM0362,Amstelveen,,https://wegkenmerken.ndw.nu/api/images/96b09488-9171-4870-8a41-58eb86a41edb,2017-10-14,2022-10-24,,,,4.8799616635226,52.310050914213,POINT (4.879962 52.310051)
05571cf8-0a4a-4285-8918-8defdda5ca3e,,,J38,PLACED,[ ],N,Tilsedijk,,,600713894.0,2024-03-01,Goeree-Overflakkee,GM1924,Den Bommel,,https://wegkenmerken.ndw.nu/api/images/e8fdf11e-de34-46d8-99e9-8895f3a2ff01,2017-11-13,2022-10-11,,,,4.259829619371,51.714481430432,POINT (4.25983 51.714481)
05574a1a-2c75-4f3f-bde6-2122d1ccbb43,,,J38,PLACED,[ ],O,Grootveenweg,,,452529036.0,2024-03-01,Noordenveld,GM1699,Norg,,https://wegkenmerken.ndw.nu/api/images/a649c642-0a45-4392-b3a8-68e634e7cb3c,2016-02-16,2022-02-16,,,,6.4495837808119,53.066823924534,POINT (6.449584 53.066824)
05597d3c-64de-4f0a-a325-a790562e2ae0,,,J38,PLACED,[ ],Z,Marie Curielaan,,,601196052.0,2024-04-01,Almere,GM0034,Almere,,https://wegkenmerken.ndw.nu/api/images/2c923bb5-657e-474d-873d-87ae89406a39,2016-01-15,2022-03-15,,,,5.2811627435083,52.360963826615,POINT (5.281163 52.360964)
055b8d06-84ea-4776-a5d7-b21ee3c671ac,,,J38,PLACED,[ ],N,IJweg,,,600738675.0,2024-03-01,Haarlemmermeer,GM0394,Nieuw-Vennep,,https://wegkenmerken.ndw.nu/api/images/db6e7579-41ee-45b3-9074-2964102f3d16,2020-08-07,2022-07-14,,,,4.6082191274266,52.274317269458,POINT (4.608219 52.274317)
055cd2ba-a273-4045-ad7c-3a98d5cb936d,,,J38,PLACED,"[ { ""type"": ""VRIJ"", ""text"": ""2 x"" } ]",W,Oldebroekerweg,2.0,709.0,362394001.0,2024-03-01,Dronten,GM0303,Biddinghuizen,,https://wegkenmerken.ndw.nu/api/images/d36f061b-7a32-4725-974c-26d7c9c960ce,2016-02-29,2022-02-24,,,,5.7731599219172,52.460306042547,POINT (5.77316 52.460306)
05683cbb-d14a-4acd-949f-0a6ce40b20e7,,,J38,PLACED,[ ],N,Amersfoortsestraatweg,,,600780753.0,2024-03-01,Gooise Meren,GM1942,Naarden,,https://wegkenmerken.ndw.nu/api/images/2cec27c6-42c5-4a4f-9749-96a73539a873,2016-07-15,2022-06-22,,,,5.1705535020092,52.289625193988,POINT (5.170554 52.289625)
056ed65b-689b-4449-bb2a-a464900531c4,,,J38,PLACED,"[ { ""type"": ""VRIJ"", ""text"": ""3x"" } ]",O,Randweg,,,600415250.0,2024-03-01,Uithoorn,GM0451,Uithoorn,,https://wegkenmerken.ndw.nu/api/images/f3337926-20b5-434a-94e2-dfbb78501c49,2016-10-13,2022-10-31,,,,4.799112087363,52.259813228199,POINT (4.799112 52.259813)
05713ab0-d5d3-4bb8-807a-33d9a44cc1c0,,,J38,PLACED,[ ],W,Papenvoortsedijk,,,334175031.0,2024-03-01,"Nuenen, Gerwen en Nederwetten",GM0820,Nuenen,,https://wegkenmerken.ndw.nu/api/images/552060ed-a35e-4fa9-8eab-ccdf3c82e35f,2018-02-27,2022-02-17,,,,5.5662092428762,51.479012666865,POINT (5.566209 51.479013)
0573035b-fc95-4ad1-9480-b4db7f782e52,,,J38,PLACED,[ ],N,Overbuurtseweg,,,600732452.0,2024-03-01,Lansingerland,GM1621,Bleiswijk,,https://wegkenmerken.ndw.nu/api/images/0f886f27-1568-4f7a-a393-be5d6296cab4,2017-10-19,2022-09-19,,,,4.5258211337346,52.005207773668,POINT (4.525821 52.005208)
057ccc47-ae98-49e3-85de-c7dc7247ccaa,,,J38,PLACED,[ ],N,Groen-blauwlaan,,,186300028.0,2024-03-01,Zoetermeer,GM0637,Zoetermeer,,https://wegkenmerken.ndw.nu/api/images/33af7a7e-b4e5-4301-bb25-ad79ce8ad424,2016-07-21,2022-07-28,,,,4.4912795170854,52.036754474004,POINT (4.49128 52.036754)
05819b29-271b-4da7-b7f5-540c14ec2b41,,,J38,PLACED,[ ],N,Jan de Rooijstraat,,,600770009.0,2024-03-01,Loon op Zand,GM0809,Kaatsheuvel,,https://wegkenmerken.ndw.nu/api/images/a58257da-8933-45cd-b435-5894361a1ead,2017-05-29,2022-07-11,,,,5.030952479339,51.663652306282,POINT (5.030952 51.663652)
0581d126-7077-4a11-baa8-6af91e6bafa6,,,J38,PLACED,[ ],W,Griendtsveenseweg,,,372169001.0,2024-03-01,Deurne,GM0762,Deurne,,https://wegkenmerken.ndw.nu/api/images/9595cbfe-388e-4393-8ad9-facaf4fccf11,2021-12-03,2022-12-07,,,,5.8452066887074,51.449051227537,POINT (5.845207 51.449051)
058e502f-b008-4dcf-91a7-2490c72eb0ac,,,J38,PLACED,[ ],N,Calsstraat,,,344174010.0,2024-03-01,Helmond,GM0794,Helmond,,https://wegkenmerken.ndw.nu/api/images/766ff6f7-9f25-442e-9097-88b721dee56c,2016-01-25,2022-01-19,,,,5.6353285189271,51.472047400866,POINT (5.635329 51.472047)
059541fa-d9d0-4f27-903e-bf3c00674a5e,,,J38,PLACED,"[ { ""type"": ""VOOR"", ""text"": ""100 m"" } ]",Z,Banterweg,2.0,718.0,359459006.0,2024-03-01,Noordoostpolder,GM0171,Bant,,https://wegkenmerken.ndw.nu/api/images/a309f6f8-aa75-4b4f-8985-ddd2e97403ae,2016-01-20,2023-12-03,,,,5.7534177441683,52.739195808321,POINT (5.753418 52.739196)
059678e0-2290-41c5-9cf0-cd18e3bc1a4e,,,J38,PLACED,[ ],O,Vennewatersweg,,,601043573.0,2024-03-01,Heiloo,GM0399,Heiloo,,https://wegkenmerken.ndw.nu/api/images/8dd0c27e-08e7-4c39-9fae-e6c4e0616c35,2021-04-13,2022-04-09,,,,4.6898135606006,52.591064649351,POINT (4.689814 52.591065)
059ac004-57ab-4de9-b58b-2d416faae017,,,J38,PLACED,[ ],NNO,Veerweg,,,182255003.0,2025-04-01,Albrandswaard,GM0613,Rhoon,,https://wegkenmerken.ndw.nu/api/images/4a5c515d-79c1-4e86-8c0b-467e61a16a48,2021-10-16,2025-04-14,,,,4.4605790150139,51.83591878786,POINT (4.460579 51.835919)
059ae3da-c717-4ae9-aab7-1da4b9c5152d,,,J38,PLACED,[ ],W,Kallenbroekerweg,,,335322026.0,2024-03-01,Barneveld,GM0203,Barneveld,,https://wegkenmerken.ndw.nu/api/images/ff37b91b-c670-4283-86ed-8cbe976de9a3,2016-07-12,2022-08-12,,,,5.5734401082638,52.141058364338,POINT (5.57344 52.141058)
05a62818-819e-4ea8-9bab-ebe7de8d5ec4,,,J38,PLACED,[ ],O,Groeneweg,,,357286047.0,2024-03-01,Renkum,GM0274,Renkum,,https://wegkenmerken.ndw.nu/api/images/a4dd19e8-97fa-474c-9fb0-ea509e3d94c0,2018-05-02,2022-03-23,,,,5.7330550088423,51.975167804615,POINT (5.733055 51.975168)
05a6c13a-9983-442e-ac91-0aa7cd5426c8,,,J38,PLACED,[ ],W,de Rijt,,,,,Reusel-De Mierden,GM1667,Reusel,,https://wegkenmerken.ndw.nu/api/images/1b293518-819f-445b-872c-d13cce5e5b38,2021-11-24,2022-11-02,,,,5.1689791790609,51.369157024923,POINT (5.168979 51.369157)
05a9023c-0a21-40df-8391-cd60a36a6ec1,,2025-07-24,J38,PLACED,[ ],NNW,Weg door de Berendonck,,,601007834.0,2025-07-01,Wijchen,GM0296,Wijchen,,https://wegkenmerken.ndw.nu/api/images/56662eb7-027e-44b2-85b9-51318a677615,2020-04-10,2025-07-24,,,,5.769866043007,51.810574522006,POINT (5.769866 51.810575)
05afe2f9-7289-4d38-ac04-58290e10457b,,,J38,PLACED,[ ],N,Hanepoel,,,204362003.0,2024-03-01,Haarlemmermeer,GM0394,Zwaanshoek,,https://wegkenmerken.ndw.nu/api/images/57657afd-92e0-4734-9b1e-fc626ef507c2,2016-07-19,2022-07-26,,,,4.6147327138964,52.315887056254,POINT (4.614733 52.315887)
05b66c15-29c0-4f40-b57d-b7378df71084,,,J38,PLACED,[ ],O,Kaalakkerstraat,,,600787312.0,2024-03-01,West Betuwe,GM1960,Waardenburg,,https://wegkenmerken.ndw.nu/api/images/eafd45f4-d764-4db8-a243-c9ed4c7d5ffb,2016-08-12,2022-04-29,,,,5.273330144689,51.835148680912,POINT (5.27333 51.835149)
05c945d4-ea37-441f-a3ca-cce6f2e903a3,,,J38,PLACED,[ ],Z,Pansersdijk,,,138268005.0,2024-03-01,Voorne aan Zee,GM1992,Tinte,,https://wegkenmerken.ndw.nu/api/images/0832ec1c-4b5e-4187-8372-b704345b84a1,2021-08-10,2022-07-20,,,,4.1445278739255,51.887641859812,POINT (4.144528 51.887642)
05d03280-4006-4f87-b948-9c5f0d65de7a,,,J38,PLACED,[ ],Z,Heiligenbergerweg,,,311325103.0,2024-03-01,Amersfoort,GM0307,Amersfoort,,https://wegkenmerken.ndw.nu/api/images/d3e3428e-cfb7-4d76-a1b4-986810b2d464,2016-06-14,2022-05-18,,,,5.3995849010888,52.152084941128,POINT (5.399585 52.152085)
05d50ca6-1fad-4491-a19c-3b2589ba49c2,,,J38,PLACED,[ ],O,Nieuwe Maastrichtsebaan,,,244186003.0,2024-03-01,Gilze en Rijen,GM0784,Gilze,,https://wegkenmerken.ndw.nu/api/images/519020ac-e7ec-4152-9f60-ab14a6abda3d,2017-01-20,2022-01-26,,,,4.920440600386,51.524900560651,POINT (4.920441 51.524901)
05d8f067-541f-4ccc-9dea-592d3836dea7,14338,2025-09-24,J38,PLACED,[ ],N,Kerkstraat,2.0,572.0,389081002.0,2025-09-01,Echt-Susteren,GM1711,Koningsbosch,,,2025-09-24,2025-09-24,,2025-09-24,,5.955526564834336,51.053080100587344,POINT (5.955527 51.05308)
05e087ae-7895-4beb-be2a-a2a87bcfe045,,,J38,PLACED,[ ],O,Westlandse Langeweg,,,154197001.0,2024-03-01,Steenbergen,GM0851,Steenbergen,,https://wegkenmerken.ndw.nu/api/images/2b390956-54cd-4f28-99f7-bc094a1dabe1,2016-06-07,2022-07-01,,,,4.2693045818565,51.572855776792,POINT (4.269305 51.572856)
05e0edf4-5786-4755-a27a-ddc82bcbf2b0,,,J38,PLACED,"[ { ""type"": ""VOOR"", ""text"": ""na gebruik Trailerhelling auto plaatsen op de Parkeerplaats"" } ]",N,Seveningseweg,,,600836990.0,2024-03-01,Kampen,GM0166,Kampen,,https://wegkenmerken.ndw.nu/api/images/713e358d-43ed-4311-979f-daa9a137a8bc,2016-09-01,2023-12-03,,,,5.9159506102991,52.56845094445,POINT (5.915951 52.568451)
05e3fe73-b625-4e3b-a8e9-f71f10701834,,,J38,PLACED,[ ],W,Deventerweg,,,431347010.0,2024-03-01,Deventer,GM0150,Bathmen,,https://wegkenmerken.ndw.nu/api/images/efed0240-39c1-47b2-85c3-52cbd800a425,2020-06-18,2022-06-19,,,,6.2790466548357,52.250055302128,POINT (6.279047 52.250055)
05e46ade-8b91-4526-88ae-c2792318c750,,,J38,PLACED,[ ],Z,Hoefslag,,,600868803.0,2024-03-01,Midden-Drenthe,GM1731,Beilen,,https://wegkenmerken.ndw.nu/api/images/4763ba0b-f489-45dc-b235-14e76e0d0ce7,2016-11-23,2022-10-26,,,,6.513039975444,52.872843622073,POINT (6.51304 52.872844)
05e7cca3-6c43-43ae-a0a4-b9e68e40ab37,,,J38,PLACED,"[ { ""type"": ""VRIJ"", ""text"": ""bromfiets drempels"" } ]",R,Rykswg,1.0,27.0,241228012.0,2024-03-01,Geertruidenberg,GM0779,Raamsdonksveer,,https://wegkenmerken.ndw.nu/api/images/76ca4181-5f52-49fa-8424-d136846ddb95,2016-09-13,2022-04-22,,,,4.8902829247118,51.717730682008,POINT (4.890283 51.717731)
05f203ae-e1e7-4347-850b-afb80c65bcd5,,,J38,PLACED,[ ],Z,Wilgenlei,,,600733610.0,2024-03-01,Lansingerland,GM1621,Bleiswijk,,https://wegkenmerken.ndw.nu/api/images/3f013ae4-41e2-4363-a887-52e58a29cbfe,2016-08-26,2022-09-21,,,,4.5357793179189,51.995752115442,POINT (4.535779 51.995752)
05f639e6-2974-42fb-9984-ef2919d0a46e,,,J38,PLACED,"[ { ""type"": ""VRIJ"", ""text"": ""3x"" } ]",O,Zuiderweg,,,236396040.0,2024-03-01,Wormerland,GM0880,Wijdewormer,,https://wegkenmerken.ndw.nu/api/images/78f33a15-c11d-467b-8edc-eb59dac6c21a,2016-09-13,2022-10-25,,,,4.8501792451061,52.47084332552,POINT (4.850179 52.470843)
05fb587a-5665-4c73-855d-4a8e00b5c1ba,,,J38,PLACED,[ ],N,Dorpsweg,,,600715051.0,2024-03-01,Nissewaard,GM1930,Simonshaven,,https://wegkenmerken.ndw.nu/api/images/094fa54b-7024-49b6-9ce7-d9d60ad9001d,2016-05-04,2022-06-23,,,,4.2823620044454,51.830222309477,POINT (4.282362 51.830222)
05fb77ce-70bd-4375-aecd-42855fed4752,,,J38,PLACED,[ ],N,Oude Dijk,,,600853673.0,2024-03-01,Achtkarspelen,GM0059,Buitenpost,,https://wegkenmerken.ndw.nu/api/images/df78edda-9d16-4e0b-8cf0-180ada59663a,2022-06-29,2022-06-29,,,,6.1380435796725,53.236583429404,POINT (6.138044 53.236583)
05fd51fa-c8ca-408f-a546-e84fe419b2e6,,,J38,PLACED,[ ],N,Kerkstraat,,,601304434.0,2025-02-01,Land van Cuijk,GM1982,Haps,,https://wegkenmerken.ndw.nu/api/images/346a65bb-dbcf-45e0-b6fc-72892ec49187,2016-11-17,2022-11-22,,,,5.8624951942975,51.687822730771,POINT (5.862495 51.687823)
05fff4a4-e783-46c6-a719-dde990cd589e,,,J38,PLACED,[ ],N,Lunettenlaan,,,292216006.0,2024-03-01,Vught,GM0865,Vught,,https://wegkenmerken.ndw.nu/api/images/3bf6fc07-4eeb-4b76-82ab-e0549359415a,2020-09-02,2022-07-28,,,,5.2595670955895,51.662029370844,POINT (5.259567 51.662029)
0603cc2c-d0ae-4854-aa08-9db87e62f69c,,,J38,PLACED,[ ],Z,Bolst,,,338207005.0,2024-03-01,Meierijstad,GM1948,Erp,,https://wegkenmerken.ndw.nu/api/images/984f7eed-87b5-47e7-96d2-4aef009e923a,2016-11-28,2022-06-09,,,,5.5988653831929,51.614801252285,POINT (5.598865 51.614801)
0609074f-f7fc-4187-932b-36422e0d3d80,,,J38,PLACED,[ ],W,Veldweg,,,,,Heerde,GM0246,Heerde,,https://wegkenmerken.ndw.nu/api/images/5d258385-ba15-4205-98ed-ca6520cdea68,2016-04-19,2022-06-13,,,,6.0437030127599,52.410160391931,POINT (6.043703 52.41016)
060a35a4-f271-46e6-8fc0-54902248e901,,,J38,PLACED,[ ],L,Boulevard Barnaart,2.0,200.0,194380010.0,2024-03-01,Zandvoort,GM0473,Zandvoort,,,2023-12-15,2023-12-15,,2023-12-15,,4.54229462,52.39884914,POINT (4.542295 52.398849)
06109f84-db61-4e1f-a1fb-e847f8b3f82a,,,J38,PLACED,[ ],N,Langeweg,,,174245001.0,2024-03-01,Hoeksche Waard,GM1963,Oud-Beijerland,,https://wegkenmerken.ndw.nu/api/images/e37a80f4-16f6-4990-8c54-4c62f383be9c,2016-11-02,2022-09-02,,,,4.409208916813,51.798382481234,POINT (4.409209 51.798382)
061f5270-4488-48c3-90f9-7c1e8b30afdc,,,J38,PLACED,[ ],Z,Stationsweg,,,372289010.0,2024-03-01,Renkum,GM0274,Oosterbeek,,https://wegkenmerken.ndw.nu/api/images/0e0e0720-7eaa-4da7-866d-d79e4afbd251,2016-10-13,2022-04-07,,,,5.839167090707,51.99040473786,POINT (5.839167 51.990405)
06218243-5c5f-4c84-8dc7-fb15c28a8dfc,,,J38,PLACED,[ ],W,Europalaan,,,601096907.0,2024-03-01,IJsselstein,GM0353,IJsselstein,,https://wegkenmerken.ndw.nu/api/images/3d3ec662-9168-4b6e-b791-560d6cb4f66a,2016-07-22,2022-07-20,,,,5.0567004795922,52.02284047259,POINT (5.0567 52.02284)
062243eb-8819-4461-a460-d6682fde6085,,,J38,PLACED,[ ],O,C R Waiboerweg,,,397264001.0,2024-03-01,Berg en Dal,GM1945,Millingen aan de Rijn,,https://wegkenmerken.ndw.nu/api/images/237377f7-1976-4866-bbf3-81c2641b0cc1,2020-03-19,2022-03-16,,,,6.0214466451301,51.877791689728,POINT (6.021447 51.877792)
063a9d27-b1a7-4008-b4fb-467d1ca11cf0,,2024-11-20,J38,PLACED,[ ],ZO,Ten Esschenweg,,,384048002.0,2024-11-01,Beekdaelen,GM1954,Wijnandsrade,,https://wegkenmerken.ndw.nu/api/images/d046cd38-0a97-4096-a0d1-235c9ae612d3,2024-11-20,2024-11-20,,2024-11-20,,5.918639310635626,50.9068415442502,POINT (5.918639 50.906842)
063bd9c8-bb73-4537-8886-1519c035a203,,,J38,PLACED,[ ],W,Beukenboomsweg,,,600830555.0,2024-03-01,Sittard-Geleen,GM1883,Guttecoven,,https://wegkenmerken.ndw.nu/api/images/7ec31005-f796-47ca-a9da-00ed57d563d3,2020-09-10,2022-10-03,,,,5.8266747486308,51.018957495906,POINT (5.826675 51.018957)
06417a69-9504-4dba-b5d1-08c0cf602aab,,,J38,PLACED,[ ],O,Herenweg,,,188351021.0,2024-03-01,Noordwijk,GM0575,Noordwijkerhout,,https://wegkenmerken.ndw.nu/api/images/b588fad9-c503-4a69-9313-dedf42810f47,2020-04-02,2022-06-07,,,,4.4988137100742,52.265192142181,POINT (4.498814 52.265192)
06556c8f-6b42-405a-9f49-cd4bfc67d240,,,J38,PLACED,[ ],R,Broerdijk,,,261449001.0,2024-03-01,Medemblik,GM0420,Midwoud,,https://wegkenmerken.ndw.nu/api/images/b0da0efa-7505-4e23-9409-e291718a8448,2016-01-08,2022-04-22,,,,5.0286238872393,52.711295569875,POINT (5.028624 52.711296)
06691875-de47-4a37-951f-0f4474215aff,,,J38,PLACED,[ ],W,Zuiderveldweg,,,600812581.0,2024-03-01,Putten,GM0273,Putten,,https://wegkenmerken.ndw.nu/api/images/d226857b-38d8-4820-9aba-73af36e90289,2016-06-01,2022-06-14,,,,5.6132784498995,52.272439372009,POINT (5.613278 52.272439)
06739b6e-f554-4961-b263-b4fa9b4e20ca,,,J38,PLACED,"[ { ""type"": ""VRIJ"", ""text"": ""2 X"" } ]",W,Roovertsedijk,,,600904040.0,2024-03-01,Hilvarenbeek,GM0798,Hilvarenbeek,,https://wegkenmerken.ndw.nu/api/images/e48d57e8-a1fb-4cd9-bca1-850eb9a054dd,2018-06-26,2022-06-30,,,,5.1185338051033,51.482833755547,POINT (5.118534 51.482834)
06751ae6-67d0-41bb-88c4-10374b39595c,,,J38,PLACED,[ ],N,Sterrenbergweg,,,295318023.0,2024-03-01,Soest,GM0342,Soesterberg,,https://wegkenmerken.ndw.nu/api/images/e92f4fe4-25c5-4374-b42f-fe9b22e5f731,2016-09-16,2022-10-03,,,,5.2787845195543,52.1215608423,POINT (5.278785 52.121561)
0682edb5-bbef-4d5a-8733-1dbc1edaf68e,,,J38,PLACED,[ ],W,2e Tieflaarsestraat,,,294255001.0,2024-03-01,West Betuwe,GM1960,Neerijnen,,https://wegkenmerken.ndw.nu/api/images/8fcc9b5c-f065-40d3-8912-c32c7499852a,2016-08-15,2022-04-29,,,,5.2774166847763,51.838296433784,POINT (5.277417 51.838296)
0683f6da-95d5-438a-8886-8ed2207804e1,,,J38,PLACED,[ ],O,Bergsche Maasdijk,2.0,831.0,276234006.0,2024-03-01,Zaltbommel,GM0297,Bern,,https://wegkenmerken.ndw.nu/api/images/83f5b5dc-237e-4ba6-ae40-23dda2c33e56,2019-12-19,2021-12-20,,,,5.1642085606513,51.746859297416,POINT (5.164209 51.746859)
06842b14-0d0b-4327-a323-5c17b56aa5cd,,,J38,PLACED,[ ],W,De Centrale,,,,,Leeuwarden,GM0080,Leeuwarden,,https://wegkenmerken.ndw.nu/api/images/36ce7c75-5ade-45e0-a244-f088f73a664d,2016-10-17,2022-11-11,,,,5.8198179573433,53.201028505316,POINT (5.819818 53.201029)
068caae0-a0bf-4d3e-931a-ea96a1e05934,,,J38,PLACED,[ ],O,Lekdijk Oost,,,295281008.0,2024-03-01,Buren,GM0214,Beusichem,,https://wegkenmerken.ndw.nu/api/images/1c8182df-1efe-4ac6-8581-2a269f90ce15,2018-06-27,2022-05-11,,,,5.2832106450644,51.955955843205,POINT (5.283211 51.955956)
068ccaed-f35c-4b75-b47f-63eaa3ee3eb3,,,J38,PLACED,"[ { ""type"": ""VRIJ"", ""text"": ""drempel 2 x"" } ]",N,Grevensweg,,,369383002.0,2024-03-01,Elburg,GM0230,Doornspijk,,https://wegkenmerken.ndw.nu/api/images/14e6e762-12aa-461d-8aaf-ebfd7a75f3b8,2020-07-03,2022-06-27,,,,5.8280507823308,52.412714623623,POINT (5.828051 52.412715)
06906752-e245-41a4-89ab-142ca6d5fb5d,,,J38,PLACED,[ ],W,Kofschipstraat,,,600249101.0,2025-09-01,Amsterdam,GM0363,Amsterdam,,,2025-09-09,2025-09-09,,2025-09-09,,4.91461824435611,52.4033110519465,POINT (4.914618 52.403311)
0693cbc9-98ad-4c48-9621-19d4bedaa29c,,,J38,PLACED,[ ],O,Franciscusweg,,,276338024.0,2024-03-01,Hilversum,GM0402,Hilversum,,https://wegkenmerken.ndw.nu/api/images/419cf833-d45c-4b9c-a9ec-d1248fc2044a,2017-12-27,2022-01-24,,,,5.1425878627743,52.213085860518,POINT (5.142588 52.213086)
069819f5-baca-4fb1-a4f2-c19048084514,,,J38,PLACED,[ ],N,Waaldijk,,,386263011.0,2024-03-01,Lingewaard,GM1705,Gendt,,https://wegkenmerken.ndw.nu/api/images/06270201-b961-44bd-98e8-db4280750cc9,2016-09-16,2022-09-28,,,,5.9447905106704,51.870942138877,POINT (5.944791 51.870942)
069acf48-462f-4148-8263-a5ca75d00086,AA974BAC-1593-4B06-94CB-C5806566ACE1,2025-06-06,J38,PLACED,"[ { ""type"": ""VRIJ"", ""text"": ""Adviessnelheid 15 km"" } ]",ZW,Numansgors,,,179230004.0,2025-06-01,Hoeksche Waard,GM1963,Numansdorp,,,2025-06-06,2025-06-06,,2025-06-06,,4.44195479543459,51.721009723327924,POINT (4.441955 51.72101)
069bcf3e-a845-4092-b0f8-1f746971940c,,,J38,PLACED,[ ],N,Schelde-Rijnweg,,,149188011.0,2024-03-01,Tholen,GM0716,Tholen,,https://wegkenmerken.ndw.nu/api/images/740e8592-7040-4909-942c-ae90761263b4,2016-02-16,2022-03-04,,,,4.2279578857833,51.532997101125,POINT (4.227958 51.532997)
069d3c4e-a0ba-4b59-b300-bbae6303c8aa,,,J38,PLACED,[ ],N,Electraweg,,,439584005.0,2024-03-01,Het Hogeland,GM1966,Zuurdijk,,https://wegkenmerken.ndw.nu/api/images/78d1e96d-7b69-4c23-8345-2e754f6ed794,2016-07-11,2022-06-20,,,,6.351776401562,53.330183557499,POINT (6.351776 53.330184)
06a475b8-f431-4bc1-a24d-3d99b1b085c1,,,J38,PLACED,[ ],N,Dorpsstraat,,,218389007.0,2024-03-01,Zaanstad,GM0479,Assendelft,,https://wegkenmerken.ndw.nu/api/images/7b929547-59ea-4171-bd4e-c00aa6a6fe62,2020-09-09,2022-09-03,,,,4.7244413771682,52.451130428084,POINT (4.724441 52.45113)
06a4d2f1-8fea-4dc6-8aeb-41da6fc30105,,,J38,PLACED,[ ],O,Huygendijk,2.0,508.0,600945573.0,2024-03-01,Alkmaar,GM0361,Oterleek,,https://wegkenmerken.ndw.nu/api/images/15cd644b-3597-4917-8d56-c4fd7e09796b,2016-03-10,2022-02-25,,,,4.8398688142669,52.632553797768,POINT (4.839869 52.632554)
06b283ef-8f76-4e68-82b4-564881a19527,,,J38,PLACED,[ ],Z,Heuvellaan,,,269327001.0,2024-03-01,Stichtse Vecht,GM1904,Tienhoven,,https://wegkenmerken.ndw.nu/api/images/58053beb-2b65-4ccd-a8f1-3decdf0e0ecf,2016-09-21,2022-05-03,,,,5.0900935910999,52.158828528214,POINT (5.090094 52.158829)
06b2dceb-97e8-4280-8815-a44e4835820e,,,J38,PLACED,[ ],N,Veghelsedijk,,,333192003.0,2024-03-01,Laarbeek,GM1659,Mariahout,,https://wegkenmerken.ndw.nu/api/images/e6ddc5aa-4770-4b62-8e32-e6bc15e69b09,2016-09-27,2022-09-22,,,,5.5588401085333,51.554168393386,POINT (5.55884 51.554168)
06b7bcf7-c3fe-43c7-b099-28e1707c799c,,,J38,PLACED,[ ],Z,Bloemendijk,,,164209002.0,2024-03-01,Steenbergen,GM0851,Dinteloord,,https://wegkenmerken.ndw.nu/api/images/f88258cb-a25e-4622-9972-97a56f41d2b0,2016-06-07,2022-07-01,,,,4.3394516663192,51.628539152223,POINT (4.339452 51.628539)
06b8c465-3314-4189-94ef-b3fc55c78635,,,J38,PLACED,[ ],Z,Scheepsbouwweg,,,243382127.0,2024-03-01,Amsterdam,GM0363,Amsterdam,,https://wegkenmerken.ndw.nu/api/images/fdfdeef9-b3c1-47a8-ac97-d46715badfc5,2021-09-10,2022-05-31,,,,4.899566075368,52.406556916445,POINT (4.899566 52.406557)
06ba5554-75be-4767-ae2f-d76da4b334b0,,,J38,PLACED,[ ],Z,Moerstraatseweg,,,601153770.0,2024-03-01,Steenbergen,GM0851,Steenbergen,,https://wegkenmerken.ndw.nu/api/images/a7ecbb94-a8b4-4654-8b48-1fb980cd5593,2016-06-03,2022-07-06,,,,4.3208248530352,51.564762497028,POINT (4.320825 51.564762)
06ba7053-1353-448d-9bdb-c82927e34813,,,J38,PLACED,[ ],N,Loswalweg,,,217248042.0,2024-03-01,Dordrecht,GM0505,Dordrecht,,https://wegkenmerken.ndw.nu/api/images/e9b9613a-3536-4987-8cbe-b45176c2eaa5,2016-03-10,2022-05-03,,,,4.7189043509718,51.807511819715,POINT (4.718904 51.807512)
06bcb385-8b92-44b6-84eb-531bd21663d2,,,J38,PLACED,[ ],N,Zouwendijk,,,600423275.0,2024-03-01,Vijfheerenlanden,GM1961,Ameide,,https://wegkenmerken.ndw.nu/api/images/17d47e46-7eae-4836-ace1-9fc910ef87a7,2016-10-18,2022-07-11,,,,4.9828933698056,51.95203129715,POINT (4.982893 51.952031)
06c07389-72a4-49e8-bdfb-3242adb3ce28,,,J38,PLACED,[ ],O,Kruisstraat,,,366130001.0,2024-03-01,Nederweert,GM0946,Nederweert-Eind,,https://wegkenmerken.ndw.nu/api/images/be70b40e-be5f-477d-9044-70a0b2144bb7,2016-06-16,2022-06-29,,,,5.7974799848668,51.277839185108,POINT (5.79748 51.277839)
06c63f73-7370-4335-8cfb-dbf356aa67c6,,,J38,PLACED,[ ],R,Provincialeweg,2.0,214.0,253268041.0,2024-03-01,Molenlanden,GM1978,Hoogblokland,,https://wegkenmerken.ndw.nu/api/images/217ff229-921b-4af7-9738-22f7b1c0f53f,2020-09-02,2022-09-15,,,,4.9784180917186,51.89797615737,POINT (4.978418 51.897976)
06ccbe6a-b63d-4af0-ad7c-09ef660fd67d,,,J38,PLACED,[ ],N,Oosterweg,,,600754657.0,2024-03-01,Alkmaar,GM0361,Alkmaar,,https://wegkenmerken.ndw.nu/api/images/8ef308b2-4832-4982-a785-35d9cc536824,2016-02-16,2022-02-19,,,,4.7869662462942,52.63383441351,POINT (4.786966 52.633834)
06d72fe7-5797-4bb4-ad81-29fc298fd86d,,,J38,PLACED,[ ],W,Nesserlaan,,,600443367.0,2024-03-01,Amstelveen,GM0362,Amstelveen,,https://wegkenmerken.ndw.nu/api/images/6ea6020d-b484-4959-a256-57674baf3c36,2016-08-05,2022-10-28,,,,4.8597270580343,52.274701781006,POINT (4.859727 52.274702)
06db970d-aa0d-4130-bbe5-2b7fe1083c64,,,J38,PLACED,[ ],Z,Fazantenkamp,,,600382238.0,2024-03-01,Stichtse Vecht,GM1904,Maarssen,,https://wegkenmerken.ndw.nu/api/images/f85ba540-225e-4fdd-b7fa-71aafb850241,2016-09-27,2022-05-07,,,,5.0214548206393,52.131249760736,POINT (5.021455 52.13125)
06e09c2b-ec58-4a06-9083-30f38c97e8c7,,,J38,PLACED,[ ],W,Bosweg,,,310322006.0,2024-03-01,Amersfoort,GM0307,Amersfoort,,https://wegkenmerken.ndw.nu/api/images/79e8eb24-cdc1-4c3a-a4f4-e73262a7a2b5,2016-06-16,2022-05-18,,,,5.3924358405744,52.141452095278,POINT (5.392436 52.141452)
06e0d17d-a79c-4624-af3e-db546c80b945,,,J38,PLACED,[ ],O,Eversdijkse Bredeweg,,,601237768.0,2024-07-01,Kapelle,GM0678,Kapelle,,https://wegkenmerken.ndw.nu/api/images/45e187bc-de06-4d59-ac09-dd29822aa827,2020-05-29,2022-06-15,,,,3.9387572618271,51.465281595038,POINT (3.938757 51.465282)
06e1d999-6c6f-4891-9cfa-d2a9454348ad,,,J38,PLACED,[ ],Z,Tochtpad,,,,,Zoetermeer,GM0637,Zoetermeer,,https://wegkenmerken.ndw.nu/api/images/a3f6c205-d992-4b89-8e97-5a9f74473b5f,2016-07-18,2022-08-03,,,,4.5180764302058,52.069424326743,POINT (4.518076 52.069424)
06e509e9-bf54-49f8-a602-ca4931e7152c,,,J38,PLACED,[ ],N,Drouwenerstraat,,,498500009.0,2024-03-01,Borger-Odoorn,GM1681,Borger,,https://wegkenmerken.ndw.nu/api/images/f3e4c104-573e-4c68-b926-9b212be79219,2016-11-03,2022-10-12,,,,6.7898125073262,52.930827172056,POINT (6.789813 52.930827)
06e7fe00-75e7-45fe-8ca3-da5bd483e317,,,J38,PLACED,[ ],O,Ommezwanksedijk,,,371171001.0,2024-03-01,Deurne,GM0762,Deurne,,https://wegkenmerken.ndw.nu/api/images/5fb5d7eb-7683-4796-9fbb-794d137cb351,2017-10-30,2022-12-07,,,,5.8329507037727,51.462163154326,POINT (5.832951 51.462163)
06e825fe-811d-447f-9c12-2e709800f272,,,J38,PLACED,[ ],W,Jan van der Heydenstraat,,,192295056.0,2024-03-01,Lansingerland,GM1621,Bleiswijk,,https://wegkenmerken.ndw.nu/api/images/94827268-df84-4a7b-9187-1f66a2abdc02,2016-08-25,2022-09-20,,,,4.5353077220373,52.013042158662,POINT (4.535308 52.013042)
06eb5af6-5b54-4e24-893b-ea4f1c7538ea,,,J38,PLACED,[ ],O,Espeterweg,,,600811774.0,2024-03-01,Barneveld,GM0203,Barneveld,,https://wegkenmerken.ndw.nu/api/images/17908b6c-05f0-4584-a845-924e2000cc5f,2016-07-11,2022-08-09,,,,5.6058199841271,52.133313728332,POINT (5.60582 52.133314)
06ed449a-bfd9-483a-81f8-43cfcd139ab7,,,J38,PLACED,[ ],L,Rijksweg A58,,,278189008.0,2024-03-01,Oisterwijk,GM0824,Moergestel,,https://wegkenmerken.ndw.nu/api/images/40d93c04-bcec-4f64-992e-9e459ac37d87,2017-04-10,2022-04-26,,,,5.157369744292,51.542909332524,POINT (5.15737 51.542909)
06eed848-bc21-49cc-895c-46f5c45d8754,,,J38,PLACED,[ ],O,Borculoseweg,2.0,822.0,600951284.0,2024-03-01,Berkelland,GM1859,Eibergen,,https://wegkenmerken.ndw.nu/api/images/be92e8d2-7d9a-42fc-97dd-975e6c96cbb4,2020-03-15,2022-03-05,,,,6.6154965185981,52.107260628993,POINT (6.615497 52.107261)
06f12351-e0a7-41e2-b136-0423e70516b8,,,J38,PLACED,[ ],O,Huigsloterdijk,,,202339001.0,2024-03-01,Haarlemmermeer,GM0394,Abbenes,,https://wegkenmerken.ndw.nu/api/images/1f12c168-865a-43fd-9552-2d63e0d9fa82,2016-07-11,2022-07-13,,,,4.6154425275523,52.214846652804,POINT (4.615443 52.214847)
06f92491-525a-4e1c-9825-2187b5f0e419,,,J38,PLACED,[ ],N,Nieuwe Zeeweg,,,601024087.0,2024-03-01,Noordwijk,GM0575,Noordwijk,,https://wegkenmerken.ndw.nu/api/images/03a9431d-fb5f-476c-b370-d51430cf229d,2016-07-08,2022-06-10,,,,4.4407682074896,52.241437993314,POINT (4.440768 52.241438)
0702e988-6968-445a-b8e5-a6f972591dbb,,,J38,PLACED,[ ],W,Eeweg,,,143252002.0,2024-03-01,Voorne aan Zee,GM1992,Oudenhoorn,,https://wegkenmerken.ndw.nu/api/images/20b7c553-4ef6-45a3-b551-508a718cf24c,2020-06-24,2022-10-03,,,,4.1831997221618,51.821169692195,POINT (4.1832 51.82117)
070aa337-9bc5-4ad1-9be3-e796cb89bfcc,,,J38,PLACED,[ ],W,Ramsweg,,,359428002.0,2024-03-01,Noordoostpolder,GM0171,Nagele,,https://wegkenmerken.ndw.nu/api/images/1432fa2d-2295-493a-ae0c-d3d6b496d2d6,2016-02-24,2022-03-09,,,,5.7555576182668,52.613469828299,POINT (5.755558 52.61347)
070cf543-a4cf-4350-a1b7-592963c66146,,,J38,PLACED,[ ],O,Haldijk,,,233165001.0,2024-03-01,Baarle-Nassau,GM0744,Ulicoten,,https://wegkenmerken.ndw.nu/api/images/028bcd42-7f54-43ff-9ac3-3096edfacbaf,2017-01-11,2022-01-25,,,,4.8421116549485,51.432820393655,POINT (4.842112 51.43282)
070f65e5-e7f0-407a-a695-e85a64906c8c,,,J38,PLACED,[ ],W,Mijnsherenweg,,,600752031.0,2024-03-01,Aalsmeer,GM0358,Kudelstaart,,https://wegkenmerken.ndw.nu/api/images/1c09ec94-7ba3-4632-9764-720af6cfb3bd,2016-09-27,2022-11-13,,,,4.7597195642437,52.240488515514,POINT (4.75972 52.240489)
07172be5-3585-403a-a252-a7c94add3806,,,J38,PLACED,[ ],Z,Polderweg,,,223472012.0,2024-03-01,Schagen,GM0441,Schagerbrug,,https://wegkenmerken.ndw.nu/api/images/0fc897ec-1418-4295-a724-d034ea80145f,2016-11-11,2022-06-28,,,,4.7443203745371,52.81146622896,POINT (4.74432 52.811466)
071c7c15-e2e1-46e1-bc7b-1d6b48535548,,,J38,PLACED,[ ],W,Zandsteeg,,,388209002.0,2024-03-01,Land van Cuijk,GM1982,Sambeek,,https://wegkenmerken.ndw.nu/api/images/88fba113-300b-4969-b329-78ee44730163,2017-01-12,2022-11-08,,,,5.9517580896699,51.63163165986,POINT (5.951758 51.631632)
071ecd79-f8f1-446d-8f67-52ad73639a5d,,,J38,PLACED,[ ],O,J.F. Kennedylaan,,,297264027.0,2024-03-01,West Betuwe,GM1960,Geldermalsen,,https://wegkenmerken.ndw.nu/api/images/0918642d-17b1-427a-b0e0-52992efa21c6,2016-08-03,2022-05-04,,,,5.2974504702787,51.876546945497,POINT (5.29745 51.876547)
072452db-c6da-45da-8eb6-1b48b6124551,,,J38,PLACED,[ ],W,Handelsesteeg,,,348196002.0,2024-03-01,Gemert-Bakel,GM1652,Gemert,,https://wegkenmerken.ndw.nu/api/images/67f559a9-6464-417f-89ea-bdb47e35b446,2021-05-10,2022-04-11,,,,5.6669887149509,51.574017489279,POINT (5.666989 51.574017)
