id,externalId,validatedOn,rvvCode,zoneCode,status,textSigns,side,roadName,roadType,roadNumber,roadSectionId,nwbVersion,countyName,countyCode,townName,bgtCode,imageUrl,firstSeenOn,lastSeenOn,placedOn,removedOn,trafficOrderUrl,longitude,latitude,geometry_wkt
0008d482-d0ba-4e98-b344-f4f168398b75,,,G6,,PLACED,[ ],O,Laarpark,,,333206002.0,2024-03-01,Meierijstad,GM1948,Veghel,,https://wegkenmerken.ndw.nu/api/images/e0799ba2-25ec-4c60-b4b1-f08cf7ca7d2d,2016-11-29,2022-06-07,,,,5.560144465568,51.619291771244,POINT (5.560144 51.619292)
000a1e7c-1daa-450c-ba1b-557869c89cd9,,,G6,,PLACED,[ ],Z,Klaverhof,,,186341010.0,2024-03-01,Teylingen,GM1525,Voorhout,,https://wegkenmerken.ndw.nu/api/images/7de8850a-a527-4002-b7e3-02c396aaf572,2016-02-25,2022-06-22,,,,4.4872185487137,52.220615415942,POINT (4.487219 52.220615)
000bfaf4-26d8-4be2-bd69-9809143caefe,,,G6,,PLACED,[ ],N,Mozartdreef,,,329299060.0,2024-03-01,Veenendaal,GM0345,Veenendaal,,https://wegkenmerken.ndw.nu/api/images/289fc415-e7c3-446a-890e-2da87d76b811,2016-12-21,2022-01-10,,,,5.5320547798141,52.035022044361,POINT (5.532055 52.035022)
000e29b0-3677-4df0-94d9-338d141e164e,,,G6,,PLACED,[ ],N,Koetsdrift,,,266298103.0,2024-03-01,Nieuwegein,GM0356,Nieuwegein,,https://wegkenmerken.ndw.nu/api/images/7e66e5a1-ac22-41d2-af73-fdc866fe2ac7,2016-02-17,2022-03-12,,,,5.0730064640116,52.031014058225,POINT (5.073006 52.031014)
0010f189-8aa4-49f1-8de2-3b19a68848e0,,,G6,,PLACED,[ ],N,Abeelstraat,,,249365008.0,2024-03-01,Ouder-Amstel,GM0437,Duivendrecht,,https://wegkenmerken.ndw.nu/api/images/207a1da1-6421-4ef8-930b-3fb621c07cff,2016-09-27,2022-11-01,,,,4.9418562879396,52.331298018912,POINT (4.941856 52.331298)
0011e087-b929-4542-ba0c-a29afdf85c9a,,,G6,,PLACED,[ ],O,Fietspad,,,,,Dordrecht,GM0505,Dordrecht,,https://wegkenmerken.ndw.nu/api/images/e408c7bb-b458-4af0-b43a-2715d976ee2f,2016-03-16,2022-05-09,,,,4.7255852148988,51.803760770172,POINT (4.725585 51.803761)
0011fa2a-2d0e-4380-a5ab-11d9d2234fad,4395_6561,,G6,,PLACED,[ ],ZZW,Fietspad,,,600592616.0,2024-09-01,Veenendaal,GM0345,Veenendaal,,,2024-09-06,2024-09-06,2024-09-06,,,5.535374607613242,52.02656042434024,POINT (5.535375 52.02656)
00197920-bfdb-4f2c-879a-741988e88ac2,,,G6,,PLACED,[ ],O,Hubertusveld,,,247190081.0,2024-03-01,Gilze en Rijen,GM0784,Gilze,,https://wegkenmerken.ndw.nu/api/images/75d839eb-2a52-4e46-a6a1-8d48c9e5975e,2017-01-25,2022-01-28,,,,4.9390907572386,51.546040760795,POINT (4.939091 51.546041)
001c2dc3-45a8-431e-8d67-d02425dcd8dc,TECH-GM0439-006052,,G6,,PLACED,[ ],OZO,Fietspad,,,600490597.0,2025-09-01,Purmerend,GM0439,Purmerend,,,2025-09-30,2025-09-30,2025-09-30,,,4.948408416629276,52.497957331223134,POINT (4.948408 52.497957)
001d9e2e-5c78-4912-b520-e168971dd459,,,G6,,PLACED,[ ],N,Pasteurlaan,,,177298012.0,2024-03-01,Pijnacker-Nootdorp,GM1926,Pijnacker,,https://wegkenmerken.ndw.nu/api/images/ab2102bb-c942-4263-ad96-0bb37e39ec84,2016-02-09,2022-05-25,,,,4.424149810288,52.025870505187,POINT (4.42415 52.025871)
001fcb64-7699-464e-8b64-53c7556ebc3e,,,G6,,PLACED,[ ],Z,Vosseweide,,,600773325.0,2024-03-01,Nieuwegein,GM0356,Nieuwegein,,https://wegkenmerken.ndw.nu/api/images/54004ebf-1b8a-4e0d-9657-1308b5718361,2016-02-19,2022-03-11,,,,5.0736288378415,52.041301674922,POINT (5.073629 52.041302)
0022036c-16f0-450c-97b9-9f82904eefdf,,,G6,,PLACED,[ ],Z,Schietraam,,,155287048.0,2024-03-01,Westland,GM1783,De Lier,,https://wegkenmerken.ndw.nu/api/images/6452ddba-edba-4b58-baa4-ac433b7580b8,2016-01-20,2022-02-22,,,,4.2595452516046,51.978608419852,POINT (4.259545 51.978608)
002ce70b-33a0-4e28-9379-94c829164203,,,G6,,PLACED,[ ],O,Klarenbeekstraat,,,205376062.0,2024-03-01,Haarlem,GM0392,Haarlem,,https://wegkenmerken.ndw.nu/api/images/64c677a4-ae4d-4197-b566-8b4d1bcd0d1e,2016-10-06,2022-10-03,,,,4.6224970206042,52.378013499612,POINT (4.622497 52.378013)
00362781-9d70-4c89-bc84-e789522580fd,,,G6,,PLACED,[ ],W,Kraanstraat,,,272313091.0,2024-03-01,Utrecht,GM0344,Utrecht,,https://wegkenmerken.ndw.nu/api/images/57d26470-35e5-48ef-adf0-724dc4613cf1,2016-03-22,2022-03-11,,,,5.1156821407529,52.097017776753,POINT (5.115682 52.097018)
003d36be-8b97-416a-85f1-e5ece39e7973,,,G6,,PLACED,[ ],O,Koriander,,,319197001.0,2024-03-01,Meierijstad,GM1948,Sint-Oedenrode,,https://wegkenmerken.ndw.nu/api/images/9191c920-2593-468d-a860-288818371439,2016-09-29,2022-05-12,,,,5.4536228733774,51.576388888,POINT (5.453623 51.576389)
00455cea-362f-44a3-9682-ddf4b0b6cc6f,,,G6,,PLACED,[ ],W,Schimmelweg,,,162303006.0,2024-03-01,'s-Gravenhage,GM0518,'s-Gravenhage,,https://wegkenmerken.ndw.nu/api/images/dedfc83d-6f3f-4d7e-b8f9-4797cb47bd87,2016-11-08,2022-08-29,,,,4.3138429664779,52.050659904631,POINT (4.313843 52.05066)
00483b91-934e-4e08-acf9-cb1542b32a7b,,,G6,,PLACED,[ ],W,Bloemstraat,,,202394057.0,2024-03-01,Velsen,GM0453,IJmuiden,,https://wegkenmerken.ndw.nu/api/images/d0009e13-b424-4021-8264-9d311fc407e9,2019-12-18,2022-12-06,,,,4.5974991427947,52.461193878203,POINT (4.597499 52.461194)
004dcbbf-ea0c-4c06-aab8-c58a7792ac2e,,,G6,,PLACED,[ ],N,Bedumerstraat,,,466566036.0,2024-03-01,Groningen,GM0014,Groningen,,https://wegkenmerken.ndw.nu/api/images/3a3aad67-7cf5-42f0-8275-adb239f022da,2016-10-18,2022-09-01,,,,6.5616179077801,53.231655434739,POINT (6.561618 53.231655)
0053afba-df3c-4f46-be23-504cc2f990e9,,,G6,,PLACED,[ ],O,Sportlaan,,,600759783.0,2024-03-01,Dijk en Waard,GM1980,Heerhugowaard,,https://wegkenmerken.ndw.nu/api/images/370d086f-89cc-4065-b514-6726e91c89b7,2016-07-12,2022-05-24,,,,4.8467023392425,52.668414023843,POINT (4.846702 52.668414)
005a35b5-7ab1-4312-bd12-21044c68e5e2,,,G6,,PLACED,[ ],W,Vicarislaan,,,238212010.0,2024-03-01,Oosterhout,GM0826,Oosterhout,,https://wegkenmerken.ndw.nu/api/images/3f0925c5-0ccb-4f2c-8a72-2526d4a955a5,2016-10-10,2022-09-19,,,,4.8726428055121,51.643492984026,POINT (4.872643 51.643493)
006d2bd4-14d6-4bde-acff-1030cdf3a514,,,G6,,PLACED,[ ],N,Johan Westerweelstraat,,,163272004.0,2024-03-01,Vlaardingen,GM0622,Vlaardingen,,https://wegkenmerken.ndw.nu/api/images/b76f40d2-7978-4b11-9c1d-fafbe469beed,2016-04-05,2022-07-14,,,,4.3203998053998,51.908365821375,POINT (4.3204 51.908366)
006feb93-bee2-450b-b783-f96ee6467bb4,,,G6,,PLACED,[ ],W,Oranjestraat,,,600812960.0,2024-03-01,Maashorst,GM1991,Uden,,https://wegkenmerken.ndw.nu/api/images/36087662-e1fd-4c88-a055-5e70b1fb79e4,2016-03-29,2022-02-28,,,,5.6151279348343,51.656382607141,POINT (5.615128 51.656383)
00724259-48b0-47d0-8f91-b0b4f6d47c46,,,G6,,PLACED,[ ],O,Van Koppenweg,,,150291012.0,2024-03-01,Westland,GM1783,Naaldwijk,,https://wegkenmerken.ndw.nu/api/images/6e634f6d-ce18-4ed9-a2bb-9f3e642389c3,2016-01-06,2022-01-25,,,,4.2233705543171,51.994724226209,POINT (4.223371 51.994724)
00742970-0f59-48e3-8cd6-577ae7511b45,,,G6,,PLACED,[ ],N,Poorterstraat,,,250300011.0,2024-03-01,Montfoort,GM0335,Montfoort,,https://wegkenmerken.ndw.nu/api/images/e1b503b6-2b00-4252-9020-9294585ce78a,2021-12-08,2022-11-10,,,,4.9499390925558,52.038418159727,POINT (4.949939 52.038418)
0075bb96-a75a-4d55-a079-6a31b84ded0a,TECH-GM0439-000009,,G6,,PLACED,[ ],O,Geersstraat,,,255403147.0,2025-09-01,Purmerend,GM0439,Purmerend,,https://wegkenmerken.ndw.nu/api/images/b5c38401-9adb-4bb7-9595-4df4e71d9a22,2016-02-09,2025-10-03,,,,4.98756135383504,52.503386987582154,POINT (4.987561 52.503387)
007a32ec-c06b-4e80-8648-bf03c3494170,,,G6,,PLACED,[ ],N,Gaardedreef,,,189305054.0,2024-03-01,Zoetermeer,GM0637,Zoetermeer,,https://wegkenmerken.ndw.nu/api/images/81d95e38-f62b-4b52-89aa-b554a21bb236,2016-07-11,2022-08-02,,,,4.5113602615867,52.059722416582,POINT (4.51136 52.059722)
007aeefb-73fd-4772-9fc4-6827a4cfc7fa,,,G6,,PLACED,[ ],Z,Jasmijn,,,600718226.0,2024-03-01,Rijswijk,GM0603,Rijswijk,,https://wegkenmerken.ndw.nu/api/images/90bcf4e7-b036-4b9e-b607-9ae103b09b5b,2021-08-25,2022-08-30,,,,4.3260450158755,52.017416800605,POINT (4.326045 52.017417)
0089e8f5-2f8d-4b07-aa8e-11958dde1bb8,,,G6,,PLACED,[ ],O,Houtelaar,,,601085949.0,2024-03-01,Gilze en Rijen,GM0784,Rijen,,https://wegkenmerken.ndw.nu/api/images/aed1ccd6-c9a4-458d-8a2a-98a23f15d671,2017-01-17,2022-02-01,,,,4.9209914341737,51.593996477834,POINT (4.920991 51.593996)
008a78c6-a56b-4aff-949a-de7916ff2c7a,,,G6,,PLACED,[ ],Z,de Gelder,,,400398130.0,2024-03-01,Hattem,GM0244,Hattem,,https://wegkenmerken.ndw.nu/api/images/badf9493-ae0d-495a-8d80-2b4bee267326,2016-11-24,2022-12-12,,,,6.0527226373892,52.479161972866,POINT (6.052723 52.479162)
008b9568-4b1f-40d7-8989-75d2b989b1a2,,,G6,,PLACED,[ ],O,Prins Bernhardstraat,,,308346055.0,2024-03-01,Bunschoten,GM0313,Bunschoten-Spakenburg,,https://wegkenmerken.ndw.nu/api/images/dc1b042c-977e-4cba-8e99-ac5f226e1055,2016-08-16,2022-09-29,,,,5.3788757953096,52.247957268209,POINT (5.378876 52.247957)
00923f88-933f-4883-8a45-347231ecce5a,,,G6,,PLACED,[ ],N,Breedspoor,,,199282059.0,2024-03-01,Capelle aan den IJssel,GM0502,Capelle aan den IJssel,,https://wegkenmerken.ndw.nu/api/images/173751a8-b853-4ae7-9633-fea01d6d1207,2016-01-26,2022-02-09,,,,4.5854288193683,51.956531909756,POINT (4.585429 51.956532)
009408b7-7533-4b2b-8cd4-204483259451,,,G6,,PLACED,[ ],W,Carry van Bruggenlaan,,,256254084.0,2024-03-01,Gorinchem,GM0512,Gorinchem,,https://wegkenmerken.ndw.nu/api/images/87e96f1c-62b9-4eb5-9085-c80658fd1b58,2016-05-26,2022-07-06,,,,4.9966606758894,51.832409168206,POINT (4.996661 51.832409)
00973cd4-9340-4122-abed-13730298b549,,,G6,,PLACED,[ ],O,Glazenmakerhof,,,176306086.0,2024-03-01,'s-Gravenhage,GM0518,'s-Gravenhage,,https://wegkenmerken.ndw.nu/api/images/02c3b07c-c0ed-43a9-9b34-bad7a15b0e9f,2016-09-14,2022-10-20,,,,4.4144515882232,52.06127386003,POINT (4.414452 52.061274)
009ce453-127d-4f69-b1a6-dcf61315afd6,,,G6,,PLACED,[ ],W,Basilicumhof,,,187341079.0,2024-03-01,Teylingen,GM1525,Voorhout,,https://wegkenmerken.ndw.nu/api/images/3f73e0b6-27a0-4e68-b5de-61a2295fa54a,2016-02-25,2022-06-22,,,,4.4915412844185,52.222565996163,POINT (4.491541 52.222566)
009cf7ed-f489-48bf-9423-4af1331d7bd0,,,G6,,PLACED,[ ],W,Zijperlaan,,,234482003.0,2024-03-01,Hollands Kroon,GM1911,Anna Paulowna,,https://wegkenmerken.ndw.nu/api/images/71ff6913-9be2-4b79-8114-ed7f47d0a8eb,2016-05-30,2022-07-29,,,,4.8243306985749,52.857484799937,POINT (4.824331 52.857485)
00a347c2-0b19-4c20-982a-672615e17db5,,,G6,,PLACED,[ ],O,De Stichtse Rand,,,333283033.0,2024-03-01,Rhenen,GM0340,Rhenen,,https://wegkenmerken.ndw.nu/api/images/8e00fcb7-4509-4773-9bb9-d7a87b99bde6,2016-08-19,2022-10-04,,,,5.5580635671365,51.962259175419,POINT (5.558064 51.962259)
00a57b5e-f729-4c3e-82ab-3ba110d3ebb7,,,G6,,PLACED,[ ],O,Woudstraat,,,216293007.0,2024-03-01,Gouda,GM0513,Gouda,,https://wegkenmerken.ndw.nu/api/images/231a6ce7-1c06-462f-b59b-b30132a03644,2020-05-28,2022-06-14,,,,4.7047523446897,52.007475340923,POINT (4.704752 52.007475)
00a6c9ec-7dea-437a-b36d-9f051626ad07,,,G6,,PLACED,[ ],N,Kent,,,,,Utrecht,GM0344,Utrecht,,https://wegkenmerken.ndw.nu/api/images/beeed46b-a094-454f-b5e9-87d8daf20016,2021-04-08,2022-03-14,,,,5.1387490297159,52.061404880246,POINT (5.138749 52.061405)
00a9afa8-594d-45cf-a2ef-93b6be9ba62f,,,G6,,PLACED,[ ],O,Sneeuwbalstraat,,,155309110.0,2024-03-01,'s-Gravenhage,GM0518,'s-Gravenhage,,https://wegkenmerken.ndw.nu/api/images/cf4a4339-5f5c-42b3-84c2-87a5a718afb5,2016-09-13,2022-11-08,,,,4.263062774596,52.07727109078,POINT (4.263063 52.077271)
00af4526-f257-4e74-a7f0-77b838b91c24,,,G6,,PLACED,[ ],N,Gebbenlaan,,,166290143.0,2024-03-01,Delft,GM0503,Delft,,https://wegkenmerken.ndw.nu/api/images/6dc50e90-4c71-4dc2-a4b8-b9239833e09e,2018-05-29,2022-06-28,,,,4.3413267484509,51.98918703638,POINT (4.341327 51.989187)
00af7184-6028-46a3-a680-e4e1724171dc,,,G6,,PLACED,[ ],O,Hunsingoweg,,,480607007.0,2024-03-01,Het Hogeland,GM1966,Uithuizen,,https://wegkenmerken.ndw.nu/api/images/d6c5d8db-d2d7-45cf-a9a5-2775f721b0d4,2016-09-12,2022-06-20,,,,6.6686888623668,53.410962780704,POINT (6.668689 53.410963)
00c21111-9f36-4225-ae07-822dcbde136a,,,G6,,PLACED,[ ],W,Cort van der Lindenstraat,,,149291018.0,2024-03-01,Westland,GM1783,Naaldwijk,,https://wegkenmerken.ndw.nu/api/images/52755e73-bc07-48b0-9935-50376cd3dd06,2016-01-06,2022-01-25,,,,4.2156169130591,51.994906405685,POINT (4.215617 51.994906)
00c597a9-54f2-4513-ab8d-2ff3ceca3ed2,,,G6,,PLACED,[ ],W,Heilige Geeststraat,,,322166088.0,2024-03-01,Eindhoven,GM0772,Eindhoven,,https://wegkenmerken.ndw.nu/api/images/ee318024-f5f3-4c3c-a6f8-ab493cbdd689,2016-08-12,2022-07-11,,,,5.4748444811264,51.436717444381,POINT (5.474844 51.436717)
00c6ff8d-c799-46b7-a1bc-e09af0372e91,,,G6,,PLACED,[ ],Z,Persijnlaan,,,165295047.0,2024-03-01,Delft,GM0503,Delft,,https://wegkenmerken.ndw.nu/api/images/d7a1584c-db78-4d71-9806-dc0a6ac3daf7,2016-03-11,2022-07-05,,,,4.3368155458608,52.014043642006,POINT (4.336816 52.014044)
00ca5a03-daf4-4a03-98ca-a9c964873f13,,,G6,,PLACED,[ ],O,Leijsenhoek,,,237212028.0,2024-03-01,Oosterhout,GM0826,Oosterhout,,https://wegkenmerken.ndw.nu/api/images/bd160d08-bef5-4789-940b-f1ae1b8745af,2020-09-29,2022-09-19,,,,4.8645501763384,51.645038834806,POINT (4.86455 51.645039)
00cd199c-a6c5-48df-a8b3-dca881d6f77e,,,G6,,PLACED,[ ],O,Blankenburgerstraat,,,600384508.0,2024-03-01,Haaksbergen,GM0158,Haaksbergen,,https://wegkenmerken.ndw.nu/api/images/73e8819d-e587-4f9e-9bf0-87bb3ee9c5db,2016-08-31,2022-07-03,,,,6.7420699938954,52.15611352369,POINT (6.74207 52.156114)
00d16def-ef93-4bfb-85d5-96abffedd2ef,,,G6,,PLACED,[ ],W,Trompet,,,152287004.0,2024-03-01,Westland,GM1783,De Lier,,https://wegkenmerken.ndw.nu/api/images/48e548fd-edb2-4562-a4f9-f167aa13c1b0,2016-01-21,2022-02-15,,,,4.2391233159616,51.974434477489,POINT (4.239123 51.974434)
00d2ed72-87f7-4907-815d-de37028e27ee,,,G6,,PLACED,[ ],O,Goeman Borgesiusstraat,,,392367044.0,2024-03-01,Epe,GM0232,Epe,,https://wegkenmerken.ndw.nu/api/images/5e973cb4-3d2d-494a-95e3-e6969d53badf,2022-06-08,2022-06-08,,,,5.9918537858808,52.339077644073,POINT (5.991854 52.339078)
00d4f1b7-2c81-4724-a9ee-242adfcf77f6,,,G6,,PLACED,[ ],O,De la Reystraat,,,224505104.0,2024-03-01,Den Helder,GM0400,Den Helder,,https://wegkenmerken.ndw.nu/api/images/2f07007a-f916-4670-a5b2-5ed26b64d207,2016-06-09,2022-03-29,,,,4.7555203610013,52.958948214496,POINT (4.75552 52.958948)
00d53b78-b36c-4541-a187-067f5fe59dbe,,,G6,,PLACED,[ ],O,Paulinapolder,,,190257091.0,2024-03-01,Barendrecht,GM0489,Barendrecht,,https://wegkenmerken.ndw.nu/api/images/8328c58d-5c0c-42ee-8c47-48c1dc1ffc42,2020-11-18,2022-11-15,,,,4.5223791632269,51.846263174353,POINT (4.522379 51.846263)
00d5a11c-f906-4981-83fa-c7fe2ab79ce8,,,G6,,PLACED,[ ],W,Branco,,,601221689.0,2024-06-01,Dordrecht,GM0505,Dordrecht,,https://wegkenmerken.ndw.nu/api/images/b7f5eec1-504f-49ec-ac61-c50863345415,2016-03-14,2022-04-20,,,,4.7067688643826,51.807698317842,POINT (4.706769 51.807698)
00d8878e-2727-4289-bb37-bad487726b75,,,G6,,PLACED,[ ],W,Hamsterberg,,,178184022.0,2024-03-01,Roosendaal,GM1674,Roosendaal,,https://wegkenmerken.ndw.nu/api/images/082310f8-c911-4bff-b365-195366084f40,2016-01-28,2022-03-15,,,,4.4372665434605,51.516930330273,POINT (4.437267 51.51693)
00dcd925-2bf2-4c53-ad44-38e59f34cb63,,2025-04-10,G6,,PLACED,[ ],ZW,Houtwijkerveld,,,213361014.0,2025-04-01,Haarlemmermeer,GM0394,Hoofddorp,,,2025-04-10,2025-04-10,2025-04-10,,,4.678080640733242,52.314329094705215,POINT (4.678081 52.314329)
00eb0a7b-9974-4a29-be2a-9ae88c01924c,,,G6,,PLACED,[ ],O,Moleneind,,,601223813.0,2024-06-01,Gouda,GM0513,Gouda,,https://wegkenmerken.ndw.nu/api/images/956d59cc-cdcb-47d2-91f1-86746f23e586,2015-12-28,2022-06-14,,,,4.7418171128076,52.01145381586,POINT (4.741817 52.011454)
00ebfc8c-78c5-4ed6-9574-9af4a17d1760,,,G6,,PLACED,[ ],W,Carmenlaan,,,268300011.0,2024-03-01,Nieuwegein,GM0356,Nieuwegein,,https://wegkenmerken.ndw.nu/api/images/dd2f4d89-4a98-4a91-a113-9540f93db564,2016-02-19,2022-03-10,,,,5.0867926477964,52.041650167002,POINT (5.086793 52.04165)
00f07383-3295-46c9-bc0f-010d9f50616d,,,G6,,PLACED,[ ],O,Molenhof,,,600719911.0,2024-03-01,Rijswijk,GM0603,Rijswijk,,https://wegkenmerken.ndw.nu/api/images/9de51713-14f7-4ee4-9760-f70f2d6794d3,2016-08-01,2022-08-30,,,,4.3514200643173,52.026991110461,POINT (4.35142 52.026991)
00f2b9e6-ec5a-4232-998d-c374c05256f8,,,G6,,PLACED,[ ],W,Willem Alexandersingel,,,212414076.0,2024-03-01,Castricum,GM0383,Castricum,,https://wegkenmerken.ndw.nu/api/images/c555ee79-ba02-4df7-8a34-e4ae9ad18562,2016-05-24,2022-06-15,,,,4.6695417380387,52.552866477656,POINT (4.669542 52.552866)
00f795a9-231a-4374-9371-8da59759c997,,,G6,,PLACED,[ ],W,Vlasweel,,,600449831.0,2024-03-01,Drimmelen,GM1719,Terheijden,,https://wegkenmerken.ndw.nu/api/images/e9fdba35-d015-4512-9729-9645f2a7a62a,2016-07-26,2022-08-10,,,,4.7571361918904,51.645615406997,POINT (4.757136 51.645615)
00fc28fe-b749-4121-996a-dd8fcc4e3a5e,,,G6,,PLACED,[ ],N,Charlotte Köhlerstraat,,,506357054.0,2024-03-01,Hengelo (O),GM0164,Hengelo,,https://wegkenmerken.ndw.nu/api/images/03403d62-b3cb-4411-a68a-b88b454b8396,2016-06-21,2022-04-11,,,,6.8302868386,52.289118132509,POINT (6.830287 52.289118)
0100fe4e-a909-4557-b882-265a30025580,,,G6,,PLACED,[ ],N,Waalstraat,,,400398024.0,2024-03-01,Hattem,GM0244,Hattem,,https://wegkenmerken.ndw.nu/api/images/7cc35fce-c812-4e72-9134-31b28b90b98e,2016-11-24,2022-12-12,,,,6.0503546824241,52.478916229476,POINT (6.050355 52.478916)
010d6538-1e09-4fd2-8973-a3217075f5c7,,,G6,,PLACED,[ ],Z,Asserlaan,,,286224005.0,2024-03-01,Heusden,GM0797,Vlijmen,,https://wegkenmerken.ndw.nu/api/images/9e0c36a7-e5ea-4d9d-8a99-06adeffc6834,2016-11-28,2022-11-29,,,,5.2161503850465,51.699419450406,POINT (5.21615 51.699419)
0115bc6f-3242-4dc5-81aa-31cd69e35077,,,G6,,PLACED,[ ],Z,Batauweg,,,,,Nieuwegein,GM0356,Nieuwegein,,https://wegkenmerken.ndw.nu/api/images/afdb3b0b-2865-4b1a-88f3-e422ec882167,2016-02-17,2022-03-12,,,,5.0702589521079,52.03122498397,POINT (5.070259 52.031225)
011823fe-6a3e-4b3a-a408-1a411307b445,,,G6,,PLACED,[ ],Z,Weigeliaplein,,,156308012.0,2024-03-01,'s-Gravenhage,GM0518,'s-Gravenhage,,https://wegkenmerken.ndw.nu/api/images/5606d56d-58cb-4fc3-a0e8-18d37690e3bd,2016-09-12,2022-11-08,,,,4.2662344170433,52.070996955862,POINT (4.266234 52.070997)
012055b7-9891-4486-92e8-8879765ebbef,,,G6,,PLACED,[ ],N,Bergmolen,,,211319020.0,2024-03-01,Alphen aan den Rijn,GM0484,Alphen aan den Rijn,,https://wegkenmerken.ndw.nu/api/images/376e1ae2-23d5-4e40-8578-81b5130832eb,2016-06-09,2022-07-15,,,,4.6686311566555,52.125560983304,POINT (4.668631 52.125561)
01240fdc-7f7d-4d22-b831-2e16314752fe,,,G6,,PLACED,[ ],Z,Van Bentheimhof,,,333283024.0,2024-03-01,Rhenen,GM0340,Rhenen,,https://wegkenmerken.ndw.nu/api/images/ee225152-1bc0-44f9-9b7d-3f7f1b1e92c4,2016-08-19,2022-10-04,,,,5.5612573411634,51.962630428602,POINT (5.561257 51.96263)
01247e5b-40ac-40e6-9242-cfb763f92673,,,G6,,PLACED,[ ],Z,Verweijhove,,,601068840.0,2024-03-01,Zoetermeer,GM0637,Zoetermeer,,https://wegkenmerken.ndw.nu/api/images/c750bebf-5741-46b6-9f96-f581c7d9b74d,2016-07-14,2022-07-29,,,,4.4815224766632,52.06687823064,POINT (4.481522 52.066878)
012b0b91-4493-4b6a-b34a-cfe757279c50,,,G6,,PLACED,[ ],O,Nico Dostalstraat,,,261315043.0,2024-03-01,Utrecht,GM0344,Utrecht,,https://wegkenmerken.ndw.nu/api/images/5cd2cfae-c180-42af-8095-09dae3344eac,2016-04-25,2022-03-29,,,,5.0372163648797,52.109015607446,POINT (5.037216 52.109016)
012f0d65-9df8-43a0-88fd-93bea31c88f1,,,G6,,PLACED,[ ],N,Rietkreek,,,407410118.0,2024-03-01,Zwolle,GM0193,Zwolle,,https://wegkenmerken.ndw.nu/api/images/1d6acda8-1f9d-4a4e-bc1c-35c86bc3493e,2016-04-11,2022-03-01,,,,6.1044314575222,52.533390295281,POINT (6.104431 52.53339)
013173ca-be2d-46a0-b28c-84e765a74a7a,,,G6,,PLACED,[ ],W,Citroenvlinderstraat,,,,,Aalsmeer,GM0358,Aalsmeer,,https://wegkenmerken.ndw.nu/api/images/39f24181-5b0a-43c0-8a6c-6fdfc528e832,2016-09-27,2022-11-16,,,,4.8003742966474,52.277995546086,POINT (4.800374 52.277996)
01379cf6-9fd9-49ce-a997-96a3938cccea,,,G6,,PLACED,[ ],Z,Maria Koijenhof,,,218204027.0,2024-03-01,Breda,GM0758,Breda,,https://wegkenmerken.ndw.nu/api/images/48a9b0c4-e98c-4c64-8669-911f5a8108c9,2016-09-21,2022-08-25,,,,4.7258550721765,51.608428272976,POINT (4.725855 51.608428)
0142cfc0-a9f9-47a3-99c2-7e6ae697e0c0,,,G6,,PLACED,[ ],O,Jachthoornstraat,,,368219016.0,2024-03-01,Land van Cuijk,GM1982,Sint Hubert,,https://wegkenmerken.ndw.nu/api/images/460e6eb1-9a75-435c-b557-72e6504a36b8,2016-11-24,2022-11-14,,,,5.807484582711,51.677853572594,POINT (5.807485 51.677854)
01458ef5-7e7d-4caa-8b96-e11e40d5e6ee,,2025-02-07,G6,,PLACED,[ ],Z,Kostersgaarden,,,601186867.0,2025-02-01,Losser,GM0168,Losser,,,2023-03-20,2025-02-07,,,,7.008761679176928,52.26142137541544,POINT (7.008762 52.261421)
01470049-8455-4bfd-bf13-a491db3af0ab,,,G6,,PLACED,[ ],O,Jan de Withof,,,600964919.0,2024-03-01,Helmond,GM0794,Helmond,,https://wegkenmerken.ndw.nu/api/images/722782c4-eb2c-42b9-906e-454badf80c2f,2016-01-18,2022-01-06,,,,5.7118754012715,51.472300826316,POINT (5.711875 51.472301)
01558059-6b79-4a8a-aa50-e057196d534a,,,G6,,PLACED,[ ],N,Boddaertstraat,,,164305078.0,2024-03-01,'s-Gravenhage,GM0518,'s-Gravenhage,,https://wegkenmerken.ndw.nu/api/images/ac3a1e4b-06aa-4acb-bb59-41bfbb8fbe3f,2016-09-27,2022-10-07,,,,4.3271497899916,52.059697140615,POINT (4.32715 52.059697)
015829d3-8e62-4ae4-a006-1c57c9690494,,,G6,,PLACED,[ ],W,Beethovenlaan,,,601148349.0,2024-03-01,Renkum,GM0274,Doorwerth,,https://wegkenmerken.ndw.nu/api/images/8099624d-2d55-4d84-833b-b58afd4fa11c,2016-10-13,2022-04-06,,,,5.7939213198188,51.980810767475,POINT (5.793921 51.980811)
0158f5ae-713e-4b98-8f85-d808a934f2ec,,,G6,,PLACED,[ ],N,Overtoom,,,209300076.0,2024-03-01,Waddinxveen,GM0627,Waddinxveen,,https://wegkenmerken.ndw.nu/api/images/78c00643-e569-4f84-bb04-ea47d4e8471d,2016-05-12,2022-08-04,,,,4.6544666471879,52.039825198988,POINT (4.654467 52.039825)
015aba45-55e2-42f8-8928-8389a7d0e6c3,TECH-GM0439-000032,,G6,,PLACED,[ ],W,Papaverstraat,,,256404028.0,2025-09-01,Purmerend,GM0439,Purmerend,,https://wegkenmerken.ndw.nu/api/images/9b0d76f0-5d53-4128-a482-648704a4f000,2016-02-11,2025-10-03,,,,4.991609540276249,52.50877936797445,POINT (4.99161 52.508779)
015d08b1-2673-4cde-ba22-49d0656b467c,,,G6,,PLACED,[ ],N,Landmeerse Loop,,,261190019.0,2024-03-01,Tilburg,GM0855,Tilburg,,https://wegkenmerken.ndw.nu/api/images/1af9cd7b-a175-4566-9a7b-a8cc496a94ea,2016-06-28,2022-06-15,,,,5.0389410029492,51.545994389804,POINT (5.038941 51.545994)
0161b3e2-f69d-4ea5-a999-7fc756dcc32f,,,G6,,PLACED,[ ],N,Ottergraaf,,,261189010.0,2024-03-01,Tilburg,GM0855,Tilburg,,https://wegkenmerken.ndw.nu/api/images/a5175760-4268-4367-b49f-67f42f8ddb0c,2016-06-28,2022-06-15,,,,5.0405027803906,51.542798811642,POINT (5.040503 51.542799)
01684a61-7af5-4e76-92dd-53d8f1642e14,,,G6,,PLACED,[ ],N,Perzikengaarde,,,172278004.0,2024-03-01,Schiedam,GM0606,Schiedam,,https://wegkenmerken.ndw.nu/api/images/a5bb3eae-219e-4d75-b0bb-3e0f8ac91aaf,2016-06-23,2022-08-12,,,,4.3838994968919,51.939625565752,POINT (4.383899 51.939626)
016b245a-db93-47de-8350-0b6496607d02,,,G6,,PLACED,[ ],W,Leusderschans,,,269295027.0,2024-03-01,Nieuwegein,GM0356,Nieuwegein,,https://wegkenmerken.ndw.nu/api/images/5c184a9d-e43e-4b0a-b164-b6bc04fde6c1,2016-02-23,2022-03-09,,,,5.0942280482576,52.017279106926,POINT (5.094228 52.017279)
016e1227-ea16-40de-ae72-56183182dd33,,,G6,,PLACED,[ ],O,Larixstraat,,,455375003.0,2024-03-01,Hellendoorn,GM0163,Nijverdal,,https://wegkenmerken.ndw.nu/api/images/f7c32b3d-3014-454f-a84b-11a5b53686d8,2016-04-12,2022-03-27,,,,6.4552403691623,52.371027786727,POINT (6.45524 52.371028)
0179306a-5d60-41b4-a6bd-448bfe4eabfb,,,G6,,PLACED,[ ],Z,Dr. Ir. Ross van Lennepstraat,,,390041002.0,2024-03-01,Heerlen,GM0917,Heerlen,,https://wegkenmerken.ndw.nu/api/images/77f745f6-fbaf-4775-b90d-9436b2007fae,2016-05-27,2022-03-02,,,,5.9611083629753,50.874173980447,POINT (5.961108 50.874174)
017d7c8e-6316-4fb3-9382-dc3e99c3ed5e,,,G6,,PLACED,[ ],W,Goltziusstraat,,,352038069.0,2024-03-01,Maastricht,GM0935,Maastricht,,https://wegkenmerken.ndw.nu/api/images/27e6f4ee-7372-4d31-9579-d3bd47362cb3,2016-09-21,2022-09-01,,,,5.6904245993232,50.860957441769,POINT (5.690425 50.860957)
018baf1c-9525-4a32-9582-96dd19785e15,,,G6,,PLACED,[ ],O,Vinkenstraat,,,600374554.0,2024-03-01,Heerlen,GM0917,Heerlen,,https://wegkenmerken.ndw.nu/api/images/9b70c47a-fc43-46ce-afc3-65c0e5b68e85,2016-05-24,2022-02-27,,,,5.9769600757653,50.911819293628,POINT (5.97696 50.911819)
01921bff-5840-4428-b5e3-8cbab6c17ff0,,,G6,,PLACED,[ ],W,Pauwenhof,,,103183033.0,2024-03-01,Goes,GM0664,Goes,,https://wegkenmerken.ndw.nu/api/images/ae0813d8-ac17-4392-85e5-02109a6dedc4,2016-12-12,2022-01-24,,,,3.8970945445017,51.50731889727,POINT (3.897095 51.507319)
0192c447-6c59-4a54-a191-7952e7af9464,,,G6,,PLACED,[ ],Z,Ripperdamarke,,,406399007.0,2024-03-01,Zwolle,GM0193,Zwolle,,https://wegkenmerken.ndw.nu/api/images/c2eecbbc-36af-4d9a-ac7c-a3e9c123a83d,2016-04-12,2022-02-24,,,,6.0971819464808,52.485322038684,POINT (6.097182 52.485322)
0196cf01-02f9-455b-93e7-b226c0c7ace1,,,G6,,PLACED,[ ],W,Eenigenburg,,,212402081.0,2024-03-01,Heemskerk,GM0396,Heemskerk,,https://wegkenmerken.ndw.nu/api/images/2e0f0138-7a0e-4230-864e-4181ee0b6f02,2017-01-16,2022-02-11,,,,4.6708973155658,52.498049204949,POINT (4.670897 52.498049)
01aae0e6-cf72-45da-b0e9-2aba5552e540,,,G6,,PLACED,[ ],O,Tubantiastraat,,,513343040.0,2024-03-01,Enschede,GM0153,Enschede,,https://wegkenmerken.ndw.nu/api/images/8ef7eaf6-4f14-4be4-ab28-c4e4d05a30df,2016-09-16,2022-10-28,,,,6.8785561279859,52.223945059881,POINT (6.878556 52.223945)
01adc42c-0d6f-425a-b8d4-dedbd5d77d58,,,G6,,PLACED,[ ],W,Eikehof,,,402051045.0,2024-03-01,Landgraaf,GM0882,Landgraaf,,https://wegkenmerken.ndw.nu/api/images/0e9ae140-2a29-406c-9f38-38a42aef7678,2016-09-15,2022-11-10,,,,6.0446580971396,50.919399125164,POINT (6.044658 50.919399)
01af8e5f-8a21-438c-833f-eb6405a6ae2e,,,G6,,PLACED,[ ],W,Holtmate,,,409399051.0,2024-03-01,Zwolle,GM0193,Zwolle,,https://wegkenmerken.ndw.nu/api/images/ffa4e8a7-2fa2-435c-93e2-72fa5fe460eb,2016-04-13,2022-02-24,,,,6.1225029379347,52.483210581505,POINT (6.122503 52.483211)
01b0dab6-c47c-436a-a04c-dc1d9691f613,,,G6,,PLACED,[ ],Z,Wantij,,,180342033.0,2024-03-01,Noordwijk,GM0575,Noordwijk,,https://wegkenmerken.ndw.nu/api/images/947d0041-40df-453f-998f-eb8b068c379a,2016-07-12,2022-06-13,,,,4.4383326832769,52.227482324092,POINT (4.438333 52.227482)
01c65281-2421-4467-97c9-ff62ad8c8e11,,,G6,,PLACED,[ ],N,Boskamp,,,206255042.0,2024-03-01,Hendrik-Ido-Ambacht,GM0531,Hendrik-Ido-Ambacht,,https://wegkenmerken.ndw.nu/api/images/0de6e067-6d36-402d-b558-eace1aadb200,2016-05-24,2022-05-10,,,,4.6353534069864,51.835261965595,POINT (4.635353 51.835262)
01c65a44-f7f7-4094-8a4f-34b8c0f47347,,,G6,,PLACED,[ ],O,Nieuwe Maasstraat,,,600426186.0,2024-03-01,Schiedam,GM0606,Schiedam,,https://wegkenmerken.ndw.nu/api/images/53110846-03c4-48ff-8617-fe445d5bb2f1,2018-08-03,2022-08-16,,,,4.4007866519961,51.905528016822,POINT (4.400787 51.905528)
01c84163-9c09-4168-a5fc-6a0ae4b12e81,,,G6,,PLACED,[ ],N,J M van der Meystraat,,,223399060.0,2024-03-01,Zaanstad,GM0479,Assendelft,,https://wegkenmerken.ndw.nu/api/images/e70d04c5-cd18-46e5-9a8a-c59734d1c25d,2016-08-08,2022-09-10,,,,4.7496755332593,52.485824846712,POINT (4.749676 52.485825)
01c94c61-0dab-4309-91ee-ddc8327f1b02,,,G6,,PLACED,[ ],Z,Valkhofpark,,,223401073.0,2024-03-01,Zaanstad,GM0479,Assendelft,,https://wegkenmerken.ndw.nu/api/images/2140bbb4-1408-4c70-b361-006066d16947,2016-08-08,2022-09-10,,,,4.7478755236654,52.491266659646,POINT (4.747876 52.491267)
01d0097c-dc06-4cb5-892b-e0ab4939c024,D58B6549-AF28-4DAC-A56C-81B6B6E9B084,,G6,,PLACED,[ ],O,Ooststraat,,,175253171.0,2025-08-01,Hoeksche Waard,GM1963,Oud-Beijerland,,https://wegkenmerken.ndw.nu/api/images/5e13c1f2-27ac-4d29-a3ea-b391185ced70,2016-11-10,2025-08-21,,,,4.412334727306164,51.82648171163175,POINT (4.412335 51.826482)
01d4a48e-02fc-48ba-9464-d7259bfd9fc5,,,G6,,PLACED,[ ],Z,Lingestraat,,,214251050.0,2024-03-01,Dordrecht,GM0505,Dordrecht,,https://wegkenmerken.ndw.nu/api/images/ddaab89f-3c7a-4eec-b2cc-5678d4ddef25,2016-03-02,2022-04-19,,,,4.6945593367194,51.817637089418,POINT (4.694559 51.817637)
01d93432-9ce2-4061-8990-1c9088b80c3d,,,G6,,PLACED,[ ],Z,van der Muelenstraat,,,296303030.0,2024-03-01,Utrechtse Heuvelrug,GM1581,Driebergen-Rijsenburg,,https://wegkenmerken.ndw.nu/api/images/dc6a86db-fefa-4b06-b33d-2a498e06e695,2016-04-04,2022-03-21,,,,5.2918876556642,52.052280822781,POINT (5.291888 52.052281)
01e69abf-3a96-4805-82e9-2551f37add4d,,,G6,,PLACED,[ ],W,Chabothof,,,325339003.0,2024-03-01,Nijkerk,GM0267,Nijkerk,,https://wegkenmerken.ndw.nu/api/images/dbdc35cb-b52b-41b8-b8ca-1c5dd5210fe5,2016-09-16,2022-10-21,,,,5.4978902458981,52.214763238807,POINT (5.49789 52.214763)
01e6ebc9-41fd-4e6e-b960-d27190c8054f,,,G6,,PLACED,[ ],Z,François Valentijnstraat,,,600718436.0,2024-03-01,'s-Gravenhage,GM0518,'s-Gravenhage,,https://wegkenmerken.ndw.nu/api/images/bca7d966-3942-436d-ba52-43e3978c350f,2016-09-19,2022-10-28,,,,4.332848441764,52.079482980251,POINT (4.332848 52.079483)
01f1f898-e189-4d05-a40a-39311f7dcc13,,,G6,,PLACED,[ ],Z,Dr. Schaepmanstraat,,,270302010.0,2024-03-01,Nieuwegein,GM0356,Nieuwegein,,https://wegkenmerken.ndw.nu/api/images/9467eb36-559c-4190-bcb1-c7d4af5b6544,2016-02-15,2022-03-11,,,,5.1020134608162,52.047649987417,POINT (5.102013 52.04765)
01f76860-a000-4247-bac6-8859038e837c,,,G6,,PLACED,[ ],O,Meerkoet,,,153288005.0,2024-03-01,Westland,GM1783,De Lier,,https://wegkenmerken.ndw.nu/api/images/3debd355-435f-4834-89e9-c25479ec8dc3,2016-01-20,2022-02-22,,,,4.2523274184473,51.980203285114,POINT (4.252327 51.980203)
01f978cd-6c11-48fb-9962-4872034d595a,,,G6,,PLACED,[ ],O,van Goorstraat,,,225198086.0,2024-03-01,Breda,GM0758,Breda,,https://wegkenmerken.ndw.nu/api/images/c02b2595-cf80-4b81-b3f1-3d812bc5ba41,2016-09-19,2022-08-01,,,,4.77975774701,51.582708776207,POINT (4.779758 51.582709)
0200a9b2-16b3-4434-baed-1e66952b74d8,,,G6,,PLACED,[ ],W,Van Renesseborch,,,601092633.0,2024-03-01,Hendrik-Ido-Ambacht,GM0531,Hendrik-Ido-Ambacht,,https://wegkenmerken.ndw.nu/api/images/29287753-a957-46e8-ad7f-e9f375c32de1,2016-05-19,2022-05-09,,,,4.6449694189311,51.841301243238,POINT (4.644969 51.841301)
02010ec7-83d5-4bde-977f-09601f8dca2c,,,G6,,PLACED,[ ],W,Uitterlier,,,600970218.0,2024-03-01,Westland,GM1783,De Lier,,https://wegkenmerken.ndw.nu/api/images/4665eef2-48b8-46c9-80c0-e0be68ed54e9,2016-01-20,2022-02-22,,,,4.2412826314893,51.978952212975,POINT (4.241283 51.978952)
0203654f-1146-41a5-a986-a4f395c9734b,,,G6,,PLACED,[ ],N,Westhavenkade,,,600190182.0,2024-03-01,Vlaardingen,GM0622,Vlaardingen,,https://wegkenmerken.ndw.nu/api/images/ade43d74-11ff-4c7b-b133-24fbfc82b769,2016-04-04,2022-07-14,,,,4.3437134422714,51.909120798281,POINT (4.343713 51.909121)
02120776-5520-43f6-bdca-7ffd6bf970e7,,,G6,,PLACED,[ ],O,Bernhardstraat,,,265222050.0,2024-03-01,Waalwijk,GM0867,Waalwijk,,https://wegkenmerken.ndw.nu/api/images/0e4b449d-1f3e-4f2b-8801-2fae13b221fd,2016-04-20,2022-06-13,,,,5.0690221047429,51.687953450978,POINT (5.069022 51.687953)
021516e3-4896-43c3-a251-27dbb857d408,,,G6,,PLACED,[ ],N,Veldmoeren,,,220205011.0,2024-03-01,Breda,GM0758,Breda,,https://wegkenmerken.ndw.nu/api/images/05587d60-b439-4820-a3ba-6cbfca737f78,2016-09-20,2022-08-25,,,,4.7444641427604,51.611652077969,POINT (4.744464 51.611652)
021552eb-c52f-40b3-b503-6605a639fa2b,,,G6,,PLACED,[ ],N,Twijnerstraat,,,495359061.0,2024-03-01,Borne,GM0147,Borne,,https://wegkenmerken.ndw.nu/api/images/fc3ac0b9-9413-403a-b700-8f770e82778a,2017-01-10,2021-12-21,,,,6.7466415027109,52.299477974001,POINT (6.746642 52.299478)
0216716d-f602-48bc-b869-f3b16f5d55e6,,,G6,,PLACED,[ ],O,Harspit,,,414534034.0,2024-03-01,Opsterland,GM0086,Ureterp,,https://wegkenmerken.ndw.nu/api/images/ad3c3a61-b1a7-4bce-9324-8ea546c3e9cd,2016-03-02,2022-02-18,,,,6.1652251500438,53.089134442153,POINT (6.165225 53.089134)
0217612e-9398-41ac-ba12-9415d65d462a,,,G6,,PLACED,[ ],O,P.C. Boutenshove,,,185306138.0,2024-03-01,Zoetermeer,GM0637,Zoetermeer,,https://wegkenmerken.ndw.nu/api/images/dc31ac6a-db4a-4e2f-8919-4f376be31899,2021-08-23,2022-08-01,,,,4.4778092503414,52.064485080376,POINT (4.477809 52.064485)
021bd857-3dff-478f-8f38-363e0f32a320,,,G6,,PLACED,[ ],Z,Van Riemsdijkmarke,,,406399065.0,2024-03-01,Zwolle,GM0193,Zwolle,,https://wegkenmerken.ndw.nu/api/images/42d3b8f6-4292-4e40-b15a-c477e4a79fdc,2016-04-12,2022-02-24,,,,6.0993313626043,52.482380024901,POINT (6.099331 52.48238)
021d2373-d150-44b3-9130-bfbad9423828,,,G6,,PLACED,[ ],N,Jan van Vlissingenhof,,,355174070.0,2024-03-01,Helmond,GM0794,Helmond,,https://wegkenmerken.ndw.nu/api/images/efc4a5fd-a95c-4dd8-a358-e2ce89ae71df,2016-01-22,2022-01-06,,,,5.7114903702764,51.474406406687,POINT (5.71149 51.474406)
0222b9c6-7269-4d3a-9f64-7d291f0adf0c,,,G6,,PLACED,[ ],O,Kievitstraat,,,365238016.0,2024-03-01,Heumen,GM0252,Overasselt,,https://wegkenmerken.ndw.nu/api/images/37b5af5f-baf8-4629-8d1d-fd538b269c4b,2016-07-06,2022-04-28,,,,5.788087704789,51.763062696716,POINT (5.788088 51.763063)
0233e44b-b4a4-44bc-9cc7-3bc1589c2ef0,,,G6,,PLACED,[ ],N,Vrijenhoefpolderweg,,,,,Gouda,GM0513,Gouda,,https://wegkenmerken.ndw.nu/api/images/2eef1fbc-5101-4977-8e3e-d9253156659d,2015-12-29,2022-06-14,,,,4.7484586419868,52.010068492291,POINT (4.748459 52.010068)
02394850-c7c3-45c7-aa38-4d9ebf5c1d04,,,G6,,PLACED,[ ],W,Wantsnijdershoeve,,,395333002.0,2024-03-01,Apeldoorn,GM0200,Apeldoorn,,https://wegkenmerken.ndw.nu/api/images/5f8ef16d-f877-424c-8dec-7f168931e031,2016-11-30,2022-11-29,,,,6.0136252837565,52.189091392137,POINT (6.013625 52.189091)
023a33de-51d5-4649-82d0-50ef51ee4765,,,G6,,PLACED,[ ],O,René van Chalonstraat,,,355122058.0,2024-03-01,Weert,GM0988,Weert,,https://wegkenmerken.ndw.nu/api/images/89871159-b00a-4b88-99b6-bdeff9ffa000,2016-09-01,2022-07-08,,,,5.7173718412482,51.241341482163,POINT (5.717372 51.241341)
023cd185-a8db-4e55-b342-e93db128f534,,,G6,,PLACED,[ ],O,Markiezenhof,,,197269053.0,2024-03-01,Rotterdam,GM0599,Rotterdam,,https://wegkenmerken.ndw.nu/api/images/c9f3cf92-a331-46c7-9c1c-1f47f45d057d,2016-07-25,2022-03-18,,,,4.5675760551648,51.896282605618,POINT (4.567576 51.896283)
02412eb8-57fe-4ff4-94a5-20f17054d1fe,,,G6,,PLACED,[ ],N,Jan Luykenstraat,,,211320024.0,2024-03-01,Alphen aan den Rijn,GM0484,Alphen aan den Rijn,,https://wegkenmerken.ndw.nu/api/images/3aa84ceb-179e-4666-bae4-fdb990ade7cc,2016-06-09,2022-07-17,,,,4.6700106357488,52.129334254736,POINT (4.670011 52.129334)
02488f69-d5e9-4b7a-9277-817521751244,,,G6,,PLACED,[ ],W,Zwanebloem,,,280325030.0,2024-03-01,De Bilt,GM0310,Maartensdijk,,https://wegkenmerken.ndw.nu/api/images/78884cbf-eb65-4273-bdde-1d2e8be4ae18,2016-04-18,2022-03-18,,,,5.1694390719998,52.153972651565,POINT (5.169439 52.153973)
024b4956-72c6-45e4-855d-0cf2a1165428,,,G6,,PLACED,[ ],N,De Oude Oost,,,,,Dronten,GM0303,Dronten,,https://wegkenmerken.ndw.nu/api/images/251f0cc0-783a-4f88-a48e-c3c0d4a5851b,2021-01-25,2022-02-24,,,,5.7306351961313,52.522948109493,POINT (5.730635 52.522948)
02582c64-84fc-4c1c-912c-77f8aef8b651,,,G6,,PLACED,[ ],O,Herenpad,,,169293198.0,2024-03-01,Delft,GM0503,Delft,,https://wegkenmerken.ndw.nu/api/images/b4a42d15-6e8a-4252-9e10-6ab1ce44a0cf,2016-03-08,2022-07-06,,,,4.3637172844483,52.004932134516,POINT (4.363717 52.004932)
0258e17b-bafc-4e54-a9c2-0c56d05a3559,,,G6,,PLACED,[ ],N,Oltmanshof,,,256255023.0,2024-03-01,Gorinchem,GM0512,Gorinchem,,https://wegkenmerken.ndw.nu/api/images/29c6c2ea-ac39-471f-ab1a-7c68ed88d29c,2016-05-25,2022-07-06,,,,5.0004784834482,51.839030982716,POINT (5.000478 51.839031)
025c4d9a-fc10-40a0-b5df-10e2f5b4d56f,,,G6,,PLACED,[ ],Z,Marke Volthe,,,487375089.0,2024-03-01,Almelo,GM0141,Almelo,,https://wegkenmerken.ndw.nu/api/images/fa1e1fbd-6416-4f5a-8f03-9882d48e1764,2016-10-04,2022-11-24,,,,6.6928458578167,52.367220372865,POINT (6.692846 52.36722)
0268f49b-c250-45f1-ad51-e6c74307b7cb,,,G6,,PLACED,[ ],O,Pastel,,,,,Capelle Aan Den Ijssel,GM0502,Capelle Aan Den Ijssel,,https://wegkenmerken.ndw.nu/api/images/227679f2-5a50-43bd-8f41-6619f8e2e279,2016-01-26,2022-02-09,,,,4.5977888037122,51.951299100922,POINT (4.597789 51.951299)
027116c2-8ed9-46f9-9165-013198708659,,,G6,,PLACED,[ ],N,Polderstraat,,,600374083.0,2024-03-01,Tholen,GM0716,Tholen,,https://wegkenmerken.ndw.nu/api/images/557c590b-30c5-478a-a913-7b64fe9b6f70,2016-03-10,2022-03-04,,,,4.221891092257,51.536056465779,POINT (4.221891 51.536056)
02755149-5677-492f-953a-0b451f2ce774,,,G6,,PLACED,[ ],O,Wilhelmina Druckerstraat,,,332292076.0,2024-03-01,Veenendaal,GM0345,Veenendaal,,https://wegkenmerken.ndw.nu/api/images/bcac4d9c-91e9-42ba-a51c-bd86072e7eb0,2016-12-20,2022-01-04,,,,5.5510185402798,52.006389367768,POINT (5.551019 52.006389)
02796d9d-7cdc-4ec4-a099-15178e9edac3,,,G6,,PLACED,[ ],O,Beltmolen,,,600773973.0,2024-03-01,Vijfheerenlanden,GM1961,Vianen,,https://wegkenmerken.ndw.nu/api/images/655626fe-2f82-43cc-88f7-bfadea53cc33,2017-01-18,2022-07-15,,,,5.0776107331682,51.984834749986,POINT (5.077611 51.984835)
027e35e2-70da-4e39-932d-bba0e412bcbe,,,G6,,PLACED,[ ],W,Nienhof,,,344301101.0,2024-03-01,Ede,GM0228,Ede,,https://wegkenmerken.ndw.nu/api/images/dde86540-3170-4c9f-b658-751dbad28f08,2016-06-24,2022-06-29,,,,5.6356747165001,52.043630890066,POINT (5.635675 52.043631)
028b8883-3a2b-4ea5-a2d0-28d76674bc46,,,G6,,PLACED,[ ],N,Tom Navislaan,,,173306007.0,2024-03-01,'s-Gravenhage,GM0518,'s-Gravenhage,,https://wegkenmerken.ndw.nu/api/images/27715280-532d-4a63-85c3-c83c34fc4c16,2016-09-15,2022-10-19,,,,4.3955022239982,52.063214676849,POINT (4.395502 52.063215)
0295c470-beef-4695-95c3-b47d768ffa70,,,G6,,PLACED,[ ],N,Nigeriastraat,,,166288123.0,2024-03-01,Delft,GM0503,Delft,,https://wegkenmerken.ndw.nu/api/images/af0071a1-4779-45de-9722-37241ad726b4,2016-03-02,2022-06-28,,,,4.3446705971612,51.98235882458,POINT (4.344671 51.982359)
02960477-c8e0-488f-a480-7d046746f147,,,G6,,PLACED,[ ],Z,Oudestraat,,,477322066.0,2024-03-01,Berkelland,GM1859,Neede,,https://wegkenmerken.ndw.nu/api/images/b55764cb-b638-49cd-9bd2-936a6b0fa468,2016-12-14,2022-03-02,,,,6.6125088483101,52.132869563552,POINT (6.612509 52.13287)
02991562-62c0-4476-ab87-95806581dc6e,,,G6,,PLACED,[ ],ZZW,de Bleijk,,,348283011.0,2025-09-01,Wageningen,GM0289,Wageningen,,,2025-09-16,2025-09-16,2025-09-16,,,5.67055200739383,51.9658999456776,POINT (5.670552 51.9659)
029a16bc-b464-4577-a178-603098fb870b,,,G6,,PLACED,[ ],N,Markslaghoek,,,510335041.0,2024-03-01,Enschede,GM0153,Enschede,,https://wegkenmerken.ndw.nu/api/images/7b778885-7a86-4049-9a12-8488c8130ba2,2020-10-16,2022-10-07,,,,6.8536982714009,52.190522154581,POINT (6.853698 52.190522)
029a1874-2966-4d88-ae5e-b83606541c46,,,G6,,PLACED,[ ],W,Zwaluw,,,202262018.0,2024-03-01,Ridderkerk,GM0597,Ridderkerk,,https://wegkenmerken.ndw.nu/api/images/ce18cc85-d317-41f4-86e1-e418ae802549,2017-01-16,2022-01-03,,,,4.6085620013773,51.865006003709,POINT (4.608562 51.865006)
02a39ccf-063b-4084-849d-80b4b01dc372,,,G6,,PLACED,[ ],O,Duinvoetweg,,,216447027.0,2024-03-01,Bergen (NH),GM0373,Schoorl,,https://wegkenmerken.ndw.nu/api/images/a82f3100-659d-491f-9b83-21f378d73c58,2016-09-20,2022-11-15,,,,4.6937739152298,52.70084919539,POINT (4.693774 52.700849)
02ae398f-55e6-4569-868b-319c6a650e0d,,,G6,,PLACED,[ ],Z,Prof.Mr. P.J. Oudstraat,,,,,Gorinchem,GM0512,Gorinchem,,https://wegkenmerken.ndw.nu/api/images/f8c42fbf-f6fa-4595-92c2-9497a8b8e0a6,2016-05-26,2022-07-06,,,,4.994689136355,51.836152255809,POINT (4.994689 51.836152)
02b003b9-f62f-4e75-9de2-9ebe7419cdcf,,,G6,,PLACED,[ ],W,Cambuursterpad,,,365560103.0,2024-03-01,Leeuwarden,GM0080,Leeuwarden,,https://wegkenmerken.ndw.nu/api/images/e91b640f-d32d-4a20-9c02-6213e7e4e644,2016-12-01,2022-11-29,,,,5.8050767278284,53.206131629598,POINT (5.805077 53.206132)
02b14bc8-1874-4e50-885b-1ba7e344510e,,,G6,,PLACED,[ ],Z,Aletta Jacobs-erf,,,219246001.0,2024-03-01,Dordrecht,GM0505,Dordrecht,,https://wegkenmerken.ndw.nu/api/images/f6307e00-ece7-4119-9da9-f53a7c5c32bc,2016-03-16,2022-05-05,,,,4.7300228024001,51.795990535547,POINT (4.730023 51.795991)
02b4763f-723b-442c-8f8d-ff580435e7e5,,,G6,,PLACED,[ ],Z,De Gaarden,,,171278007.0,2024-03-01,Schiedam,GM0606,Schiedam,,https://wegkenmerken.ndw.nu/api/images/189e72c3-d918-40de-8e17-43e97f160e12,2016-06-23,2022-08-12,,,,4.3826587977496,51.939199238639,POINT (4.382659 51.939199)
02bb03dd-6fb8-4828-9c42-5aaeae8227c1,,,G6,,PLACED,[ ],Z,Cantatelaan,,,600774758.0,2024-03-01,Nieuwegein,GM0356,Nieuwegein,,https://wegkenmerken.ndw.nu/api/images/ce7482d6-4aa3-4bff-8f3b-4b1cc8b530df,2016-02-19,2022-03-12,,,,5.0831895608285,52.039235524983,POINT (5.08319 52.039236)
02c449ea-ef43-4d8e-b7bc-3853edc939e3,,,G6,,PLACED,[ ],Z,Muntgaarde,,,214298003.0,2024-03-01,Gouda,GM0513,Gouda,,https://wegkenmerken.ndw.nu/api/images/b0a736d4-6e1f-45c3-a67a-828a870b9df7,2015-12-24,2022-06-15,,,,4.6949524376646,52.028517955181,POINT (4.694952 52.028518)
02c7ad3e-5e59-4915-9719-762b3a12c46e,,,G6,,PLACED,[ ],Z,Bachlaan,,,329300012.0,2024-03-01,Veenendaal,GM0345,Veenendaal,,https://wegkenmerken.ndw.nu/api/images/8c04a67a-8377-4c52-8142-e9859f834a4e,2016-12-21,2022-01-10,,,,5.5308528395131,52.039029097231,POINT (5.530853 52.039029)
02cef2c0-17a0-4ff6-8512-f042665f899b,,,G6,,PLACED,[ ],Z,Strausserf,,,222294134.0,2024-03-01,Gouda,GM0513,Gouda,,https://wegkenmerken.ndw.nu/api/images/2f08f9d6-5f3c-428e-8e2d-91a997e9155b,2015-12-23,2022-06-14,,,,4.7483947226585,52.01133527275,POINT (4.748395 52.011335)
02cf4055-6d32-48ba-be21-72704e117ee5,,,G6,,PLACED,[ ],N,De Blauwverver,,,304199005.0,2024-03-01,Boxtel,GM0757,Boxtel,,https://wegkenmerken.ndw.nu/api/images/617b4bf3-e137-4fea-92f2-36478b422a64,2021-02-23,2022-02-25,,,,5.3490198076783,51.585143070693,POINT (5.34902 51.585143)
02cfcfb2-6141-45ff-93e5-8f2f30580cae,,,G6,,PLACED,[ ],N,Patrijspoort,,,330296040.0,2024-03-01,Veenendaal,GM0345,Veenendaal,,https://wegkenmerken.ndw.nu/api/images/6c17b045-265d-45bb-b937-b22a79121af8,2021-12-23,2021-12-23,,,,5.5334122759622,52.021328019114,POINT (5.533412 52.021328)
02d0214f-ef4a-482c-91a2-4126b0d999a6,,,G6,,PLACED,[ ],N,Stoepemaheerd,,,,,Groningen,GM0014,Groningen,,https://wegkenmerken.ndw.nu/api/images/425616d5-241c-4f28-a9e3-35cb573a8772,2016-11-01,2022-09-15,,,,6.5878399729562,53.246472909235,POINT (6.58784 53.246473)
02d24981-0ed7-448c-bc36-b781581e8fbe,,,G6,,PLACED,[ ],Z,'t Slag,,,324310007.0,2024-03-01,Scherpenzeel,GM0279,Scherpenzeel,,https://wegkenmerken.ndw.nu/api/images/2e0dba3c-ace9-404a-b5cd-0431cbacd63a,2016-10-03,2022-11-05,,,,5.492646953373,52.083569783854,POINT (5.492647 52.08357)
02d249a0-4cb0-4730-bb57-1ee583fa6303,,,G6,,PLACED,[ ],W,Robijn,,,142292100.0,2024-03-01,Westland,GM1783,'s-Gravenzande,,https://wegkenmerken.ndw.nu/api/images/7c5bb0ce-c7ed-492e-a2c4-732e46c1038b,2016-01-05,2022-02-02,,,,4.1717168927483,51.996568850793,POINT (4.171717 51.996569)
02db8640-c3b2-41bd-9a79-e9fe654e0fb0,,,G6,,PLACED,[ ],W,Molièrezijde,,,187307017.0,2024-03-01,Zoetermeer,GM0637,Zoetermeer,,https://wegkenmerken.ndw.nu/api/images/76e9f5e6-77b7-40c5-805e-9e0c7efb7e4f,2016-07-14,2022-07-29,,,,4.4951366107825,52.070435181356,POINT (4.495137 52.070435)
02de6486-cfca-44f6-9f84-37b221bd4645,,,G6,,PLACED,[ ],Z,Cantatelaan,,,268300042.0,2024-03-01,Nieuwegein,GM0356,Nieuwegein,,https://wegkenmerken.ndw.nu/api/images/36e4f564-e676-4d20-a69f-88349eec65f4,2016-02-23,2022-03-12,,,,5.0818208819294,52.039381098436,POINT (5.081821 52.039381)
02e5a363-e013-4370-b3cc-fb624e20c4e9,,,G6,,PLACED,[ ],W,Zoete Aagt,,,601154868.0,2024-03-01,Rijswijk,GM0603,Rijswijk,,https://wegkenmerken.ndw.nu/api/images/71dc38ee-0b26-4c6b-9628-63355c61c766,2021-08-25,2022-08-19,,,,4.3248443843399,52.021033577778,POINT (4.324844 52.021034)
02ea929e-29f3-47ff-914d-8d7617a5a868,,,G6,,PLACED,[ ],Z,Dennenbroek,,,218204047.0,2024-03-01,Breda,GM0758,Breda,,https://wegkenmerken.ndw.nu/api/images/0315dab9-d587-43fe-8507-b8f7218b1916,2016-09-21,2022-08-24,,,,4.728737085025,51.60604351018,POINT (4.728737 51.606044)
02ebdc17-0be1-4f75-8b0a-6052b6f44a32,,,G6,,PLACED,[ ],Z,Jan Palachstraat,,,154306008.0,2024-03-01,'s-Gravenhage,GM0518,'s-Gravenhage,,https://wegkenmerken.ndw.nu/api/images/2ccdbd68-d260-4100-ac3f-94331fd0b3a2,2016-09-06,2022-10-11,,,,4.2569277861623,52.059719968285,POINT (4.256928 52.05972)
02f1af08-841b-44c8-b6f1-169eaed36f79,,,G6,,PLACED,[ ],N,Lombok,,,194304139.0,2024-03-01,Zoetermeer,GM0637,Zoetermeer,,https://wegkenmerken.ndw.nu/api/images/a0f015fd-353b-4358-9dd7-0360bd46f6ee,2016-07-19,2022-07-20,,,,4.5451583588524,52.055245631243,POINT (4.545158 52.055246)
02fa4053-5319-4f99-b4e3-e5148fdfa0e6,,,G6,,PLACED,[ ],N,Lavendelstraat,,,280339048.0,2024-03-01,Hilversum,GM0402,Hilversum,,https://wegkenmerken.ndw.nu/api/images/c26aa157-576c-4540-8106-db77e31dc2ee,2016-11-23,2022-01-21,,,,5.1683682702069,52.213449865558,POINT (5.168368 52.21345)
02fa7839-7b98-4337-8bde-020d658917aa,,,G6,,PLACED,[ ],W,Moselborg,,,357029038.0,2024-03-01,Maastricht,GM0935,Maastricht,,https://wegkenmerken.ndw.nu/api/images/3b86ff96-1fec-435e-b73c-f3d112485388,2016-09-28,2022-09-07,,,,5.726948925136,50.823250308705,POINT (5.726949 50.82325)
02ff85d5-51f5-4d9a-b8bc-7b72c13cac70,,,G6,,PLACED,[ ],N,Kortenbachstraat,,,187350035.0,2024-03-01,Noordwijk,GM0575,Noordwijkerhout,,https://wegkenmerken.ndw.nu/api/images/fb7f7d53-7c8c-47e9-95e3-03020914cc58,2016-05-17,2022-06-09,,,,4.48945322023,52.260363519862,POINT (4.489453 52.260364)
030405b8-5a44-4e9c-89f1-1b005816bc33,,,G6,,PLACED,[ ],W,Fietspad,,,,,Alphen Aan Den Rijn,GM0484,Boskoop,,https://wegkenmerken.ndw.nu/api/images/95d0cf43-d5ab-4e65-8e80-90b04169a5f4,2016-06-07,2022-07-13,,,,4.6435395598646,52.075022506799,POINT (4.64354 52.075023)
030d86ae-3230-4383-94d2-ac680d39898a,,,G6,,PLACED,[ ],N,Spieringsweteringweg,,,601154859.0,2024-03-01,Rijswijk,GM0603,Rijswijk,,https://wegkenmerken.ndw.nu/api/images/3750d60a-79c4-43ef-9f4e-a6644ef3e974,2021-08-25,2022-08-19,,,,4.3261289418329,52.022044923079,POINT (4.326129 52.022045)
030f3faf-55d3-4aab-a8af-97d32e04912d,,,G6,,PLACED,[ ],N,De Voorposten,,,325309032.0,2024-03-01,Scherpenzeel,GM0279,Scherpenzeel,,https://wegkenmerken.ndw.nu/api/images/3be93688-a9e0-461e-bcb8-f4b835b0ec60,2016-10-03,2022-11-05,,,,5.4991264775263,52.080204463063,POINT (5.499126 52.080204)
0316afa5-34cf-4f88-a762-5cee71f6c2e4,,,G6,,PLACED,[ ],N,Kievitveld,,,189307025.0,2024-03-01,Zoetermeer,GM0637,Zoetermeer,,https://wegkenmerken.ndw.nu/api/images/5b9ba1db-6fd2-4ff0-8610-78698876f82d,2016-07-18,2022-08-03,,,,4.5072238979813,52.070706004154,POINT (4.507224 52.070706)
0317f8db-aefb-4a0b-aa9e-d05f73a5484a,,,G6,,PLACED,[ ],O,Veerdonk,,,220204009.0,2024-03-01,Breda,GM0758,Breda,,https://wegkenmerken.ndw.nu/api/images/e02e0378-9ba0-4a3f-8816-6b6915b70332,2016-09-20,2022-08-23,,,,4.7445369995947,51.60638343231,POINT (4.744537 51.606383)
032118bd-b6fa-41fa-99b2-e2873e300bd3,,,G6,,PLACED,[ ],Z,Orkaden,,,274305037.0,2024-03-01,Utrecht,GM0344,Utrecht,,https://wegkenmerken.ndw.nu/api/images/844171d3-7399-46b7-8f6b-8d89574dbe58,2021-04-08,2022-03-14,,,,5.131025059574,52.062273070845,POINT (5.131025 52.062273)
032987b1-8850-4edf-91c4-2dfd353824f5,,,G6,,PLACED,[ ],N,Merellaan,,,199276015.0,2024-03-01,Capelle aan den IJssel,GM0502,Capelle aan den IJssel,,https://wegkenmerken.ndw.nu/api/images/d0e8512b-5812-4d6c-a1b8-af2eafc8d873,2022-02-07,2022-02-07,,,,4.5829916575953,51.930597208685,POINT (4.582992 51.930597)
032a3939-b096-498b-a693-4c05620d1139,,,G6,,PLACED,[ ],O,Van Beethovenstraat,,,255254107.0,2024-03-01,Gorinchem,GM0512,Gorinchem,,https://wegkenmerken.ndw.nu/api/images/65a70e83-70d5-4cdf-997e-531268fcf306,2016-05-26,2022-07-06,,,,4.9919211835427,51.834515101226,POINT (4.991921 51.834515)
0331ff11-c6a8-4f17-9d84-869c52c19572,,,G6,,PLACED,[ ],O,Soutmanstraat,,,207379008.0,2024-03-01,Haarlem,GM0392,Haarlem,,https://wegkenmerken.ndw.nu/api/images/803c515b-4510-44d6-8d70-7fd824b4a21b,2016-09-02,2022-10-01,,,,4.6370189917719,52.39175151814,POINT (4.637019 52.391752)
034040e7-cf3b-4e3e-9f02-2120b149e455,,,G6,,PLACED,[ ],Z,Jonendwarsstraat,,,492286048.0,2024-03-01,Winterswijk,GM0294,Winterswijk,,https://wegkenmerken.ndw.nu/api/images/640e01a7-0f5a-4a31-a2cf-91488186ca44,2021-06-08,2022-05-23,,,,6.7156082662179,51.97098346002,POINT (6.715608 51.970983)
0343880b-c9fd-417d-83d4-cefaf6e42c72,,,G6,,PLACED,[ ],W,Valreep,,,329296082.0,2023-03-01,Veenendaal,GM0345,Veenendaal,,https://wegkenmerken.ndw.nu/api/images/ff445f6c-9a92-44fc-be19-76784886d611,2021-01-13,2021-12-23,,,,5.5328397368971,52.022390632498,POINT (5.53284 52.022391)
0348a04b-0101-4fb0-845d-be0f36211775,,,G6,,PLACED,[ ],N,Schansbaan,,,192308063.0,2024-03-01,Zoetermeer,GM0637,Zoetermeer,,https://wegkenmerken.ndw.nu/api/images/566228da-8ba6-48f9-96ca-307538c7249e,2016-07-15,2022-08-03,,,,4.5292613383754,52.074339406595,POINT (4.529261 52.074339)
034a1e5e-0823-4d25-91e5-fc108109cacf,,,G6,,PLACED,[ ],Z,Venkelgaarde,,,214298007.0,2024-03-01,Gouda,GM0513,Gouda,,https://wegkenmerken.ndw.nu/api/images/cb047baf-069f-4f80-a6f7-d081fc888382,2015-12-24,2022-06-15,,,,4.6935145506481,52.027788246128,POINT (4.693515 52.027788)
034ea74a-be05-4abb-8a53-2404f931537f,,,G6,,PLACED,[ ],N,De Rhijenhof,,,157300089.0,2024-03-01,'s-Gravenhage,GM0518,'s-Gravenhage,,https://wegkenmerken.ndw.nu/api/images/928cae90-158f-4125-8b6f-fa341eb0c9d7,2016-10-05,2022-10-12,,,,4.2773937419315,52.033230151193,POINT (4.277394 52.03323)
0358570e-1a60-46c0-8941-240833b5181d,,,G6,,PLACED,[ ],N,Looijerstraat,,,162308162.0,2024-03-01,'s-Gravenhage,GM0518,'s-Gravenhage,,https://wegkenmerken.ndw.nu/api/images/85232dce-0a5a-4524-8e8d-4738a30b26ac,2017-10-10,2022-10-12,,,,4.3115732523294,52.072813412582,POINT (4.311573 52.072813)
03588074-3a0b-4f5e-bc60-8a2489729613,,,G6,,PLACED,[ ],W,Melissegaarde,,,266299039.0,2024-03-01,Nieuwegein,GM0356,Nieuwegein,,https://wegkenmerken.ndw.nu/api/images/0fc59f1e-f523-4131-9ffc-34d6d4ee4db7,2016-02-17,2022-03-12,,,,5.0663095679563,52.035232602763,POINT (5.06631 52.035233)
035c86af-826a-4758-82d0-50114c9a409c,,,G6,,PLACED,[ ],Z,Goyerkamp,,,409401017.0,2024-03-01,Zwolle,GM0193,Zwolle,,https://wegkenmerken.ndw.nu/api/images/15413f6b-8263-4850-b4e1-cb80f2e3e7f1,2016-04-13,2022-02-24,,,,6.1165029284676,52.491314918074,POINT (6.116503 52.491315)
03654cab-3571-4da9-86b5-a7ab7921d766,,,G6,,PLACED,[ ],W,van Dethstraat,,,223292015.0,2024-03-01,Gouda,GM0513,Gouda,,https://wegkenmerken.ndw.nu/api/images/39291112-d847-4067-962c-e55ecdf01857,2015-12-23,2022-06-13,,,,4.7541261539288,52.005183140771,POINT (4.754126 52.005183)
03685571-9fd6-41f8-b938-5153abe0430c,,,G6,,PLACED,[ ],Z,Zeggelaan,,,222212071.0,2024-03-01,Drimmelen,GM1719,Terheijden,,https://wegkenmerken.ndw.nu/api/images/3ce8c090-b206-48a6-96e4-4a0d829ce122,2016-07-26,2022-08-10,,,,4.7577174397778,51.643895882967,POINT (4.757717 51.643896)
03687926-60d6-4cb8-bae1-0217c7fd1e8c,,,G6,,PLACED,[ ],N,Standerdmolen,,,213256010.0,2024-03-01,Papendrecht,GM0590,Papendrecht,,https://wegkenmerken.ndw.nu/api/images/2ba28f63-1029-4561-b7cd-54c85bda1f3c,2016-01-19,2022-05-11,,,,4.6905548613769,51.842511133711,POINT (4.690555 51.842511)
03776ad4-f71e-45df-b082-5b24b217ccaa,,,G6,,PLACED,[ ],W,Bolderikweerd,,,355031054.0,2024-03-01,Maastricht,GM0935,Maastricht,,https://wegkenmerken.ndw.nu/api/images/240478da-322a-4c50-b756-74ff1ba24421,2016-09-29,2022-09-08,,,,5.7077327400635,50.831215452028,POINT (5.707733 50.831215)
037a48f4-b472-49f3-8ab9-f7a996e95964,,,G6,,PLACED,[ ],W,Ladeniusmarke,,,407399047.0,2024-03-01,Zwolle,GM0193,Zwolle,,https://wegkenmerken.ndw.nu/api/images/c3b29750-ecf7-4671-ae6b-4b99e72b89f5,2016-04-12,2022-02-19,,,,6.1019654378064,52.483299661782,POINT (6.101965 52.4833)
0383604f-75f5-48ba-ba81-476736162079,,,G6,,PLACED,[ ],W,Rijsbes,,,171299030.0,2024-03-01,'s-Gravenhage,GM0518,'s-Gravenhage,,https://wegkenmerken.ndw.nu/api/images/131e8772-b81c-4b6d-a4d1-690f8d2e5664,2016-09-16,2022-10-17,,,,4.3755619224933,52.030903437088,POINT (4.375562 52.030903)
0387ce4b-9105-4e2d-8ea7-011d7b483be8,,,G6,,PLACED,[ ],Z,Prinsenstraat,,,234389136.0,2024-03-01,Zaanstad,GM0479,Zaandam,,https://wegkenmerken.ndw.nu/api/images/a46d3b5b-2f5d-42fa-abb9-c5ba39978ea2,2016-09-01,2022-09-14,,,,4.830758492938,52.439463322904,POINT (4.830758 52.439463)
03905289-89af-49e1-ae69-95c1edb33839,,,G6,,PLACED,[ ],N,Vechtstraat,,,96140001.0,2024-03-01,Terneuzen,GM0715,Terneuzen,,https://wegkenmerken.ndw.nu/api/images/30844af5-c7df-43aa-8819-ddf6a0af8021,2020-12-04,2022-11-04,,,,3.8530393404415,51.309930936436,POINT (3.853039 51.309931)
039944d3-cb84-4ed1-bd29-4cb1931742e5,,,G6,,PLACED,[ ],WNW,Pieter Boorsmapad,,,242385053.0,2025-09-01,Amsterdam,GM0363,Amsterdam,,https://wegkenmerken.ndw.nu/api/images/0270d191-138f-4ff0-99eb-6a78a023a7a6,2016-07-21,2025-09-09,,,,4.893154746853,52.419986637514,POINT (4.893155 52.419987)
039a1d4c-8720-4c01-ac74-556c404a4e4d,,,G6,,PLACED,[ ],O,Meidoornstraat,,,351127029.0,2024-03-01,Weert,GM0988,Weert,,https://wegkenmerken.ndw.nu/api/images/6c6a8cb0-77cb-4ad3-a4de-750d11dd273e,2016-08-24,2022-07-18,,,,5.6852395311351,51.263745572207,POINT (5.68524 51.263746)
039b6823-3564-4a15-b256-b5343173363b,,,G6,,PLACED,[ ],O,Rijkenspad,,,101185095.0,2024-03-01,Goes,GM0664,Goes,,https://wegkenmerken.ndw.nu/api/images/66224171-35cd-49fd-89e7-757e1b7b270f,2020-12-15,2022-01-19,,,,3.8833474580028,51.516735013682,POINT (3.883347 51.516735)
039fce43-f5cc-4547-9d59-7c485996cc39,,,G6,,PLACED,[ ],Z,Prins Mauritsstraat,,,173272031.0,2024-03-01,Schiedam,GM0606,Schiedam,,https://wegkenmerken.ndw.nu/api/images/07d53f8f-c97a-475a-b33e-15755c2473c2,2016-06-22,2022-08-16,,,,4.3981992819297,51.908560075675,POINT (4.398199 51.90856)
03aa2dfb-f96a-4cac-abff-4141706df24e,,,G6,,PLACED,[ ],O,Monroedreef,,,601181503.0,2024-03-01,Ede,GM0228,Ede,,https://wegkenmerken.ndw.nu/api/images/3fa569c7-a5da-463f-aabc-7bb7e0a46ce9,2016-06-14,2022-07-18,,,,5.6459628719695,52.019332184303,POINT (5.645963 52.019332)
03aa5c60-4bdc-4856-bb4e-dc215c2ad5eb,,,G6,,PLACED,[ ],O,Gerrit Jan van der Veenstraat,,,173310123.0,2024-03-01,Leidschendam-Voorburg,GM1916,Leidschendam,,https://wegkenmerken.ndw.nu/api/images/7baf35c8-93a2-4355-85e7-3f8248930bcb,2021-06-22,2022-06-07,,,,4.3885230862804,52.082653821948,POINT (4.388523 52.082654)
03ad137b-9cb0-47f1-aa7e-ed66d7005425,,,G6,,PLACED,[ ],N,Robert Schumanlaan,,,101185096.0,2024-03-01,Goes,GM0664,Goes,,https://wegkenmerken.ndw.nu/api/images/b0ccb5bc-90ec-4a12-9edd-703741b2dc7f,2016-12-14,2022-01-19,,,,3.8839877188038,51.511931522311,POINT (3.883988 51.511932)
03aeac0d-73ec-46d7-886e-c42c180e4c9e,,,G6,,PLACED,[ ],Z,Kanunnikenstraat,,,353124052.0,2024-03-01,Weert,GM0988,Weert,,https://wegkenmerken.ndw.nu/api/images/b1ec91cb-96c1-4160-9630-6eb7446ead17,2021-07-20,2022-07-18,,,,5.7000644787375,51.250335424707,POINT (5.700064 51.250335)
03b29101-d490-4096-adb9-ee6546b8b807,,,G6,,PLACED,[ ],O,Vulcanusstraat,,,190324019.0,2024-03-01,Leiden,GM0546,Leiden,,https://wegkenmerken.ndw.nu/api/images/0283a345-a2ec-4a99-8a97-93bdf033ada2,2016-03-22,2022-03-24,,,,4.5132698914381,52.147271138573,POINT (4.51327 52.147271)
03bdaf0d-df8b-4d51-bb84-1b2da5dd61d4,,,G6,,PLACED,[ ],O,Dreef,,,181200127.0,2024-03-01,Halderberge,GM1655,Oud Gastel,,https://wegkenmerken.ndw.nu/api/images/4b5272f7-5c15-409b-98ea-a903a2b0afb5,2021-06-24,2024-02-19,,,,4.4616960504253,51.587851116412,POINT (4.461696 51.587851)
03be1798-7068-48ff-85c3-8ccbbad0b4bd,TECH-GM0439-000077,,G6,,PLACED,[ ],Z,Binnendijk,,,255404131.0,2025-09-01,Purmerend,GM0439,Purmerend,,https://wegkenmerken.ndw.nu/api/images/a7203e9f-4152-45b4-b33c-c4bddf86740e,2016-02-05,2025-10-03,,,,4.983960360555639,52.50910862575084,POINT (4.98396 52.509109)
03c789c1-228e-45fd-aee0-d994072c8b78,,,G6,,PLACED,[ ],O,Neranushof,,,353122051.0,2024-03-01,Weert,GM0988,Weert,,https://wegkenmerken.ndw.nu/api/images/a05da1da-4510-4717-90d1-9e6c48183a0d,2016-09-01,2022-07-11,,,,5.6985121806265,51.239742739872,POINT (5.698512 51.239743)
03ce10c7-964e-459b-8ecc-57b4635c2fe6,,,G6,,PLACED,[ ],O,Kanaalweg,,,193375148.0,2024-03-01,Zandvoort,GM0473,Zandvoort,,https://wegkenmerken.ndw.nu/api/images/d2db60d4-c059-4426-8057-34f3f5f7edad,2016-09-19,2022-09-21,,,,4.5325284355652,52.372740677636,POINT (4.532528 52.372741)
03d00e79-5c22-40b7-8b11-6cc862ea1dd0,,,G6,,PLACED,[ ],Z,Bruggenrijt,,,261190027.0,2024-03-01,Tilburg,GM0855,Tilburg,,https://wegkenmerken.ndw.nu/api/images/1442e66e-29fa-4da8-86d2-7fb0f1058c5f,2016-06-28,2022-06-15,,,,5.0381121984532,51.546164617223,POINT (5.038112 51.546165)
03d6bf18-ecdf-488b-8a40-9dab26db1deb,,,G6,,PLACED,[ ],Z,Maximastraat,,,600754936.0,2024-03-01,Aalsmeer,GM0358,Aalsmeer,,https://wegkenmerken.ndw.nu/api/images/1d330bb6-3a7c-4f69-b17e-e239a468a963,2016-09-27,2022-11-16,,,,4.7958923090704,52.275756517449,POINT (4.795892 52.275757)
03da5c8b-6cd4-4833-a545-be89533fbe2e,,,G6,,PLACED,[ ],W,Kruier,,,224401084.0,2024-03-01,Zaanstad,GM0479,Assendelft,,https://wegkenmerken.ndw.nu/api/images/403b8ebc-c7e2-4e3b-b9ec-25ff0c606e25,2016-08-08,2022-09-10,,,,4.7552367708735,52.493619480394,POINT (4.755237 52.493619)
03dba2f0-e83b-4eda-915e-df0d1714eedd,,,G6,,PLACED,[ ],N,Kokensteeg,,,530377031.0,2024-03-01,Dinkelland,GM1774,Denekamp,,https://wegkenmerken.ndw.nu/api/images/1dafcd8a-d3b7-4757-8027-e9534fe1378e,2016-12-19,2022-11-02,,,,7.0057713037856,52.376225717081,POINT (7.005771 52.376226)
03dfb0f1-28a3-47fd-8781-dbde0e9b50fb,,,G6,,PLACED,[ ],Z,L. Pietersestraat,,,231489041.0,2024-03-01,Hollands Kroon,GM1911,Breezand,,https://wegkenmerken.ndw.nu/api/images/65a4b06b-8eaa-4d1c-875f-b0e7a6c47805,2016-06-02,2022-07-28,,,,4.8061935347984,52.890368134256,POINT (4.806194 52.890368)
03e0db7b-78dc-4d02-8e27-197b2c1445ba,,,G6,,PLACED,[ ],Z,Schuylenburgh,,,144298007.0,2024-03-01,Westland,GM1783,Monster,,https://wegkenmerken.ndw.nu/api/images/2c8f421f-af30-475c-98ea-f41a27b9d554,2016-01-13,2022-02-07,,,,4.1803220656595,52.025540437987,POINT (4.180322 52.02554)
03e43e47-2d59-4e84-8de6-c5acb0d7d4e0,,,G6,,PLACED,[ ],W,Dokter Bauerstraat,,,250256068.0,2024-03-01,Gorinchem,GM0512,Gorinchem,,https://wegkenmerken.ndw.nu/api/images/009d17d6-78a4-4f5e-bdbd-4e6336384c42,2016-05-12,2022-07-12,,,,4.9553215362489,51.841933300759,POINT (4.955322 51.841933)
03e4b3b7-a4db-4d43-8004-f95df11d31e9,,,G6,,PLACED,[ ],N,Merelstraat,,,396397021.0,2024-03-01,Oldebroek,GM0269,Hattemerbroek,,https://wegkenmerken.ndw.nu/api/images/02a14bbb-b286-4337-ac00-befe9ca1b0bd,2016-02-25,2022-04-21,,,,6.0244728954187,52.475790951262,POINT (6.024473 52.475791)
03e635dc-aa6e-412f-a037-aadc07fe1510,,,G6,,PLACED,[ ],W,Hofsteeg,,,297213037.0,2024-03-01,Vught,GM0865,Vught,,https://wegkenmerken.ndw.nu/api/images/af97da8a-ad54-4e18-985e-add9c3e08453,2016-08-17,2022-07-25,,,,5.2938330610747,51.651571136548,POINT (5.293833 51.651571)
03e905c9-a02d-488d-9d9b-62b05cf754f1,,,G6,,PLACED,[ ],W,Jakartastraat,,,213248001.0,2024-03-01,Dordrecht,GM0505,Dordrecht,,https://wegkenmerken.ndw.nu/api/images/7dacd18c-619b-4683-a2b2-9ac8b383a97b,2016-03-11,2022-04-19,,,,4.6849073461247,51.806791060071,POINT (4.684907 51.806791)
03f1f75c-3c9d-44c2-8b38-eb21127b14dd,,,G6,,PLACED,[ ],O,Nicolaas Damesstraat,,,600652177.0,2024-07-01,Teylingen,GM1525,Sassenheim,,https://wegkenmerken.ndw.nu/api/images/dc63fb3c-079b-48fb-905d-eee25fac4452,2016-02-23,2022-06-20,,,,4.5192038327009,52.2194580652,POINT (4.519204 52.219458)
03f4c9f5-08e5-421b-b08d-a8d12b5a4835,,,G6,,PLACED,[ ],N,Dalveen,,,154302021.0,2024-03-01,'s-Gravenhage,GM0518,'s-Gravenhage,,https://wegkenmerken.ndw.nu/api/images/b370427f-e494-4e1d-bd87-427f61247244,2016-09-27,2022-10-26,,,,4.2508542636409,52.041901333856,POINT (4.250854 52.041901)
03f705a7-023d-4e9d-8d11-856789452523,,,G6,,PLACED,[ ],Z,Spoelhoren,,,180342001.0,2024-03-01,Noordwijk,GM0575,Noordwijk,,https://wegkenmerken.ndw.nu/api/images/006d19cc-c7fa-4f69-b186-0fd06f63faf7,2016-07-12,2022-06-13,,,,4.4400314512143,52.227272086861,POINT (4.440031 52.227272)
03f80d5b-24e2-42aa-b287-8ce0dacf496f,,,G6,,PLACED,[ ],N,Balsemkruid,,,195282045.0,2024-03-01,Rotterdam,GM0599,Rotterdam,,https://wegkenmerken.ndw.nu/api/images/2846a1fa-b8be-4893-8a50-360e1011621e,2018-04-03,2022-03-07,,,,4.5530613631766,51.955884343773,POINT (4.553061 51.955884)
03faa5b2-fb45-415c-9594-97bc236504dc,,,G6,,PLACED,[ ],Z,Punter,,,194258030.0,2024-03-01,Barendrecht,GM0489,Barendrecht,,https://wegkenmerken.ndw.nu/api/images/ca9d9ac4-7f5b-4c8f-83a8-c7df3a94294d,2016-10-15,2022-11-15,,,,4.5480303818166,51.847972139477,POINT (4.54803 51.847972)
0404c812-bbd9-47d1-9738-af34ffcf065c,,,G6,,PLACED,[ ],N,M.A.de Ruijterlaan,,,,,Goes,GM0664,Goes,,https://wegkenmerken.ndw.nu/api/images/77492c2a-cccf-409e-a876-fa207c4463c6,2016-12-12,2022-01-20,,,,3.888157196033,51.500124108741,POINT (3.888157 51.500124)
0406cc9a-723e-415e-8f2c-56d38f0a73fb,,,G6,,PLACED,[ ],O,Rietkamp,,,600919974.0,2024-03-01,Bunnik,GM0312,Odijk,,https://wegkenmerken.ndw.nu/api/images/39704799-ecfb-4e4d-b301-4c85470d305f,2022-02-23,2022-02-23,,,,5.2306795248406,52.050523481452,POINT (5.23068 52.050523)
0407b2fa-9218-4601-8dcc-d26545c21e3b,,,G6,,PLACED,[ ],O,Snoeksloot,,,189306061.0,2024-03-01,Zoetermeer,GM0637,Zoetermeer,,https://wegkenmerken.ndw.nu/api/images/9286bdf4-a8aa-42e4-8969-5026f135a2fa,2016-07-18,2022-08-04,,,,4.5091100896112,52.06276544783,POINT (4.50911 52.062765)
0408ad15-a0df-4938-9686-b8f7ba091413,,,G6,,PLACED,[ ],W,De Hosterd,,,373239023.0,2024-03-01,Heumen,GM0252,Heumen,,https://wegkenmerken.ndw.nu/api/images/483437ad-2515-43c4-a5e6-2a404f2e1c38,2016-07-04,2022-04-30,,,,5.8445116615578,51.765368275584,POINT (5.844512 51.765368)
041380a2-632a-42d0-96c6-284cf760feed,,,G6,,PLACED,[ ],Z,Lijsterbesbeek,,,312162056.0,2024-03-01,Veldhoven,GM0861,Veldhoven,,https://wegkenmerken.ndw.nu/api/images/c816a761-1a86-4d8d-8853-44897a9c7bf7,2017-05-17,2022-04-25,,,,5.402463937311,51.418807269682,POINT (5.402464 51.418807)
0415954b-f3ba-4b77-bbdb-2d77cf0f59d0,,,G6,,PLACED,[ ],N,Prinses Julianastraat,,,117185017.0,2024-03-01,Kapelle,GM0678,Wemeldinge,,https://wegkenmerken.ndw.nu/api/images/3755cc1d-5c0d-42f9-a892-af2c4f299b6e,2021-06-16,2022-06-16,,,,4.001256126254,51.515851323826,POINT (4.001256 51.515851)
041650e5-03f6-477f-a46b-0216e5eeb330,,,G6,,PLACED,[ ],O,Jan Steenhof,,,601023091.0,2024-03-01,Nijkerk,GM0267,Nijkerk,,https://wegkenmerken.ndw.nu/api/images/20a5f19d-0286-4530-b118-561a57a3c616,2016-09-16,2022-10-21,,,,5.5008579067953,52.21232938344,POINT (5.500858 52.212329)
041659ab-74b6-415f-9d32-6db42cfbbf57,,,G6,,PLACED,[ ],N,Bolmanstraat,,,170302073.0,2024-03-01,'s-Gravenhage,GM0518,'s-Gravenhage,,https://wegkenmerken.ndw.nu/api/images/041e610f-e213-444a-95b2-c33664326661,2016-09-19,2022-10-08,,,,4.3672297156658,52.043850670716,POINT (4.36723 52.043851)
0418e2c0-cfbf-42b4-ad2e-45dd3ac83eb5,,,G6,,PLACED,[ ],O,Grunsvoort,,,386332007.0,2024-03-01,Apeldoorn,GM0200,Ugchelen,,https://wegkenmerken.ndw.nu/api/images/4d0dd68c-03fa-4848-83ad-29da9cdbfaac,2016-12-05,2022-11-24,,,,5.9448671775388,52.183288885192,POINT (5.944867 52.183289)
041989ef-d392-4b6a-9d39-dcdb4f215017,,,G6,,PLACED,[ ],W,Dennenhoven,,,600211322.0,2024-03-01,Maastricht,GM0935,Maastricht,,https://wegkenmerken.ndw.nu/api/images/f8d344d5-9fd1-494e-afeb-bbcffbdab38e,2016-09-23,2022-09-12,,,,5.7352105333046,50.864133440105,POINT (5.735211 50.864133)
0419c9ff-8442-4bde-bdff-8a2aed2c6665,,,G6,,PLACED,[ ],W,Kamillestraat,,,94142013.0,2024-03-01,Terneuzen,GM0715,Terneuzen,,https://wegkenmerken.ndw.nu/api/images/6382bc47-aaac-4846-bed7-79134c9bc801,2016-10-17,2022-11-08,,,,3.8408703069809,51.318765841523,POINT (3.84087 51.318766)
0424cff3-4f10-42b0-8634-d2e376894fd6,,,G6,,PLACED,[ ],N,Strausslaan,,,152306078.0,2024-03-01,'s-Gravenhage,GM0518,'s-Gravenhage,,https://wegkenmerken.ndw.nu/api/images/1c898807-2055-43d7-85da-1f2eb7c1916e,2016-09-02,2022-10-10,,,,4.2406270800841,52.060206077553,POINT (4.240627 52.060206)
0430a0b7-44bd-4f06-b4f8-15e53766d9b8,C02AC4EE-9767-4414-8D8C-179C95DEB408,,G6,,PLACED,[ ],W,Boomgaard,,,194236006.0,2025-08-01,Hoeksche Waard,GM1963,Strijen,,https://wegkenmerken.ndw.nu/api/images/129898ce-114f-4c41-bd49-58500dd0b095,2016-10-31,2025-08-21,,,,4.55133516692361,51.7495927445732,POINT (4.551335 51.749593)
04316c13-eabc-417e-b6ac-27ae7cf85c93,,,G6,,PLACED,[ ],O,Citroenvlinderstraat,,,600988683.0,2024-03-01,Aalsmeer,GM0358,Aalsmeer,,https://wegkenmerken.ndw.nu/api/images/43e06c6e-b6e6-4d5c-9931-e281ef03513d,2016-09-27,2022-11-16,,,,4.8006474324222,52.278702301608,POINT (4.800647 52.278702)
0432f941-229b-4ba0-9f88-7f26fb97f8e8,,,G6,,PLACED,[ ],W,Blauwe Ring,,,600465232.0,2024-03-01,Zaanstad,GM0479,Assendelft,,https://wegkenmerken.ndw.nu/api/images/57a745d6-df07-45a6-9a18-d2d72aff6fcd,2016-08-09,2022-09-09,,,,4.7605269985372,52.484451979035,POINT (4.760527 52.484452)
04352147-972b-4aeb-9005-a9745fe3da2d,,,G6,,PLACED,[ ],N,de Waart,,,347176220.0,2024-03-01,Helmond,GM0794,Helmond,,https://wegkenmerken.ndw.nu/api/images/78c85597-82d9-4c0f-a0e6-f3ff927f8f74,2016-01-20,2022-01-13,,,,5.6578271643571,51.482977049691,POINT (5.657827 51.482977)
0435bc07-10b9-4432-8a53-05b89ac9a6bd,,,G6,,PLACED,[ ],W,Hoofdenburg,,,245357011.0,2024-03-01,Ouder-Amstel,GM0437,Ouderkerk aan de Amstel,,https://wegkenmerken.ndw.nu/api/images/1bd4e3a5-1321-4f10-952a-06502f0f788d,2016-09-28,2022-10-31,,,,4.9177404945586,52.295172519988,POINT (4.91774 52.295173)
043acf65-64c6-44bf-8f0a-d5c6acf01b05,,,G6,,PLACED,[ ],Z,Putstraat,,,411576019.0,2024-03-01,Noardeast-Fryslân,GM1970,Kollum,,https://wegkenmerken.ndw.nu/api/images/e9d2bdbb-feee-47e5-841e-14e75e484ef9,2016-07-25,2022-03-16,,,,6.1494734997441,53.279544819505,POINT (6.149473 53.279545)
04420812-4c85-4781-bcb9-3afc9a63e3b3,,,G6,,PLACED,[ ],W,Margrijhof,,,172303076.0,2024-03-01,Pijnacker-Nootdorp,GM1926,Nootdorp,,https://wegkenmerken.ndw.nu/api/images/dddbac8f-72f5-4d2d-8b74-ca6dd37b78eb,2020-05-11,2022-05-18,,,,4.3850367107433,52.048892192009,POINT (4.385037 52.048892)
04463036-451e-4fd7-8e22-7b0cd168d55d,,,G6,,PLACED,[ ],O,Amberbomenlaan,,,411409004.0,2024-03-01,Zwolle,GM0193,Zwolle,,https://wegkenmerken.ndw.nu/api/images/74c4a7c3-732d-479d-b837-165e6cee1443,2016-04-06,2022-02-24,,,,6.1384535679484,52.525371157575,POINT (6.138454 52.525371)
044e489a-aa95-4dd7-bde4-73523ac96528,,,G6,,PLACED,[ ],O,Pauwenkamp,,,259321087.0,2024-03-01,Stichtse Vecht,GM1904,Maarssen,,https://wegkenmerken.ndw.nu/api/images/f822ae47-9bf0-4478-977e-c6aaf2b94972,2016-09-27,2022-05-07,,,,5.021355961309,52.135392823827,POINT (5.021356 52.135393)
0456622f-2b60-41a4-825a-f81d26854bd7,,,G6,,PLACED,[ ],O,Junostraat,,,190325056.0,2024-03-01,Leiden,GM0546,Leiden,,https://wegkenmerken.ndw.nu/api/images/100d3aa7-d0a9-456b-a4b2-d3a88109d4d4,2016-03-22,2022-03-24,,,,4.5126201659264,52.148316059718,POINT (4.51262 52.148316)
0457d651-1317-4a30-924b-d5ca39b69dcc,,,G6,,PLACED,[ ],N,Woudweg,,,325288029.0,2024-03-01,Rhenen,GM0340,Elst Ut,,https://wegkenmerken.ndw.nu/api/images/f95ba820-cc35-422f-8ed5-458650f870b0,2016-08-22,2022-09-23,,,,5.5031559991358,51.985772601158,POINT (5.503156 51.985773)
046d7fe8-43db-42d8-b213-865bfb961c2d,,,G6,,PLACED,[ ],O,Violenstraat,,,280339003.0,2024-03-01,Hilversum,GM0402,Hilversum,,https://wegkenmerken.ndw.nu/api/images/1b5c2331-5e3d-4a39-8cce-48889c573387,2016-11-23,2022-01-21,,,,5.1718892970546,52.217485070759,POINT (5.171889 52.217485)
046e150d-fe77-430a-b323-9a74c0f3531a,,,G6,,PLACED,[ ],Z,Hofzicht,,,150294101.0,2024-03-01,Westland,GM1783,Honselersdijk,,https://wegkenmerken.ndw.nu/api/images/45759529-5ef9-4eb6-9237-632cda96bfe5,2016-01-17,2022-02-09,,,,4.2255830059677,52.006964961452,POINT (4.225583 52.006965)
0470ac2f-ec83-4f72-88f2-72f2b5668860,,,G6,,PLACED,[ ],N,Eglantier,,,390055042.0,2024-03-01,Brunssum,GM0899,Brunssum,,https://wegkenmerken.ndw.nu/api/images/4a3e6231-fe55-426a-b1ff-ca6162e707c9,2016-10-31,2022-11-30,,,,5.9589276376272,50.940453009407,POINT (5.958928 50.940453)
04712bf7-7120-400c-8567-eaaa35c6cb7b,,,G6,,PLACED,[ ],N,Sierra Nevada,,,223401044.0,2024-03-01,Zaanstad,GM0479,Assendelft,,https://wegkenmerken.ndw.nu/api/images/a7383cee-9010-4bdd-a232-100ecd370b9b,2016-08-08,2022-09-10,,,,4.7527480954276,52.491987417068,POINT (4.752748 52.491987)
04738744-b474-4c2d-ae7d-4365aa1e45f7,,,G6,,PLACED,[ ],O,Morane,,,297317035.0,2024-03-01,Soest,GM0342,Soesterberg,,https://wegkenmerken.ndw.nu/api/images/5bcf5178-1ac0-4fc1-92e7-5acbc1eec442,2016-09-16,2022-10-03,,,,5.2942640381465,52.116968029141,POINT (5.294264 52.116968)
0474e2a6-f90c-4fa9-bb7d-b68e79f1f506,,,G6,,PLACED,[ ],N,Röntgenlaan,,,286224018.0,2024-03-01,Heusden,GM0797,Vlijmen,,https://wegkenmerken.ndw.nu/api/images/65b51c37-fe60-4ce4-874f-b056be080711,2016-11-28,2022-11-29,,,,5.2138551119229,51.698491800515,POINT (5.213855 51.698492)
0474eea5-98e1-4359-9d31-b8e6fff38cea,,,G6,,PLACED,[ ],N,Nije Allee,,,483367016.0,2024-03-01,Almelo,GM0141,Almelo,,https://wegkenmerken.ndw.nu/api/images/7603fc2f-7dcb-4bab-a913-9a67c3546c3e,2016-10-27,2022-11-10,,,,6.6635183732458,52.333548158338,POINT (6.663518 52.333548)
0478c269-743e-4974-b08d-5f4021153a38,,,G6,,PLACED,[ ],Z,Violier,,,205274006.0,2024-03-01,Krimpen aan den IJssel,GM0542,Krimpen aan den IJssel,,https://wegkenmerken.ndw.nu/api/images/664c0669-a817-41ba-bd5e-1b3340fd891c,2021-02-17,2022-03-01,,,,4.6272243203525,51.921647201976,POINT (4.627224 51.921647)
04794714-c268-4079-824d-91ec9133ebce,,,G6,,PLACED,[ ],Z,Panheelderweg,,,,,Maasgouw,GM1641,Heel,,https://wegkenmerken.ndw.nu/api/images/281e10d3-321a-4ded-81df-559c3e883065,2021-04-21,2022-04-03,,,,5.8876229084243,51.176857266568,POINT (5.887623 51.176857)
04799cea-27a5-472f-9dc6-3268044505ef,,,G6,,PLACED,[ ],N,Eksterstraat,,,214253004.0,2024-03-01,Papendrecht,GM0590,Papendrecht,,https://wegkenmerken.ndw.nu/api/images/ef0e22f6-67d8-45f7-a00c-f9f8512c0277,2016-01-20,2022-05-05,,,,4.6914959879164,51.826827505462,POINT (4.691496 51.826828)
047f8a51-fa4e-4022-9397-7f555ba883f3,,,G6,,PLACED,[ ],O,Edisonstraat,,,,,Heerlen,GM0917,Heerlen,,https://wegkenmerken.ndw.nu/api/images/1e680b81-1ba7-4c4e-9b58-b06fc959da69,2016-05-26,2022-02-28,,,,5.9730604770571,50.899462629745,POINT (5.97306 50.899463)
0489909e-06b0-42fc-8595-7d5730158255,,,G6,,PLACED,[ ],O,Van Hogendorpware,,,408399155.0,2024-03-01,Zwolle,GM0193,Zwolle,,https://wegkenmerken.ndw.nu/api/images/6e9190fc-6145-47cc-8c21-946fffae8a0d,2016-04-13,2022-02-19,,,,6.1148738911002,52.481964455525,POINT (6.114874 52.481964)
0490e6f0-9289-4acf-915c-e8262ba470a0,,,G6,,PLACED,[ ],N,Marthastraat,,,498350067.0,2024-03-01,Hengelo (O),GM0164,Hengelo,,https://wegkenmerken.ndw.nu/api/images/b86c271a-1e48-40af-96f9-a4a8032ce228,2016-06-02,2022-04-30,,,,6.7713952522978,52.258271131363,POINT (6.771395 52.258271)
0494435b-0fd6-4f0f-86bd-4e8b3efb63d6,,,G6,,PLACED,[ ],N,Esdoornlaan,,,335282012.0,2024-03-01,Rhenen,GM0340,Rhenen,,https://wegkenmerken.ndw.nu/api/images/79079126-65b4-42b6-83c8-1cd4849af839,2016-08-19,2022-09-22,,,,5.5699848247658,51.961606244198,POINT (5.569985 51.961606)
04944b66-5155-40c2-b5d9-be48c01680c9,,,G6,,PLACED,[ ],N,Stormerdijkstraat,,,269299019.0,2024-03-01,Nieuwegein,GM0356,Nieuwegein,,https://wegkenmerken.ndw.nu/api/images/5147e872-415e-49af-aea4-c6ba77faae5f,2016-02-18,2022-03-04,,,,5.0927094934365,52.037125066954,POINT (5.092709 52.037125)
04955a71-30a6-487c-a140-e81c1a627f84,,,G6,,PLACED,[ ],W,Bernard IJzerdraatstraat,,,162271021.0,2024-03-01,Vlaardingen,GM0622,Vlaardingen,,https://wegkenmerken.ndw.nu/api/images/dd469b18-0002-4585-9520-76491344dea1,2016-04-05,2022-07-14,,,,4.3167968541786,51.906494351834,POINT (4.316797 51.906494)
04959b21-1f53-4295-b04a-bf001e5b0b27,,,G6,,PLACED,[ ],Z,Kroonse Wal,,,,,Arnhem,GM0202,Arnhem,,https://wegkenmerken.ndw.nu/api/images/917bc315-6dab-44c3-9da0-174035f3892a,2016-04-01,2022-03-10,,,,5.8546426433519,51.953441008277,POINT (5.854643 51.953441)
049a0dd2-c32c-488e-82a3-b900a591680f,,,G6,,PLACED,[ ],O,Balsemkruidstraat,,,187341006.0,2024-03-01,Teylingen,GM1525,Voorhout,,https://wegkenmerken.ndw.nu/api/images/da16500c-f5fc-4ad2-89d5-426d64eb7514,2016-02-25,2022-06-22,,,,4.4911902340825,52.22257711238,POINT (4.49119 52.222577)
04a59b60-e334-47e9-8c36-3dad88d45881,,,G6,,PLACED,[ ],W,Dilleberg,,,179183005.0,2024-03-01,Roosendaal,GM1674,Roosendaal,,https://wegkenmerken.ndw.nu/api/images/cff398c6-1cf1-42d1-85d9-4a956203dd23,2016-01-28,2022-03-15,,,,4.444806586195,51.513051642939,POINT (4.444807 51.513052)
04aee5d9-efa5-4720-8679-29b93c14c191,,,G6,,PLACED,[ ],Z,Teulland,,,353193056.0,2024-03-01,Gemert-Bakel,GM1652,Gemert,,https://wegkenmerken.ndw.nu/api/images/00344af2-82e6-4aaa-b666-d6439a8eeefb,2016-05-17,2022-04-11,,,,5.6980879323331,51.558068142513,POINT (5.698088 51.558068)
04af0eac-c2b6-4d14-8034-d7788a285174,,,G6,,PLACED,[ ],N,Spoorerf,,,285305085.0,2024-03-01,Bunnik,GM0312,Bunnik,,https://wegkenmerken.ndw.nu/api/images/c344dcbd-79ea-4d43-ac8c-d72b1b5a6742,2022-02-23,2022-02-23,,,,5.2063917428427,52.064169267292,POINT (5.206392 52.064169)
04b980bb-3c8e-4b07-b0b9-70031423b6ec,,,G6,,PLACED,[ ],O,Vogelwikke,,,280325028.0,2024-03-01,De Bilt,GM0310,Maartensdijk,,https://wegkenmerken.ndw.nu/api/images/626c295e-ae44-4526-8abb-8aa9dc400b60,2016-04-18,2022-03-18,,,,5.1723705451101,52.151904680738,POINT (5.172371 52.151905)
04bf6653-364e-4f56-8da7-940876c888ec,,,G6,,PLACED,[ ],W,Gruttoweide,,,346286072.0,2024-03-01,Wageningen,GM0289,Wageningen,,https://wegkenmerken.ndw.nu/api/images/4a718ad5-b7bb-4f1e-97b9-590c2a870c2b,2017-02-02,2022-02-03,,,,5.6543050923763,51.978028074251,POINT (5.654305 51.978028)
04c110e8-68e9-425b-94f0-54919909a2d2,,,G6,,PLACED,[ ],N,Wolbertsmate,,,409399126.0,2024-03-01,Zwolle,GM0193,Zwolle,,https://wegkenmerken.ndw.nu/api/images/01364a83-5374-4da2-871c-89aad4c36baa,2016-04-13,2022-02-24,,,,6.1213896181345,52.484324520589,POINT (6.12139 52.484325)
04c79b9e-1ab1-4662-b2f5-e7a861557419,,,G6,,PLACED,[ ],O,Hertespoor,,,338321034.0,2024-03-01,Barneveld,GM0203,Barneveld,,https://wegkenmerken.ndw.nu/api/images/0ab5a92d-726d-413d-bce6-86394a45fc90,2016-07-08,2022-08-09,,,,5.5927935232074,52.133430526456,POINT (5.592794 52.133431)
04ddf7e1-4d35-4091-839e-fbfa38ad17ea,,,G6,,PLACED,[ ],W,Den Oven,,,334283056.0,2024-03-01,Rhenen,GM0340,Rhenen,,https://wegkenmerken.ndw.nu/api/images/c1069850-87fb-4d69-b780-bb162b3fdbc1,2016-08-19,2022-09-22,,,,5.5632658067065,51.966172908558,POINT (5.563266 51.966173)
04dee90b-8b0b-4702-9bf4-7b57d3fcea5f,,,G6,,PLACED,[ ],OZO,Wim Sonneveldstraat,,,346287037.0,2025-09-01,Wageningen,GM0289,Wageningen,,https://wegkenmerken.ndw.nu/api/images/c7130dfa-a4e8-415b-a30b-ff01c63ef7fa,2017-01-27,2025-09-16,,,,5.6523687218575,51.980678364214,POINT (5.652369 51.980678)
04e3c83b-4d7e-4c14-9503-909e98f676c3,,,G6,,PLACED,[ ],Z,Koldakker,,,600871236.0,2024-03-01,Assen,GM0106,Assen,,https://wegkenmerken.ndw.nu/api/images/8047a140-b676-4927-b4bb-04a76002c1b9,2016-09-05,2022-07-11,,,,6.5632441684044,53.014134492554,POINT (6.563244 53.014134)
04e70cd9-df86-48e5-a32d-ef282fefb73d,,,G6,,PLACED,[ ],W,Isebrandtsheerd,,,470569032.0,2024-03-01,Groningen,GM0014,Groningen,,https://wegkenmerken.ndw.nu/api/images/a1fc852b-df8e-4da4-b536-8fdd27e8dd48,2016-11-01,2022-09-12,,,,6.59094222118,53.244773726631,POINT (6.590942 53.244774)
04e7f9cf-2642-439c-a441-f2b75128e8d9,,,G6,,PLACED,[ ],O,Kruidenlaan,,,319197068.0,2024-03-01,Meierijstad,GM1948,Sint-Oedenrode,,https://wegkenmerken.ndw.nu/api/images/ca718452-8d4e-4820-baa3-3a624e9b9b1a,2016-09-29,2022-05-13,,,,5.4569754840156,51.578380346943,POINT (5.456975 51.57838)
04eb7324-b983-46ec-bca8-0bebf11f60ab,,,G6,,PLACED,[ ],N,Geerberg,,,178183004.0,2024-03-01,Roosendaal,GM1674,Roosendaal,,https://wegkenmerken.ndw.nu/api/images/1a4c67a2-c431-4031-82ce-dc0ad47a06c0,2016-01-28,2022-03-15,,,,4.4368969626953,51.512804637772,POINT (4.436897 51.512805)
04ed0f3b-d326-4b33-aab9-cce4b32b141b,,,G6,,PLACED,[ ],O,Kettingpol,,,408266032.0,2024-03-01,Zevenaar,GM0299,Herwen,,https://wegkenmerken.ndw.nu/api/images/1cd79d17-e067-42cb-a027-87f8d0e67e32,2016-09-30,2022-03-16,,,,6.0994941566587,51.885721441617,POINT (6.099494 51.885721)
04ed8883-0c1b-4858-9c8f-729f31cc922f,,,G6,,PLACED,[ ],Z,Julianastraat,,,600371449.0,2024-03-01,Capelle aan den IJssel,GM0502,Capelle aan den IJssel,,https://wegkenmerken.ndw.nu/api/images/85564e6f-df4c-4af4-ba45-399368899b9b,2022-02-04,2022-02-04,,,,4.5855983145799,51.922366953314,POINT (4.585598 51.922367)
04fba60b-8eb2-49a6-8dd1-712f54de7bff,,,G6,,PLACED,[ ],O,Notenborg,,,357029031.0,2024-03-01,Maastricht,GM0935,Maastricht,,https://wegkenmerken.ndw.nu/api/images/34c1f779-3ed3-4a96-a5df-653d57799f89,2016-09-28,2022-09-07,,,,5.7268310115625,50.823972780781,POINT (5.726831 50.823973)
04fe8bb4-8a7e-4fa0-926f-5a0e3e133529,,,G6,ZE,PLACED,[ ],W,Appelgaard,,,335272049.0,2025-08-01,Neder-Betuwe,GM1740,Ochten,,https://wegkenmerken.ndw.nu/api/images/7524b751-40c4-4596-ab84-280ae378c39d,2016-01-15,2025-08-18,,,,5.5699211108469,51.914923214474,POINT (5.569921 51.914923)
05021917-4e84-417d-a39f-05349c42090e,,,G6,,PLACED,[ ],O,Abdis Gijsbertastraat,,,600394673.0,2024-03-01,'s-Gravenhage,GM0518,'s-Gravenhage,,https://wegkenmerken.ndw.nu/api/images/e3368dd0-b5ac-4b91-9e57-a1d8a5ddd8d8,2020-11-10,2022-10-11,,,,4.2477479753784,52.028962911905,POINT (4.247748 52.028963)
050d0baf-d8dc-457e-9faa-d431033faa99,,,G6,,PLACED,[ ],N,Bongaertslaan,,,394042015.0,2024-03-01,Heerlen,GM0917,Heerlen,,https://wegkenmerken.ndw.nu/api/images/6aa49d47-3912-4bc5-a21e-59f91720e633,2016-06-02,2022-03-04,,,,5.9901142597732,50.877801616136,POINT (5.990114 50.877802)
050d3c52-219a-474a-a73e-85e8df538840,,,G6,,PLACED,[ ],Z,Tesjeslaan,,,399407192.0,2024-03-01,Zwolle,GM0193,Zwolle,,https://wegkenmerken.ndw.nu/api/images/d7cfa86f-e46a-4536-b925-3495e2e8df31,2016-04-08,2022-02-23,,,,6.0450899739968,52.520369795607,POINT (6.04509 52.52037)
050e5e82-4242-4c0a-9ff4-5c1c8445f907,,,G6,,PLACED,[ ],O,Deelenstraat,,,342178027.0,2024-03-01,Helmond,GM0794,Helmond,,https://wegkenmerken.ndw.nu/api/images/1d30a79b-968d-4cbb-8840-8c849d12dd38,2016-01-27,2022-01-25,,,,5.6199051900893,51.490463627904,POINT (5.619905 51.490464)
0515e9d7-ef3f-4499-b267-fc3ccb251fd1,,,G6,,PLACED,[ ],O,1e Bottelroosstraat,,,324162041.0,2024-03-01,Eindhoven,GM0772,Eindhoven,,https://wegkenmerken.ndw.nu/api/images/5fbb9515-d122-46c4-8dbd-bcf5bc076961,2016-08-25,2022-08-08,,,,5.4946234372883,51.4192614041,POINT (5.494623 51.419261)
051c25d6-4d30-4517-9ff6-60cac18c7b36,,,G6,,PLACED,[ ],O,'t Plankenpad,,,245387002.0,2024-03-01,Landsmeer,GM0415,Landsmeer,,https://wegkenmerken.ndw.nu/api/images/e49f0dc8-484f-456f-a52d-23dec642ee77,2016-05-18,2022-03-22,,,,4.910391780984,52.429328716647,POINT (4.910392 52.429329)
051e8ba3-c80a-4c55-a75f-562b300fc727,,,G6,,PLACED,[ ],N,Ringoven,,,601153793.0,2024-03-01,Roermond,GM0957,Roermond,,https://wegkenmerken.ndw.nu/api/images/2de3d174-b86f-4ed4-9b50-864607a4070d,2016-04-11,2022-06-10,,,,6.0153162625509,51.195926994711,POINT (6.015316 51.195927)
052062b0-a15b-4791-b892-798aa3ea7ab6,,,G6,,PLACED,[ ],W,Craneveldstraat,,,419153036.0,2024-03-01,Venlo,GM0983,Venlo,,https://wegkenmerken.ndw.nu/api/images/2e3793e9-9517-4546-90cd-e61ccf1909c1,2016-03-17,2022-01-13,,,,6.1751559623743,51.376215355653,POINT (6.175156 51.376215)
0524a266-d802-4654-82fc-9b95cc920b64,,,G6,,PLACED,[ ],N,Adelheidstraat,,,600379936.0,2024-03-01,Gooise Meren,GM1942,Bussum,,https://wegkenmerken.ndw.nu/api/images/e359d518-5d53-4ce0-89e7-91377268264a,2016-07-06,2022-06-20,,,,5.1803282689913,52.275262097775,POINT (5.180328 52.275262)
05299db2-236e-45ae-846c-6833991788a5,,,G6,,PLACED,[ ],N,Beatrixstraat,,,82226041.0,2024-03-01,Schouwen-Duiveland,GM1676,Burgh-Haamstede,,https://wegkenmerken.ndw.nu/api/images/04a185d4-0118-46a8-a794-9753a3e28110,2016-09-21,2022-10-06,,,,3.7423927788038,51.695029897146,POINT (3.742393 51.69503)
052d15de-e199-42e2-8846-ff36afef8e34,,,G6,,PLACED,[ ],Z,Koekamp,,,168289099.0,2024-03-01,Delft,GM0503,Delft,,https://wegkenmerken.ndw.nu/api/images/66bb10c3-7afb-4eca-aec2-f0f73052ac70,2016-03-02,2022-06-30,,,,4.3585807912529,51.985341059511,POINT (4.358581 51.985341)
0530d80e-3214-466b-917a-8053285d59c4,,,G6,,PLACED,[ ],Z,Regnerus Praediniusstraat,,,460588018.0,2024-03-01,Het Hogeland,GM1966,Winsum,,https://wegkenmerken.ndw.nu/api/images/7d4b177e-75bb-4c25-86f6-68972039aea8,2018-06-19,2022-06-22,,,,6.5145005587154,53.330647564157,POINT (6.514501 53.330648)
053251e3-0509-400e-8aee-fde0073a8495,,,G6,,PLACED,[ ],N,Sleutelbloemplein,,,601029425.0,2024-03-01,Papendrecht,GM0590,Papendrecht,,https://wegkenmerken.ndw.nu/api/images/b3a541c5-2d7c-4a8a-a795-59a30c5546f1,2016-01-20,2022-05-10,,,,4.6941740049538,51.837690605173,POINT (4.694174 51.837691)
0541c15b-2fc6-43f2-a66d-de5ef3a59905,,,G6,,PLACED,[ ],Z,Alblas,,,293358092.0,2024-03-01,Huizen,GM0406,Huizen,,https://wegkenmerken.ndw.nu/api/images/a21d51f2-89f4-47bd-a950-bd86f80cb0fe,2016-03-17,2022-06-07,,,,5.2654193536821,52.300080962478,POINT (5.265419 52.300081)
05428e8c-cfe5-497a-96af-fdc77abb4b95,,,G6,,PLACED,[ ],O,Tellerswerft,,,600801531.0,2024-03-01,Nijkerk,GM0267,Nijkerk,,https://wegkenmerken.ndw.nu/api/images/674d4a87-79bd-4ce1-a07f-8dcff1d694d1,2016-09-15,2022-10-18,,,,5.4652278445606,52.215512699761,POINT (5.465228 52.215513)
054a1b87-a0c9-4267-a8c6-40a01f1d8c33,,,G6,,PLACED,[ ],Z,Horst,,,353192023.0,2024-03-01,Gemert-Bakel,GM1652,Gemert,,https://wegkenmerken.ndw.nu/api/images/738e7832-16d6-4f9e-9b6f-e4c25310a238,2016-05-31,2022-04-11,,,,5.7029284960504,51.556330811416,POINT (5.702928 51.556331)
055096d0-5b26-4204-8275-68093f3a9782,,,G6,,PLACED,[ ],W,Gagelrijs,,,245201065.0,2024-03-01,Gilze en Rijen,GM0784,Rijen,,https://wegkenmerken.ndw.nu/api/images/75334d6c-ccab-48fa-a5a0-3fbc5165dc91,2017-01-17,2022-02-01,,,,4.9211902192743,51.594125439774,POINT (4.92119 51.594125)
0550cdf4-c86b-4b5a-b068-50b33762afc1,,,G6,,PLACED,[ ],Z,Kapittelweg,,,601281392.0,2024-12-01,IJsselstein,GM0353,IJsselstein,,https://wegkenmerken.ndw.nu/api/images/477749b9-e6ff-4cbe-b167-013000cecd99,2016-07-26,2022-07-22,,,,5.0365795049289,52.026807629507,POINT (5.03658 52.026808)
0559de9e-591e-4ef3-b396-040b0ea92d81,,,G6,,PLACED,[ ],Z,Buurserstraat,,,515335028.0,2024-03-01,Enschede,GM0153,Enschede,,https://wegkenmerken.ndw.nu/api/images/1808703b-6e1e-4976-b0b7-e6de09fe521c,2016-10-06,2022-10-07,,,,6.8883608609179,52.188557829867,POINT (6.888361 52.188558)
0563f8fe-f71f-429e-827e-090e4869345a,,,G6,,PLACED,[ ],O,Trappendaal,,,356029007.0,2024-03-01,Maastricht,GM0935,Maastricht,,https://wegkenmerken.ndw.nu/api/images/fff6c317-fd6e-43ad-8a53-8e33f13e3729,2016-09-28,2022-09-07,,,,5.7211805448718,50.824327582817,POINT (5.721181 50.824328)
0564dab0-ca15-4eaa-a90b-f4f9e928b173,,,G6,,PLACED,[ ],Z,Chilipad,,,,,Delft,GM0503,Delft,,https://wegkenmerken.ndw.nu/api/images/c5a77ce6-15d7-4906-81c1-bebb4c6425e0,2016-03-03,2022-06-28,,,,4.3510296178312,51.983504885996,POINT (4.35103 51.983505)
0564f315-be37-4e54-b7c2-ece0c9de31d5,,,G6,,PLACED,"[ { ""type"": ""VRIJ"", ""text"": ""Bouwverkeer verboden"" } ]",Z,Juliana van Stolbergstraat,,,173272010.0,2024-03-01,Schiedam,GM0606,Schiedam,,https://wegkenmerken.ndw.nu/api/images/685b4395-a969-4c5f-89af-4eee18de151b,2016-06-24,2022-08-16,,,,4.3933487804426,51.910018322738,POINT (4.393349 51.910018)
056b69dd-21ce-4088-9178-0ae1ddb34681,,,G6,,PLACED,[ ],O,Pontonniersweg,,,,,Papendrecht,GM0590,Papendrecht,,https://wegkenmerken.ndw.nu/api/images/60d7b21b-e929-4af3-95df-14ae837b27fa,2016-01-19,2022-05-05,,,,4.687579513496,51.823150270435,POINT (4.68758 51.82315)
0570c5c7-5ad3-4f36-a457-c681f7024cec,,,G6,,PLACED,[ ],N,Kogerwatering,,,229393052.0,2024-03-01,Zaanstad,GM0479,Koog aan de Zaan,,https://wegkenmerken.ndw.nu/api/images/6bf88bb2-a0ec-43c5-8b13-b99b07900bc2,2016-09-07,2022-09-29,,,,4.796466334416,52.456615607751,POINT (4.796466 52.456616)
05793c9d-6c53-4841-a3b9-5b5e57459bb1,,,G6,,PLACED,[ ],Z,Markt,,,402397143.0,2024-03-01,Hattem,GM0244,Hattem,,https://wegkenmerken.ndw.nu/api/images/fd167e15-b331-4d30-8ec2-89088388688b,2020-11-23,2022-12-13,,,,6.0697751656317,52.474182378959,POINT (6.069775 52.474182)
057e0ca7-d73c-4fe8-9101-22f5d635978b,,,G6,,PLACED,[ ],O,Waterweegbree,,,172299040.0,2024-03-01,'s-Gravenhage,GM0518,'s-Gravenhage,,https://wegkenmerken.ndw.nu/api/images/141b922a-7042-4b78-aace-7ebbaa62a8ae,2016-09-16,2022-10-17,,,,4.3857884133691,52.030474135995,POINT (4.385788 52.030474)
057fade8-6f52-45d3-8c9b-ff58649821d7,,,G6,,PLACED,[ ],O,Markerichtersveld,,,601159526.0,2024-03-01,Apeldoorn,GM0200,Apeldoorn,,https://wegkenmerken.ndw.nu/api/images/6038ec24-5582-46c3-b198-b0f0172eaf52,2016-11-29,2022-11-29,,,,6.0015496389618,52.186644149098,POINT (6.00155 52.186644)
0588d91f-8e49-49ac-a371-1cdf37257714,,,G6,,PLACED,[ ],W,Hannie Schaftrode,,,600251837.0,2024-03-01,Zoetermeer,GM0637,Zoetermeer,,https://wegkenmerken.ndw.nu/api/images/1608afcf-ebe5-4173-8844-60b807b5c844,2016-07-14,2022-08-02,,,,4.4769309277143,52.067092778669,POINT (4.476931 52.067093)
058d5458-a742-4705-bdf1-ecb5bcf65e06,,,G6,,PLACED,[ ],N,Hambeukerboord,,,396040015.0,2024-03-01,Heerlen,GM0917,Heerlen,,https://wegkenmerken.ndw.nu/api/images/df8289f1-b9c3-4d84-baac-d779cc92b501,2016-06-06,2022-03-04,,,,6.000299085375,50.869107228198,POINT (6.000299 50.869107)
058e2a61-31c9-46bc-b25e-c3169204c502,,,G6,,PLACED,[ ],O,G. Schipperstraat,,,600779493.0,2024-03-01,Gooise Meren,GM1942,Naarden,,https://wegkenmerken.ndw.nu/api/images/72d10450-0d09-4b87-8faa-31141846a117,2016-07-14,2022-06-22,,,,5.1519710096287,52.297649472062,POINT (5.151971 52.297649)
05a809eb-ee3b-4b0f-9e28-712975897a2c,,,G6,,PLACED,[ ],W,Schoutenhoek,,,343216027.0,2024-03-01,Maashorst,GM1991,Uden,,https://wegkenmerken.ndw.nu/api/images/a8472bca-0d87-4088-a6de-24531d9d6cd7,2016-04-07,2022-02-28,,,,5.6285822131609,51.664250448428,POINT (5.628582 51.66425)
05a93ee2-ff37-4316-8cd1-0b81c33e8c6b,,,G6,,PLACED,[ ],N,Amethist,,,184301047.0,2024-03-01,Zoetermeer,GM0637,Zoetermeer,,https://wegkenmerken.ndw.nu/api/images/7642a50a-9350-4de9-9a97-a40eabf39e3c,2016-07-21,2022-07-28,,,,4.4731810600371,52.040626056663,POINT (4.473181 52.040626)
05aa70ee-03da-4145-8a38-9851e5c17397,,,G6,,PLACED,[ ],O,Hoekakker,,,219203059.0,2024-03-01,Breda,GM0758,Breda,,https://wegkenmerken.ndw.nu/api/images/a74ac9fa-4eac-44da-ad3c-00c2f2f95482,2017-08-24,2022-08-24,,,,4.7351922811589,51.60365951967,POINT (4.735192 51.60366)
05ad727b-5277-4ef4-9ee0-b0d28fe7c750,,,G6,,PLACED,[ ],N,Haeskensdaal,,,357029071.0,2024-03-01,Maastricht,GM0935,Maastricht,,https://wegkenmerken.ndw.nu/api/images/eb59c122-e86e-4c9d-bdbe-71745247d596,2016-09-28,2022-09-07,,,,5.722967476319,50.821961635636,POINT (5.722967 50.821962)
05bdd810-559a-4702-8a65-7e3f63eb94ac,,,G6,,PLACED,[ ],N,Delta,,,293358116.0,2024-03-01,Huizen,GM0406,Huizen,,https://wegkenmerken.ndw.nu/api/images/9d1d531d-9cca-4fd5-8722-d630d505868c,2016-03-17,2022-06-07,,,,5.2641444844166,52.300208806421,POINT (5.264144 52.300209)
05c27686-06f8-4ac0-9f1d-f48ba256486a,,,G6,,PLACED,[ ],N,Eikenhorst,,,,,Alphen Aan Den Rijn,GM0484,Alphen Aan Den Rijn,,https://wegkenmerken.ndw.nu/api/images/76b8fafd-eee3-4a36-a708-1c572986cbfd,2016-06-06,2022-07-15,,,,4.6693887251593,52.153924753164,POINT (4.669389 52.153925)
05cbc42b-e331-420f-8cd8-205be54436ac,,,G6,,PLACED,[ ],Z,Greppelland,,,321339093.0,2024-03-01,Nijkerk,GM0267,Nijkerk,,https://wegkenmerken.ndw.nu/api/images/0ed4bc6d-28fe-4c92-8fd6-d9bd39527aeb,2016-09-15,2022-10-18,,,,5.4702939452474,52.214302619118,POINT (5.470294 52.214303)
05cbf89f-d1a5-44c6-8a69-feeb460d47f1,,,G6,,PLACED,[ ],O,Eendenest,,,267295016.0,2024-03-01,Nieuwegein,GM0356,Nieuwegein,,https://wegkenmerken.ndw.nu/api/images/6db02b4f-946b-4290-900b-281ed599e754,2018-02-14,2022-03-03,,,,5.0760893392662,52.01803252471,POINT (5.076089 52.018033)
05d27978-5c11-416b-a1de-cada8aa0c9a4,,,G6,,PLACED,[ ],W,Seychellen,,,274304020.0,2024-03-01,Utrecht,GM0344,Utrecht,,https://wegkenmerken.ndw.nu/api/images/7ed67e36-1262-4f66-8924-07b3a2a6a194,2021-04-08,2022-03-14,,,,5.1291110837244,52.059564446282,POINT (5.129111 52.059564)
05dcf323-22c4-4f6a-b01f-f21888ac45b7,,,G6,,PLACED,[ ],O,Bieslookstraat,,,471567037.0,2024-03-01,Groningen,GM0014,Groningen,,https://wegkenmerken.ndw.nu/api/images/d0144dc5-294b-4ce2-b6ff-94eb94086150,2016-10-31,2022-09-12,,,,6.601361211864,53.232945474641,POINT (6.601361 53.232945)
05de5c4a-da28-46f3-a0bd-759b9dfb10b4,,,G6,,PLACED,[ ],O,Stoelendans,,,,,Capelle Aan Den Ijssel,GM0502,Capelle Aan Den Ijssel,,https://wegkenmerken.ndw.nu/api/images/4c6e8f14-ecb3-4e4f-8ccf-d8ab4f883be4,2020-03-03,2022-02-10,,,,4.5724187789321,51.947680345541,POINT (4.572419 51.94768)
05df4fd1-2874-4486-97c1-625589e8cbc1,,,G6,,PLACED,[ ],O,Bachrode,,,600727990.0,2024-03-01,Zoetermeer,GM0637,Zoetermeer,,https://wegkenmerken.ndw.nu/api/images/33760dec-6b8e-48ae-a64c-cfb2dbcedeb9,2016-07-12,2022-08-01,,,,4.4686602953498,52.065933508512,POINT (4.46866 52.065934)
05ead653-752b-4911-b353-9777589f06c1,,,G6,,PLACED,[ ],W,Jol,,,380503043.0,2024-03-01,Heerenveen,GM0074,Heerenveen,,https://wegkenmerken.ndw.nu/api/images/759cd55d-92a2-4c58-8afe-34ab219ee396,2016-11-07,2022-09-20,,,,5.910657907511,52.952835127362,POINT (5.910658 52.952835)
05f144a4-d9ea-4f2f-bfa2-c7f508f6758b,,,G6,,PLACED,[ ],O,Architect Oudkade,,,154305003.0,2024-03-01,'s-Gravenhage,GM0518,'s-Gravenhage,,https://wegkenmerken.ndw.nu/api/images/d34550e1-5c41-47b2-ba9b-b8ae628a463a,2016-09-06,2022-10-11,,,,4.2550112375277,52.057994538322,POINT (4.255011 52.057995)
05fb1117-f239-4763-8b16-5fcad4e03890,,,G6,,PLACED,[ ],N,Gamanderberg,,,178183073.0,2024-03-01,Roosendaal,GM1674,Roosendaal,,https://wegkenmerken.ndw.nu/api/images/c6efe1a4-3d16-4f78-800f-41898583112d,2016-01-28,2022-03-15,,,,4.4379320493595,51.512847123575,POINT (4.437932 51.512847)
05fbb359-9ecf-4095-add1-427019811ddd,TECH-GM0439-000133,,G6,,PLACED,[ ],O,Walakker,,,255405086.0,2025-09-01,Purmerend,GM0439,Purmerend,,https://wegkenmerken.ndw.nu/api/images/c1f7e13d-cccb-4857-b5c1-f846b21158d4,2020-01-10,2025-10-03,,,,4.986489447195933,52.51081422837075,POINT (4.986489 52.510814)
06039168-04fa-4af3-8aae-1f6e4a62162b,,,G6,,PLACED,[ ],N,Kuiperserf,,,216334014.0,2024-03-01,Nieuwkoop,GM0569,Ter Aar,,https://wegkenmerken.ndw.nu/api/images/8047820f-c983-436e-a9a4-c0a185b0df3e,2016-10-25,2022-10-11,,,,4.703450549565,52.190333634804,POINT (4.703451 52.190334)
06091c37-bca6-43a6-b1d9-e26d1afa7059,,,G6,,PLACED,[ ],N,Ariensware,,,409398032.0,2024-03-01,Zwolle,GM0193,Zwolle,,https://wegkenmerken.ndw.nu/api/images/84614b22-03b8-4d6e-9bbc-8db160c893c3,2016-04-13,2022-02-19,,,,6.1185650974206,52.47990800842,POINT (6.118565 52.479908)
060a52c7-1c00-4313-a334-cb8a3bdd353e,,,G6,,PLACED,[ ],O,De Grutto,,,601001441.0,2024-03-01,Almelo,GM0141,Almelo,,https://wegkenmerken.ndw.nu/api/images/8784c85b-c3e3-49cc-a008-18dd9c1bb8a2,2016-10-31,2022-11-11,,,,6.6359701611476,52.336939894758,POINT (6.63597 52.33694)
060aa74d-2b54-442c-a0d3-eb0bd4536905,,,G6,,PLACED,[ ],O,Marishof,,,325339009.0,2024-03-01,Nijkerk,GM0267,Nijkerk,,https://wegkenmerken.ndw.nu/api/images/408d693d-01e1-4c1d-8b51-fc43e1b6a65b,2016-09-16,2022-10-21,,,,5.4977998955134,52.214546707631,POINT (5.4978 52.214547)
06128138-5669-46f0-8308-5d060a18a0e6,,,G6,,PLACED,[ ],N,Rijnstraat,,,214251048.0,2024-03-01,Dordrecht,GM0505,Dordrecht,,https://wegkenmerken.ndw.nu/api/images/f3dc9287-3296-47b8-86e9-8fc7c8e0c665,2018-03-07,2022-04-19,,,,4.693619191278,51.818881453642,POINT (4.693619 51.818881)
0619a5b9-602a-4ac6-a93a-df2dc942d9a8,,,G6,,PLACED,[ ],W,Johan Frisostraat,,,319196046.0,2024-03-01,Meierijstad,GM1948,Sint-Oedenrode,,https://wegkenmerken.ndw.nu/api/images/2df8cb53-3df3-4c6c-9aa4-f292ba4b6718,2016-09-29,2022-05-13,,,,5.456193310332,51.571669043385,POINT (5.456193 51.571669)
061f2c33-0bf4-4027-b5ad-694f7b4da03d,,,G6,,PLACED,[ ],O,Duinviooltje,,,176335076.0,2024-03-01,Katwijk,GM0537,Katwijk,,https://wegkenmerken.ndw.nu/api/images/0834b35d-ceaf-46a8-971a-1b1d08013312,2016-04-12,2022-04-11,,,,4.4119051804254,52.19214025753,POINT (4.411905 52.19214)
0623e100-9f7b-4e88-947f-c17f8cfeabb3,,,G6,,PLACED,[ ],Z,Haydnstraat,,,329299085.0,2024-03-01,Veenendaal,GM0345,Veenendaal,,https://wegkenmerken.ndw.nu/api/images/bd84108f-e0fb-457f-897c-78031f1ff2fc,2016-12-21,2022-01-10,,,,5.5305867220733,52.037370118121,POINT (5.530587 52.03737)
06286da3-d23f-4e0e-8df1-c1f15bcaaa4a,,,G6,,PLACED,[ ],O,Jan Campertweg,,,328297023.0,2024-03-01,Veenendaal,GM0345,Veenendaal,,https://wegkenmerken.ndw.nu/api/images/3133a153-6f37-40c6-a3a1-e3fe684c7f03,2016-12-20,2022-01-06,,,,5.5236932307867,52.028770196037,POINT (5.523693 52.02877)
0629f033-6618-46bc-8a7c-673c4d27659d,,,G6,,PLACED,[ ],N,Turfschip,,,600806779.0,2024-03-01,Veenendaal,GM0345,Veenendaal,,https://wegkenmerken.ndw.nu/api/images/73b3b172-68bc-410b-b155-3703f4066d9f,2016-12-20,2021-12-23,,,,5.5382739549455,52.025665180726,POINT (5.538274 52.025665)
062aa5b8-c8ef-4bd0-aa52-02fa9c969894,,,G6,,PLACED,[ ],Z,Bergstraat,,,391224033.0,2024-03-01,Gennep,GM0907,Gennep,,https://wegkenmerken.ndw.nu/api/images/638af979-c3b1-4fa6-93f2-98a001214f55,2016-08-29,2022-08-10,,,,5.975817460401,51.694751122276,POINT (5.975817 51.694751)
062d09c0-e52f-4089-a340-66f3495a8232,,,G6,,PLACED,[ ],N,Jonkerstraat,,,600841167.0,2024-03-01,Apeldoorn,GM0200,Apeldoorn,,https://wegkenmerken.ndw.nu/api/images/034acbd2-c690-4552-bdf9-04c7d73707ef,2016-12-02,2022-12-02,,,,5.9640308850523,52.210357855184,POINT (5.964031 52.210358)
06399e45-2c6c-44ae-8ab4-211e9207598b,,,G6,,PLACED,[ ],Z,van Alkemadestraat,,,152287109.0,2024-03-01,Westland,GM1783,De Lier,,https://wegkenmerken.ndw.nu/api/images/a498de1e-ca3b-42f7-8640-e1b199107db7,2016-01-20,2022-02-15,,,,4.237817795676,51.976654811327,POINT (4.237818 51.976655)
064142a5-a399-47f1-9cb3-40b1fa7dc6f7,,,G6,,PLACED,[ ],Z,Slagenland,,,222401009.0,2024-03-01,Zaanstad,GM0479,Assendelft,,https://wegkenmerken.ndw.nu/api/images/f853ef3c-c80d-4dc1-b77b-45a832fb3f05,2016-08-08,2022-09-10,,,,4.7426584853584,52.490632663369,POINT (4.742658 52.490633)
0647278d-2165-430c-ae84-73f4772f22cd,,,G6,,PLACED,[ ],N,Straalsteen,,,233439041.0,2024-03-01,Dijk en Waard,GM1980,Heerhugowaard,,https://wegkenmerken.ndw.nu/api/images/ee617f38-e50d-4498-9599-77173a0d73b3,2016-07-07,2022-05-11,,,,4.8196157894083,52.662221955684,POINT (4.819616 52.662222)
064a045d-918d-4daf-bdbe-91b27626adba,,,G6,,PLACED,[ ],Z,Vlietpolderstraat,,,601211942.0,2024-05-01,Gouda,GM0513,Gouda,,https://wegkenmerken.ndw.nu/api/images/09a9fc87-4ac4-4b6a-8216-58d70851b5a2,2015-12-28,2022-06-14,,,,4.7477351793864,52.010249356555,POINT (4.747735 52.010249)
0653460d-4951-40db-8d2d-91ed42b21ec7,,,G6,,PLACED,[ ],Z,Colijnstraat,,,391367010.0,2024-03-01,Epe,GM0232,Epe,,https://wegkenmerken.ndw.nu/api/images/35eee8d2-edc1-4e0e-b7d9-07c471c408e2,2016-07-19,2022-06-10,,,,5.9851951735961,52.338238428871,POINT (5.985195 52.338238)
065491e8-cbc9-4fdd-8565-6eff21a1d357,,,G6,,PLACED,[ ],Z,Delflandstraat,,,173303058.0,2024-03-01,Pijnacker-Nootdorp,GM1926,Nootdorp,,https://wegkenmerken.ndw.nu/api/images/663b7343-c802-4735-ac28-eb92b03bc485,2016-02-03,2022-05-18,,,,4.3942127243209,52.049963235119,POINT (4.394213 52.049963)
0655d023-043c-45e8-81c5-1502650d7d97,,,G6,,PLACED,[ ],W,Ravehorst,,,150293002.0,2024-03-01,Westland,GM1783,Honselersdijk,,https://wegkenmerken.ndw.nu/api/images/241e0fa2-3abc-4b1c-8a1b-f8693ee24917,2016-01-18,2022-02-09,,,,4.2288521085977,52.004059975664,POINT (4.228852 52.00406)
065791bb-f561-4824-98e7-4b0bce200efa,,,G6,,PLACED,[ ],Z,Breeland,,,194359050.0,2024-03-01,Noordwijk,GM0575,De Zilk,,https://wegkenmerken.ndw.nu/api/images/caa27494-7dc6-4b46-a5d1-2a7faa6612b4,2016-05-17,2022-06-09,,,,4.543515113575,52.304063036245,POINT (4.543515 52.304063)
065f6750-a808-4e0a-aba0-3c39d845aa03,,,G6,,PLACED,[ ],O,De Taling,,,356406067.0,2024-03-01,Dronten,GM0303,Dronten,,https://wegkenmerken.ndw.nu/api/images/f36eba21-5f3f-49f9-95eb-57c56d7c4a3b,2016-02-26,2022-02-24,,,,5.7296288605633,52.518000266957,POINT (5.729629 52.518)
06678962-e818-4e21-adf8-6a3764f8b17e,,,G6,,PLACED,[ ],Z,Sweelinckstraat,,,255254093.0,2024-03-01,Gorinchem,GM0512,Gorinchem,,https://wegkenmerken.ndw.nu/api/images/595f13e7-9b6a-4133-9915-a670dc9899df,2016-05-26,2022-07-06,,,,4.9913243707464,51.832084081177,POINT (4.991324 51.832084)
067259e8-e90c-4be0-a7eb-5d814641aafa,,,G6,,PLACED,[ ],Z,Van den Broek-erf,,,219248029.0,2024-03-01,Dordrecht,GM0505,Dordrecht,,https://wegkenmerken.ndw.nu/api/images/8c524207-ef71-4c55-8ce5-835bd1ad546e,2016-03-10,2022-05-09,,,,4.729049355826,51.803506134278,POINT (4.729049 51.803506)
0674d090-bfc7-4db2-89c0-ec600963745d,,,G6,,PLACED,[ ],N,Ten Brinkstraat,,,300199033.0,2024-03-01,Boxtel,GM0757,Boxtel,,https://wegkenmerken.ndw.nu/api/images/d974c25c-11d9-4f19-b9c8-4b85467d22e2,2022-02-23,2022-02-23,,,,5.321796730864,51.585232278335,POINT (5.321797 51.585232)
067915a0-f23e-42de-85e5-0d5f8e1e2eb5,,,G6,,PLACED,[ ],W,Heer Halewijnburg,,,198280089.0,2024-03-01,Capelle aan den IJssel,GM0502,Capelle aan den IJssel,,https://wegkenmerken.ndw.nu/api/images/7e44dc9b-7ca7-454d-9b97-142674d0adff,2022-02-10,2022-02-10,,,,4.5788258074049,51.949661778028,POINT (4.578826 51.949662)
067d20a8-6214-4d17-9b88-5fc2c65ccb1f,,,G6,,PLACED,[ ],Z,Kraakenhof,,,525389009.0,2024-03-01,Dinkelland,GM1774,Lattrop-Breklenkamp,,https://wegkenmerken.ndw.nu/api/images/97af741d-2e22-4667-9b67-c5022545aac0,2019-11-09,2022-10-31,,,,6.975074446904,52.427069527967,POINT (6.975074 52.42707)
067d424f-332d-4e7a-bec7-48179ee162bb,,,G6,,PLACED,[ ],O,Weegbree,,,210263088.0,2024-03-01,Alblasserdam,GM0482,Alblasserdam,,https://wegkenmerken.ndw.nu/api/images/5d963dfa-c0da-4cbd-9d15-617afc38caa2,2016-10-21,2022-11-28,,,,4.667728523855,51.870320493162,POINT (4.667729 51.87032)
067d721c-de72-4154-bfbc-fa7129738066,,,G6,,PLACED,[ ],W,Koninginneweg,,,,,Bodegraven-Reeuwijk,GM1901,Bodegraven,,https://wegkenmerken.ndw.nu/api/images/79e36f3e-6b01-444a-ab76-4d9f93161f01,2017-01-05,2022-02-14,,,,4.7480533122406,52.090109273249,POINT (4.748053 52.090109)
067f1dc9-5546-44cc-93c1-b775cdb25195,,,G6,,PLACED,[ ],W,Touwslagerstraat,,,,,Best,GM0753,Best,,https://wegkenmerken.ndw.nu/api/images/e7e62b9d-d285-411b-a693-d6e868b73318,2016-12-05,2022-02-14,,,,5.3953050602832,51.507833103885,POINT (5.395305 51.507833)
06855244-6dca-4142-8f98-d6bdb2c3cf42,,,G6,,PLACED,[ ],O,Doornappel,,,319197042.0,2024-03-01,Meierijstad,GM1948,Sint-Oedenrode,,https://wegkenmerken.ndw.nu/api/images/a010f885-2897-4fba-b1b7-f03c05a3eca3,2016-09-29,2022-05-12,,,,5.4540179968125,51.577678524271,POINT (5.454018 51.577679)
06879a18-96f4-4d6e-b352-c70628c089aa,,,G6,,PLACED,[ ],W,de Havik,,,530379027.0,2024-03-01,Dinkelland,GM1774,Denekamp,,https://wegkenmerken.ndw.nu/api/images/8527a050-2273-455f-ade3-2dc79edb179e,2016-12-16,2022-11-02,,,,7.006985652955,52.385943537068,POINT (7.006986 52.385944)
0687d3f7-5453-40a3-9206-e5280a7c6050,,,G6,,PLACED,[ ],N,Groote Peel,,,249364055.0,2024-03-01,Diemen,GM0384,Diemen,,https://wegkenmerken.ndw.nu/api/images/98f18fd1-8e22-42d2-be34-7553b8b5fd97,2016-12-07,2022-11-08,,,,4.9430083043983,52.329163847106,POINT (4.943008 52.329164)
068eee26-858d-4621-915b-5e151d629566,,,G6,,PLACED,[ ],N,Bongerd,,,374243059.0,2024-03-01,Heumen,GM0252,Malden,,https://wegkenmerken.ndw.nu/api/images/4eec27f3-3c8b-48e5-a7cf-c339859e698f,2016-07-06,2022-04-30,,,,5.8573316147708,51.781496199012,POINT (5.857332 51.781496)
06921b3f-e4d8-4330-afed-fc4619e191f4,,,G6,,PLACED,[ ],Z,Lijnzaaddreef,,,164256025.0,2024-03-01,Nissewaard,GM1930,Spijkenisse,,https://wegkenmerken.ndw.nu/api/images/75e088a7-3ed9-459c-83bc-210c88083dd9,2016-05-02,2022-07-01,,,,4.3297992412258,51.835755080795,POINT (4.329799 51.835755)
069ae2d7-e37f-4eff-8ea2-5556e5e984bb,,,G6,,PLACED,[ ],O,Aletta Jacobs-erf,,,,,Dordrecht,GM0505,Dordrecht,,https://wegkenmerken.ndw.nu/api/images/3187080e-9163-4aa0-8cc9-36dbf934445f,2016-03-16,2022-05-05,,,,4.7273760001398,51.796908800085,POINT (4.727376 51.796909)
069c4070-86da-4a95-b7b3-7de57c8f962c,,,G6,,PLACED,[ ],O,Van Doesburglaan,,,346287059.0,2025-09-01,Wageningen,GM0289,Wageningen,,https://wegkenmerken.ndw.nu/api/images/3b6d2eef-6c94-4add-b253-21ed8a57e4b3,2017-01-27,2025-09-16,,,,5.6504246082138,51.9817936224,POINT (5.650425 51.981794)
06a96b5d-a685-45a6-bbf8-e1a5b010dab5,,,G6,,PLACED,[ ],Z,Dorpsstraat,,,,,Alphen Aan Den Rijn,GM0484,Hazerswoude-Dorp,,https://wegkenmerken.ndw.nu/api/images/8c865178-2565-46c3-b517-637a42738c3f,2020-06-23,2022-07-12,,,,4.5849551648099,52.096811615842,POINT (4.584955 52.096812)
06adc007-e351-4f18-ac48-f5ae82c273ca,,,G6,,PLACED,[ ],N,Brederodelaan,,,,,Papendrecht,GM0590,Papendrecht,,https://wegkenmerken.ndw.nu/api/images/bec125db-e261-4992-b423-8fd2e87e39c3,2016-01-19,2022-05-06,,,,4.685591856358,51.826253295869,POINT (4.685592 51.826253)
06c0c219-80cc-4b3b-bb35-5ec80f22e084,,,G6,,PLACED,[ ],O,Liseiland,,,160299105.0,2024-03-01,Rijswijk,GM0603,Rijswijk,,https://wegkenmerken.ndw.nu/api/images/a7c536b2-af34-4394-82bf-9de158c31f03,2016-08-04,2022-08-31,,,,4.3012768189696,52.032861302423,POINT (4.301277 52.032861)
