id,externalId,validatedOn,rvvCode,blackCode,status,textSigns,side,roadName,roadType,roadNumber,roadSectionId,nwbVersion,countyName,countyCode,townName,bgtCode,imageUrl,firstSeenOn,lastSeenOn,expectedRemovedOn,placedOn,expectedPlacedOn,removedOn,trafficOrderUrl,longitude,latitude,geometry_wkt
00007466-a4bd-47cd-b0b8-b24685d7cc33,,,D5,R,PLACED,[ ],Z,Heistraat,,,348176149.0,2024-03-01,Helmond,GM0794,Helmond,,https://wegkenmerken.ndw.nu/api/images/cb6f5791-c99a-4477-b9e8-87578ad1a194,2016-01-18,2022-01-17,,,,,,5.6677648490988,51.482399943117,POINT (5.667765 51.4824)
0005285c-1d38-4ab2-b2a3-aa35bb5b752d,,,D5,R,PLACED,[ ],Z,Achtersloot,,,262295148.0,2024-03-01,IJsselstein,GM0353,IJsselstein,,https://wegkenmerken.ndw.nu/api/images/2b515997-5b61-435e-a252-c7cf7944ca09,2020-07-31,2022-07-22,,,,,,5.0399014557924,52.018380618135,POINT (5.039901 52.018381)
000b4f3d-6ff0-44af-abca-8c71cfe08268,,,D5,R,PLACED,"[ { ""type"": ""UIT"", ""text"": ""uitgezonderd"" } ]",O,Lippinkhofsweg,,,601147003.0,2024-03-01,Enschede,GM0153,Enschede,,https://wegkenmerken.ndw.nu/api/images/56160bca-5dc3-4f59-99ab-29b29eb345ac,2016-09-23,2023-12-04,,,,,,6.8933514994491,52.209305497121,POINT (6.893351 52.209305)
001d6128-dd72-42df-9753-a1428c4892d5,,,D5,L,PLACED,[ ],N,Haaksbergerstraat,,,498349015.0,2024-03-01,Hengelo (O),GM0164,Hengelo,,https://wegkenmerken.ndw.nu/api/images/978b0641-5651-4d7a-9552-93f625858f6b,2016-05-31,2022-04-24,,,,,,6.7709357285163,52.253321899674,POINT (6.770936 52.253322)
00204289-78de-417b-add4-96bf56ed2c39,,,D5,L,PLACED,"[ { ""type"": ""VRIJ"", ""text"": ""uitgezonderd"" } ]",N,Pater L.A. Bleysstraat,,,600912115.0,2024-03-01,Best,GM0753,Best,,https://wegkenmerken.ndw.nu/api/images/427274ad-563c-4d31-9708-b9cacd0083e6,2016-12-08,2022-02-14,,,,,,5.3957902809136,51.496698407281,POINT (5.39579 51.496698)
0021a1d9-9a1e-4af2-ad88-a791578aa6a3,,,D5,L,PLACED,[ ],ZW,Droogbak,,,243376074.0,2025-09-01,Amsterdam,GM0363,Amsterdam,,https://wegkenmerken.ndw.nu/api/images/c15b0e09-687e-480a-a847-5c107e390cb7,2022-05-16,2025-09-09,,,,,,4.8949980699969,52.380035069733,POINT (4.894998 52.380035)
0030d294-03d1-4bfb-aba8-6f0f9b84b7ec,,,D5,R,PLACED,"[ { ""type"": ""UIT"", ""text"": ""uitgezonderd"" } ]",N,Noordzeestraat,,,379416151.0,2024-03-01,Kampen,GM0166,Kampen,,https://wegkenmerken.ndw.nu/api/images/ca726974-a6cd-4df1-840c-a6f876564dbf,2016-08-30,2023-12-04,,,,,,5.9031889710601,52.559614132093,POINT (5.903189 52.559614)
0032afb5-f22f-455e-80b0-1c4218c7c643,,,D5,R,PLACED,[ ],N,J.H. de Rooystraat,,,600376568.0,2024-03-01,Best,GM0753,Best,,https://wegkenmerken.ndw.nu/api/images/1afe7fb4-f383-4ecc-b573-791c6ae3f2d1,2016-12-08,2022-02-15,,,,,,5.3942328788053,51.495374658049,POINT (5.394233 51.495375)
003a5502-ad2f-4737-8345-c1b2d3ddf5aa,,,D5,R,PLACED,[ ],N,Machlaan,,,,,Tynaarlo,GM1730,Eelde,,https://wegkenmerken.ndw.nu/api/images/7fbb13f9-db65-46da-8b66-18bed21b9061,2021-03-31,2022-04-14,,,,,,6.5875092778421,53.129276247948,POINT (6.587509 53.129276)
0051be65-120f-43dc-934b-288a245a6452,,,D5,L,PLACED,[ ],W,Trompstraat,,,236521002.0,2024-03-01,Texel,GM0448,Oudeschild,,https://wegkenmerken.ndw.nu/api/images/dd74b874-a085-4b57-bbd0-5bbea027b9bc,2020-01-21,2022-02-28,,,,,,4.8415646916802,53.034180611655,POINT (4.841565 53.034181)
0053e4b8-ec24-476c-9bfc-cc3b65193d85,,,D5,R,PLACED,[ ],Z,Looimolenweg,,,600831304.0,2024-03-01,Nijmegen,GM0268,Nijmegen,,https://wegkenmerken.ndw.nu/api/images/05e6e2c5-bff8-487e-8a36-3875a1802dd7,2016-08-15,2022-09-01,,,,,,5.8435628981038,51.836039528129,POINT (5.843563 51.83604)
005cccb2-b61d-4d91-9a98-2752b5c7212c,,,D5,L,PLACED,"[ { ""type"": ""UIT"", ""text"": ""uitgezonderd"" } ]",N,Burgemeester van Heystlaan,,,268222077.0,2024-03-01,Waalwijk,GM0867,Waalwijk,,https://wegkenmerken.ndw.nu/api/images/333bc87c-e959-4340-805c-403241b9b0bd,2016-04-19,2023-12-04,,,,,,5.0891265898182,51.690509255022,POINT (5.089127 51.690509)
005ce25a-637b-43f2-9e05-2abc32173c91,,,D5,R,PLACED,[ ],O,Hoogstraat,,,467563063.0,2024-03-01,Groningen,GM0014,Groningen,,https://wegkenmerken.ndw.nu/api/images/a2881c07-a0cb-417c-bdb5-2762e653905e,2018-09-24,2022-09-02,,,,,,6.5684366844738,53.21720908386,POINT (6.568437 53.217209)
006042d2-bb63-4f79-a4c8-ffc0f76101bf,,,D5,R,PLACED,[ ],Z,Van Asch van Wijckstraat,,,600916396.0,2024-03-01,Amersfoort,GM0307,Amersfoort,,https://wegkenmerken.ndw.nu/api/images/d1b0c934-f2be-4822-b55e-723e4bb01904,2021-04-16,2022-05-18,,,,,,5.3816889857292,52.155018338171,POINT (5.381689 52.155018)
00627409-fb35-481e-91ff-6913377b1805,,,D5,L,PLACED,[ ],N,Klaassenhof,,,601248888.0,2024-08-01,Peel en Maas,GM1894,Egchel,,https://wegkenmerken.ndw.nu/api/images/24fb5287-f1b7-495e-9442-afef9ff42312,2021-07-30,2022-07-25,,,,,,5.975397634347,51.312017730611,POINT (5.975398 51.312018)
006705b3-8859-4188-9b34-c1b9b93c0ca4,,,D5,R,PLACED,[ ],Z,Schoolstraat,,,436315009.0,2024-03-01,Bronckhorst,GM1876,Vorden,,https://wegkenmerken.ndw.nu/api/images/438a0049-12cc-4208-b08c-095f2f6e790d,2016-10-14,2022-05-03,,,,,,6.3073642510275,52.1038586311,POINT (6.307364 52.103859)
0084d25d-cc33-4257-809d-6fad4d66b558,,,D5,R,PLACED,[ ],N,Viaductweg,,,600745386.0,2024-03-01,Beverwijk,GM0375,Beverwijk,,https://wegkenmerken.ndw.nu/api/images/4fa0f0d8-9027-4923-a805-99917f69e066,2016-11-25,2022-11-24,,,,,,4.6591684149044,52.47999421757,POINT (4.659168 52.479994)
008863f1-8b57-4951-b23a-3c2dc91d9a0f,,,D5,R,PLACED,[ ],Z,Damhouderstraat,,,316167100.0,2024-03-01,Eindhoven,GM0772,Eindhoven,,https://wegkenmerken.ndw.nu/api/images/24f95baf-dfe5-4b11-b4e0-113dbeeae27b,2016-08-18,2022-08-04,,,,,,5.434309621449,51.440109390405,POINT (5.43431 51.440109)
00aac756-4dc3-443a-a6eb-be014b9ed1f3,,,D5,L,PLACED,[ ],Z,Loostraat,,,380267060.0,2024-03-01,Lingewaard,GM1705,Bemmel,,https://wegkenmerken.ndw.nu/api/images/11295067-c50d-4fb8-bfea-3b10fcbbd5b5,2016-09-22,2022-09-29,,,,,,5.8982674693363,51.89155732298,POINT (5.898267 51.891557)
00b5e2be-def8-4502-8ec9-88044645c8f6,,,D5,R,PLACED,[ ],Z,Van Renesselaan,,,210415017.0,2024-03-01,Castricum,GM0383,Castricum,,https://wegkenmerken.ndw.nu/api/images/d217dd34-0105-46fd-aa92-30a9fc2d091e,2016-05-24,2022-06-16,,,,,,4.6552158553228,52.556501936786,POINT (4.655216 52.556502)
00c445e0-953e-498d-98e3-3cbff2e8d778,,,D5,R,PLACED,"[ { ""type"": ""VRIJ"", ""text"": """" } ]",Z,Huissensedijk,,,600838404.0,2024-03-01,Lingewaard,GM1705,Huissen,,https://wegkenmerken.ndw.nu/api/images/b7918cec-49be-4e87-8d2d-d8d77a3cc817,2016-09-16,2022-10-03,,,,,,5.9329168631007,51.948343474028,POINT (5.932917 51.948343)
00d6f898-a156-4341-aa2c-a3a9a422d8ee,,,D5,L,PLACED,"[ { ""type"": ""UIT"", ""text"": ""uitgezonderd bestemmingsverkeer"" } ]",O,Mierloseweg,,,600817056.0,2024-03-01,Someren,GM0847,Lierop,,https://wegkenmerken.ndw.nu/api/images/8f5aa8f2-69fd-485c-8337-16f0e6a1a72c,2016-04-18,2023-12-04,,,,,,5.6707246335374,51.434758851398,POINT (5.670725 51.434759)
00d903e2-1dc7-4a12-a022-a47351a0e44d,,,D5,R,PLACED,[ ],ONO,Lepelkruisstraat,,,244372029.0,2025-09-01,Amsterdam,GM0363,Amsterdam,,,2025-09-09,2025-09-09,,2025-09-09,,,,4.90841649540447,52.3631947669491,POINT (4.908416 52.363195)
00e209ed-7a28-4635-ade9-3b451223e989,,,D5,R,PLACED,[ ],W,Oude Baan,,,601067044.0,2024-03-01,Zundert,GM0879,Wernhout,,https://wegkenmerken.ndw.nu/api/images/c75adb53-973a-44ef-9895-8b559a7ad3fd,2016-08-23,2022-10-05,,,,,,4.6461862580023,51.456122900203,POINT (4.646186 51.456123)
00e5baa4-2134-4c21-b5ca-1ec4667fb073,,,D5,R,PLACED,[ ],N,Dijkgraafplein,,,228371067.0,2025-09-01,Amsterdam,GM0363,Amsterdam,,https://wegkenmerken.ndw.nu/api/images/ff01cfd2-ac5d-4d12-9f49-08d6bca94658,2016-09-05,2025-09-09,,,,,,4.7865989819427,52.355409851761,POINT (4.786599 52.35541)
00f176a5-637b-4d6b-ab9c-b6c57a37fd69,,,D5,R,PLACED,[ ],NNW,Schoolstraat,,,600910260.0,2025-09-01,Amsterdam,GM0363,Amsterdam,,https://wegkenmerken.ndw.nu/api/images/1302cd64-fd8e-4a96-a812-bb71a41284e6,2018-06-26,2025-09-09,,,,,,4.8614590162047,52.359163754555,POINT (4.861459 52.359164)
00f8a97f-8459-4948-abcb-547b006fc6f1,,,D5,R,PLACED,[ ],O,Parallelweg,,,600988410.0,2024-03-01,Sittard-Geleen,GM1883,Geleen,,https://wegkenmerken.ndw.nu/api/images/bc46364c-a106-42c5-bf34-b7c955c27e32,2016-08-04,2022-09-12,,,,,,5.8235783562726,50.973116885644,POINT (5.823578 50.973117)
00f919f0-9e0f-421e-a5df-f771cb94b021,,,D5,L,PLACED,"[ { ""type"": ""VRIJ"", ""text"": ""100m"" }, { ""type"": ""VRIJ"", ""text"": ""rechtdoor via brug oversteken"" } ]",N,Zoutmanstraat,,,,,Alphen Aan Den Rijn,GM0484,Alphen Aan Den Rijn,,https://wegkenmerken.ndw.nu/api/images/3f1e988a-fe1b-4e51-8657-de3ba93975c3,2021-07-20,2022-07-18,,,,,,4.6564041920429,52.138993441896,POINT (4.656404 52.138993)
010268ff-63da-4f41-9260-ef49b958dd0f,,,D5,L,PLACED,"[ { ""type"": ""UIT"", ""text"": ""uitgezonderd"" }, { ""type"": ""VRIJ"", ""text"": ""lijndienst leveranciers"" } ]",W,Bataviaplein,,,600958750.0,2024-03-01,Lelystad,GM0995,Lelystad,,https://wegkenmerken.ndw.nu/api/images/676e4352-f41d-4555-9a29-9b1b3a9ea91a,2018-01-28,2023-12-05,,,,,,5.436679393341,52.522036383537,POINT (5.436679 52.522036)
010b7984-f1e1-4bfb-9aff-906508e24e6c,,,D5,R,PLACED,[ ],N,Groendalseweg,,,600730854.0,2024-03-01,Lansingerland,GM1621,Bleiswijk,,https://wegkenmerken.ndw.nu/api/images/a8741431-b975-41ef-baa1-0ae2c5da5df3,2016-08-26,2022-09-21,,,,,,4.5038933763461,52.025403176557,POINT (4.503893 52.025403)
0118b5fb-f375-4b99-9e50-e7dc3e9ba063,,,D5,R,PLACED,[ ],NO,Cornelis Lelylaan,,,600394263.0,2025-09-01,Amsterdam,GM0363,Amsterdam,,https://wegkenmerken.ndw.nu/api/images/a4227b4e-4efe-4a4d-8310-35a3faba87c5,2016-09-05,2025-09-09,,,,,,4.8477527093789,52.357896756676,POINT (4.847753 52.357897)
0120b7af-28d2-494c-ac9d-39f1bb4a6ffe,,,D5,R,PLACED,"[ { ""type"": ""UIT"", ""text"": ""uitgezonderd"" } ]",O,Haven,,,199356031.0,2024-03-01,Hillegom,GM0534,Hillegom,,https://wegkenmerken.ndw.nu/api/images/d2e32c50-105b-4cad-85f3-d4bbef01ab09,2016-11-28,2023-12-04,,,,,,4.5817760521887,52.289382602888,POINT (4.581776 52.289383)
0127845f-bfff-4cb1-a8a7-18bdd64df936,,,D5,R,PLACED,[ ],O,Groenhazengracht,,,600371738.0,2024-03-01,Leiden,GM0546,Leiden,,https://wegkenmerken.ndw.nu/api/images/ccd8ca9b-233a-4d87-a104-1a3f9d31a88a,2016-03-21,2022-03-27,,,,,,4.4845934222898,52.159274327568,POINT (4.484593 52.159274)
013d5758-b122-44a0-8f46-86ec067ab860,,,D5,R,PLACED,[ ],N,Prinses Beatrixstraat,,,380028083.0,2024-03-01,Gulpen-Wittem,GM1729,Gulpen,,https://wegkenmerken.ndw.nu/api/images/800f2916-de0e-449d-91d0-cbc0285e15fa,2016-12-22,2021-12-20,,,,,,5.8876870950903,50.816579521948,POINT (5.887687 50.81658)
014569f5-dc57-40e4-8258-98d91e7e5825,,,D5,R,PLACED,[ ],W,Schielands Hoge Zeedijk,,,,,Gouda,GM0513,Gouda,,https://wegkenmerken.ndw.nu/api/images/c0b94041-1d17-4d18-8257-6f6d2d79ebbc,2022-06-13,2022-06-13,,,,,,4.7029790111109,52.000804105605,POINT (4.702979 52.000804)
014d41d7-5bee-4f2a-9bb3-df2bbb52f0ea,,,D5,L,PLACED,"[ { ""type"": ""VRIJ"", ""text"": ""uitgezonderd"" } ]",N,Prinses Irenestraat,,,,,Overbetuwe,GM1734,Elst,,https://wegkenmerken.ndw.nu/api/images/e989c681-498d-45f5-9527-0a3d99d5ffb9,2016-03-01,2022-02-03,,,,,,5.846337529841,51.919495651557,POINT (5.846338 51.919496)
0158b551-d407-4dfe-8daf-0081b5cdba19,,,D5,R,PLACED,[ ],N,Dienstweg Putweg Rechts,,,600279819.0,2024-03-01,Terneuzen,GM0715,Sluiskil,,https://wegkenmerken.ndw.nu/api/images/64148a28-8767-4dad-ac57-01cb7923a5cf,2020-11-11,2022-11-12,,,,,,3.825921409514,51.292565725737,POINT (3.825921 51.292566)
016268f7-1ab7-4527-ba95-5bcda7a8c516,,,D5,L,PLACED,[ ],Z,Verlengde Huizingalaan,,,318179013.0,2024-03-01,Son en Breugel,GM0848,Son en Breugel,,https://wegkenmerken.ndw.nu/api/images/edbaeab7-590b-4f97-ba6f-74d7ffbc16e6,2016-07-18,2022-07-05,,,,,,5.451292374893,51.497985883081,POINT (5.451292 51.497986)
016ac741-6432-4c75-a01f-9179512eb0c3,,,D5,R,PLACED,[ ],Z,Buiten Kadijken,,,245373002.0,2025-09-01,Amsterdam,GM0363,Amsterdam,,https://wegkenmerken.ndw.nu/api/images/c0c3af86-0028-4483-81c0-227ebb6da614,2016-08-15,2025-09-09,,,,,,4.9165762460402,52.369000676376,POINT (4.916576 52.369001)
016b3186-55fa-4838-af77-a9bbcdf181bd,1101_1981,,D5,R,PLACED,[ ],ZZO,Laan naar Parijsch,,,283279025.0,2025-08-01,Culemborg,GM0216,Culemborg,,https://wegkenmerken.ndw.nu/api/images/62a34894-4c28-428a-866f-aa121a192575,2020-04-30,2025-08-13,,,,,,5.196572142389738,51.94508457610543,POINT (5.196572 51.945085)
017ce44b-1d2a-4c90-96f4-ce4964c150bf,,,D5,L,PLACED,"[ { ""type"": ""VRIJ"", ""text"": """" } ]",W,Lupinestraat,,,600833835.0,2024-03-01,Sittard-Geleen,GM1883,Sittard,,https://wegkenmerken.ndw.nu/api/images/60cb59de-228d-4123-82e1-7d84f488f084,2016-08-15,2022-09-15,,,,,,5.8578080979326,51.004566646252,POINT (5.857808 51.004567)
0185023e-1bbb-41dd-ac4d-9ff2bc1a1485,,,D5,L,PLACED,"[ { ""type"": ""UIT"", ""text"": ""uitgezonderd"" } ]",W,Rijnbeekstraat,,,600374421.0,2024-03-01,Venlo,GM0983,Venlo,,https://wegkenmerken.ndw.nu/api/images/9f014b16-74ab-4bf6-8562-faf899d00711,2016-04-01,2023-12-04,,,,,,6.1833776274335,51.370936985824,POINT (6.183378 51.370937)
019182ca-5e8d-407f-ba0f-3e8500fd7351,,,D5,R,PLACED,[ ],W,Oranjelaan,,,341366094.0,2024-03-01,Harderwijk,GM0243,Harderwijk,,https://wegkenmerken.ndw.nu/api/images/32834d06-7f2b-4568-870c-3b790da9e01d,2018-08-18,2022-09-28,,,,,,5.6211607487709,52.336556435611,POINT (5.621161 52.336556)
0191fb76-1230-4d3d-9969-bc444dd032b1,,,D5,L,PLACED,[ ],Z,Isabellastraat,,,237212051.0,2024-03-01,Oosterhout,GM0826,Oosterhout,,https://wegkenmerken.ndw.nu/api/images/6e0ffaaf-c5ce-4aa5-860b-e22cf71aaa35,2016-10-13,2022-09-19,,,,,,4.8646940202451,51.642689716454,POINT (4.864694 51.64269)
01975610-28c9-4745-99b7-b96bf2b04c98,,,D5,L,PLACED,"[ { ""type"": ""VRIJ"", ""text"": """" } ]",W,Wilhelminastraat,,,600373982.0,2024-03-01,Kapelle,GM0678,Wemeldinge,,https://wegkenmerken.ndw.nu/api/images/d8c9002d-c720-4747-a8ac-410ba0ded831,2016-04-28,2022-06-16,,,,,,3.9952000260615,51.517614020077,POINT (3.9952 51.517614)
019843ed-777f-4743-b1a3-45a1a3e7af1f,,,D5,R,PLACED,[ ],Z,Westerhaven,,,600204518.0,2024-03-01,Groningen,GM0014,Groningen,,https://wegkenmerken.ndw.nu/api/images/aba9f84a-a4c5-40d7-95ba-7b42cc25c506,2018-09-10,2022-08-25,,,,,,6.5558738373124,53.214263914174,POINT (6.555874 53.214264)
0198ee06-9f01-4493-a829-12a607c03b45,,,D5,R,PLACED,"[ { ""type"": ""UIT"", ""text"": ""uitgezonderd"" } ]",N,De Oude Werf,,,296340033.0,2024-03-01,Baarn,GM0308,Baarn,,https://wegkenmerken.ndw.nu/api/images/17ee66f8-8ae3-46cc-98af-c3adc34e31c0,2016-08-08,2023-12-04,,,,,,5.2850807200766,52.220106734638,POINT (5.285081 52.220107)
019a6b94-5bdf-4614-bbb8-5ebe0eb19041,,,D5,L,PLACED,[ ],W,Gieskesstraat,,,,,Hengelo,GM0164,Hengelo,,https://wegkenmerken.ndw.nu/api/images/8c0958d4-11fd-4afc-bd27-28e80ae2e27e,2020-04-04,2022-04-24,,,,,,6.7937967031499,52.260959269469,POINT (6.793797 52.260959)
019ae46d-100c-4a50-89f5-438d2d72f53b,,,D5,L,PLACED,"[ { ""type"": ""UIT"", ""text"": ""uitgezonderd"" } ]",Z,Prinsessenstraat,,,529377018.0,2024-03-01,Dinkelland,GM1774,Denekamp,,https://wegkenmerken.ndw.nu/api/images/54262b41-6a03-4da6-b457-ba10e4682fd0,2016-12-19,2023-12-04,,,,,,7.0017070444075,52.374585185525,POINT (7.001707 52.374585)
019de499-8e15-4dcf-9ceb-7a38d2f4ab63,,,D5,L,PLACED,"[ { ""type"": ""UIT"", ""text"": ""uitgezonderd"" }, { ""type"": ""UIT"", ""text"": ""uitgezonderd"" } ]",W,Van der Landelaan,,,405104021.0,2024-03-01,Roerdalen,GM1669,Herkenbosch,,https://wegkenmerken.ndw.nu/api/images/4e99d9a8-6eab-4581-99c7-b51babad1262,2016-04-15,2023-12-05,,,,,,6.0721262630432,51.158822161567,POINT (6.072126 51.158822)
01a7bb3e-8c0e-4ab8-b155-e7b00422a79a,,,D5,L,PLACED,"[ { ""type"": ""VRIJ"", ""text"": """" } ]",O,Joghtlaan,,,178333060.0,2024-03-01,Katwijk,GM0537,Valkenburg,,https://wegkenmerken.ndw.nu/api/images/0e645d25-d1b4-47b0-80f0-c36dcb9ca0b2,2016-04-12,2022-04-12,,,,,,4.4296425190496,52.18352343656,POINT (4.429643 52.183523)
01b559b0-741b-4fbd-8837-8ba5bf6fe688,,,D5,R,PLACED,"[ { ""type"": ""UIT"", ""text"": ""uitgezonderd"" } ]",Z,Edisonstraat,,,319170048.0,2024-03-01,Eindhoven,GM0772,Eindhoven,,https://wegkenmerken.ndw.nu/api/images/8b928f7d-11a2-45d4-9a8d-ef72de99a1be,2016-09-14,2023-12-04,,,,,,5.4574801046769,51.453681010056,POINT (5.45748 51.453681)
01c22557-4759-49d0-96e6-f9e9f6f023ec,,,D5,L,PLACED,"[ { ""type"": ""UIT"", ""text"": ""uitgezonderd"" } ]",N,Nieuwe Kerkstraat,,,201212041.0,2024-03-01,Moerdijk,GM1709,Zevenbergen,,https://wegkenmerken.ndw.nu/api/images/4c1fedf7-5732-4034-bca0-aad2d8e77bc6,2022-05-18,2023-12-04,,,,,,4.6038159984704,51.644219050343,POINT (4.603816 51.644219)
01c3b273-e340-43dd-9ec8-44e064b1082f,,,D5,R,PLACED,[ ],O,Wigbolt Ripperdastraat,,,230376101.0,2025-09-01,Amsterdam,GM0363,Amsterdam,,,2025-09-09,2025-09-09,,2025-09-09,,,,4.80555922170329,52.3816866835097,POINT (4.805559 52.381687)
01c3c6e1-9b94-48ae-9141-cfd744064086,,,D5,R,PLACED,[ ],O,Groenstraat,,,390143016.0,2024-03-01,Peel en Maas,GM1894,Panningen,,https://wegkenmerken.ndw.nu/api/images/41b92c37-4914-4d15-9554-899bffa10e45,2016-07-15,2022-07-27,,,,,,5.965543153309,51.334120823611,POINT (5.965543 51.334121)
01c7dd7e-995f-44ed-89fe-a3ad34bd422f,12588,2025-09-24,D5,R,PLACED,[ ],N,Nijmeegseweg,,,600632183.0,2025-09-01,Venlo,GM0983,Venlo,,,2025-09-24,2025-09-24,,2025-09-24,,,,6.1751339060586234,51.39019044530274,POINT (6.175134 51.39019)
01d9762e-cec2-42c7-b3f8-0a98485cf14d,,,D5,L,PLACED,"[ { ""type"": ""UIT"", ""text"": ""uitgezonderd"" } ]",O,Koning Davidstraat,,,233392141.0,2024-03-01,Zaanstad,GM0479,Zaandam,,https://wegkenmerken.ndw.nu/api/images/ef3cfb0f-8735-4f29-ac79-19c36214261a,2020-09-22,2023-12-04,,,,,,4.8222575241337,52.452781671716,POINT (4.822258 52.452782)
01dca4a6-79bc-4cb8-9dcf-95201dadb3e7,,,D5,R,PLACED,[ ],ZZO,Hoogoorddreef,,,250361120.0,2025-09-01,Amsterdam,GM0363,Amsterdam,,,2025-09-09,2025-09-09,,2025-09-09,,,,4.95391231769168,52.3129379129779,POINT (4.953912 52.312938)
01ef4ac8-f565-42b3-8072-a180154a3e25,,,D5,R,PLACED,[ ],N,E. du Perronlaan,,,600428360.0,2024-03-01,Delft,GM0503,Delft,,https://wegkenmerken.ndw.nu/api/images/bd462ef4-984f-457d-8625-8388bd435d97,2018-05-24,2022-07-01,,,,,,4.3514510357582,51.996384392114,POINT (4.351451 51.996384)
01f5e831-3280-41d8-929f-b6f0ca441977,,,D5,L,PLACED,[ ],Z,Krabbendampad,,,600902444.0,2024-03-01,Eindhoven,GM0772,Eindhoven,,https://wegkenmerken.ndw.nu/api/images/45aafb75-bdc9-4479-a321-3c8d5c087c29,2020-07-13,2022-07-11,,,,,,5.476266531622,51.437882538297,POINT (5.476267 51.437883)
01f7b840-2d87-4ae7-9d11-5f8e5d38f3ce,,,D5,R,PLACED,"[ { ""type"": ""UIT"", ""text"": ""uitgezonderd"" } ]",N,Reigerstraat,,,241319002.0,2024-03-01,Woerden,GM0632,Kamerik,,https://wegkenmerken.ndw.nu/api/images/f3eda2db-b384-4352-b475-f20f49482b44,2021-06-17,2023-12-04,,,,,,4.8896639259085,52.124449634645,POINT (4.889664 52.12445)
0200e187-ad71-4ba4-bd53-9e1e980f1f24,,,D5,L,PLACED,"[ { ""type"": ""UIT"", ""text"": ""uitgezonderd"" } ]",O,Westein,,,376525001.0,2024-03-01,Heerenveen,GM0074,Aldeboarn,,https://wegkenmerken.ndw.nu/api/images/927e03e4-062f-423f-b0a6-f32442dc0715,2021-10-06,2023-12-04,,,,,,5.8908377021074,53.048007804199,POINT (5.890838 53.048008)
02175702-fcd1-4639-b434-e1ae27ed61b5,,,D5,R,PLACED,"[ { ""type"": ""UIT"", ""text"": ""uitgezonderd"" } ]",W,Bisschop Schrijnenstraat,,,393111005.0,2024-03-01,Roermond,GM0957,Roermond,,https://wegkenmerken.ndw.nu/api/images/d185d71d-49fe-42aa-ab08-6aadeede34ab,2016-04-11,2023-12-04,,,,,,5.9831732461614,51.188061617456,POINT (5.983173 51.188062)
022a527c-a857-48e2-9e06-1ec4fd78513f,,,D5,R,PLACED,"[ { ""type"": ""UIT"", ""text"": ""UITGEZONDERD (BROM-)FIETSERS"" } ]",Z,Tuinstraat,,,353479012.0,2024-03-01,De Fryske Marren,GM1940,Lemmer,,https://wegkenmerken.ndw.nu/api/images/72757dee-1bef-4f9f-9e77-0ab893009ffa,2016-07-05,2023-12-04,,,,,,5.7086423211587,52.844239365524,POINT (5.708642 52.844239)
0241ea85-5ac7-496c-9c21-a2e009721a58,,,D5,L,PLACED,[ ],Z,Nicolaes Maesstraat,,,411350011.0,2024-03-01,Deventer,GM0150,Deventer,,https://wegkenmerken.ndw.nu/api/images/741af0ad-4d10-4ac2-a621-730a9ed72942,2016-08-05,2022-06-17,,,,,,6.1329762378874,52.26363922639,POINT (6.132976 52.263639)
0244b1f1-1f1a-45e2-835c-930259c8da9f,,,D5,L,PLACED,[ ],O,Kerkplein,,,600170253.0,2024-03-01,Weert,GM0988,Stramproy,,https://wegkenmerken.ndw.nu/api/images/40fb91a7-e74f-40ae-8ef1-45a5d8c039cb,2016-09-06,2022-07-06,,,,,,5.7230989357864,51.192790179862,POINT (5.723099 51.19279)
0246d91d-4a3f-4406-9da9-c9711ae59286,,,D5,R,PLACED,[ ],Z,Theerestraat,,,600792552.0,2024-03-01,Sint-Michielsgestel,GM0845,Sint-Michielsgestel,,https://wegkenmerken.ndw.nu/api/images/8b05dd3a-9a52-4a3a-8ca0-cb22b11fc9d6,2022-04-05,2022-04-05,,,,,,5.3469186242268,51.638522594743,POINT (5.346919 51.638523)
0249adb2-41a0-4bbc-b1fe-ddec52b1f5a6,,,D5,R,PLACED,"[ { ""type"": ""UIT"", ""text"": ""uitgezonderd"" } ]",Z,Gedempte Molenwijk,,,382505024.0,2024-03-01,Heerenveen,GM0074,Heerenveen,,https://wegkenmerken.ndw.nu/api/images/657e87e2-5864-4c65-9387-8e93aee9ffb8,2018-10-11,2023-12-04,,,,,,5.9238400193204,52.95829199741,POINT (5.92384 52.958292)
024de3d6-89b2-4b07-8e90-843377d690ae,,,D5,L,PLACED,[ ],O,Westerstraat,,,460589006.0,2024-03-01,Het Hogeland,GM1966,Winsum,,https://wegkenmerken.ndw.nu/api/images/418b8578-b587-4604-bb87-9f48ad80c592,2016-05-18,2022-06-22,,,,,,6.5146576122576,53.332799954176,POINT (6.514658 53.3328)
0253cb4d-1673-47c9-a067-c9ef16a00155,,,D5,R,PLACED,"[ { ""type"": ""UIT"", ""text"": ""Uitgezonderd vergunningshouders"" } ]",Z,Frederik Hendrikstraat,,,192294040.0,2024-03-01,Lansingerland,GM1621,Bleiswijk,,https://wegkenmerken.ndw.nu/api/images/e254a724-ab3c-4237-9e3f-ef412f3ddea4,2016-08-25,2023-12-04,,,,,,4.5317855340154,52.010196578757,POINT (4.531786 52.010197)
025cf27a-cfe5-4713-b343-7b2488d8b025,,,D5,,PLACED,[ ],O,Wezelrade,,,600378708.0,2024-03-01,'s-Gravenhage,GM0518,'s-Gravenhage,,https://wegkenmerken.ndw.nu/api/images/79838e4f-7add-44b5-9670-54ee01ebe247,2020-11-10,2020-11-10,,,,,,4.2563230498397,52.045671067225,POINT (4.256323 52.045671)
0267734a-16c6-4096-a51e-38e62f231e60,,,D5,R,PLACED,"[ { ""type"": ""UIT"", ""text"": ""uitgezonderd"" } ]",Z,Comeniushof,,,276340055.0,2024-03-01,Hilversum,GM0402,Hilversum,,https://wegkenmerken.ndw.nu/api/images/0aa4a743-59d7-4985-8e1a-9e1c451e55e1,2022-01-24,2023-12-04,,,,,,5.1413560506926,52.219961008271,POINT (5.141356 52.219961)
026d5d81-98be-4479-ae04-bc1b6be83c8f,,,D5,L,PLACED,"[ { ""type"": ""UIT"", ""text"": ""uitgezonderd"" } ]",Z,C.M. van Reesstraat,,,224251026.0,2024-03-01,Sliedrecht,GM0610,Sliedrecht,,https://wegkenmerken.ndw.nu/api/images/2e2eca41-e4f4-4197-86b1-130065679bac,2016-03-14,2023-12-04,,,,,,4.7708900677179,51.818487284435,POINT (4.77089 51.818487)
027a6605-7271-425c-a120-c0d60c071ad2,,,D5,R,PLACED,"[ { ""type"": ""VRIJ"", ""text"": ""(fig.) laden en lossen"" }, { ""type"": ""VRIJ"", ""text"": ""(fig.) gehandicapten"" } ]",O,Tuinstraat,,,492286009.0,2024-03-01,Winterswijk,GM0294,Winterswijk,,https://wegkenmerken.ndw.nu/api/images/40d45f22-aa2b-42d8-84ca-9b49fbc61e60,2016-05-30,2022-05-23,,,,,,6.7185047550056,51.970177349844,POINT (6.718505 51.970177)
0287fc2a-b82d-47c2-b116-506bd4382916,13835,2025-09-24,D5,R,PLACED,[ ],N,Nijswillerweg,2.0,281.0,601035581.0,2025-09-01,Simpelveld,GM0965,Bocholtz,,,2025-09-24,2025-09-24,,2025-09-24,,,,5.979635134387347,50.81749607752527,POINT (5.979635 50.817496)
028de235-f97f-496b-9d99-503ce66035a3,,,D5,R,PLACED,[ ],Z,Dorsweg,,,600174624.0,2024-03-01,Ommen,GM0175,Lemele,,https://wegkenmerken.ndw.nu/api/images/5bc07801-8afb-48a4-a33b-da9da045edbe,2021-09-02,2022-08-16,,,,,,6.4179513264781,52.451817826959,POINT (6.417951 52.451818)
02992f7a-f1c5-4acc-aac8-ac9aecdb471d,,,D5,L,PLACED,[ ],N,Tweede Binnenhavenweg,,,600454433.0,2024-03-01,Vlissingen,GM0718,Vlissingen,,https://wegkenmerken.ndw.nu/api/images/2253915d-9ae0-456c-86bd-838fd37d8bb2,2016-08-17,2022-09-13,,,,,,3.5887134366519,51.448126731625,POINT (3.588713 51.448127)
02a0cdd2-437e-4d7a-859b-6602486aa153,,,D5,R,PLACED,"[ { ""type"": ""VRIJ"", ""text"": """" } ]",W,Kanaalweg Noord,,,474384007.0,2024-03-01,Twenterand,GM1700,Vriezenveen,,https://wegkenmerken.ndw.nu/api/images/72d907cc-e8cf-4730-a78e-8640c9f43ccb,2021-10-08,2022-09-10,,,,,,6.5964399238781,52.410576558492,POINT (6.59644 52.410577)
02a3a83b-6fbb-4bc1-8321-cdd4f08cc992,,,D5,L,PLACED,[ ],N,Watersportweg,,,,,Vlaardingen,GM0622,Vlaardingen,,https://wegkenmerken.ndw.nu/api/images/a481a910-f46f-4735-bec0-3f65b7651d15,2022-06-02,2022-06-02,,,,,,4.3328516441989,51.919062755566,POINT (4.332852 51.919063)
02a994d1-ab55-4468-b7bd-b8252eb1bdd2,,,D5,L,PLACED,[ ],O,Stormvogelstraat,,,396279062.0,2024-03-01,Duiven,GM0226,Duiven,,https://wegkenmerken.ndw.nu/api/images/8c0fb2bf-1719-4bfc-b8b1-7ac2ebfc6ea7,2016-10-07,2022-03-09,,,,,,6.0168980615845,51.943118496854,POINT (6.016898 51.943118)
02c3cddb-59b3-4684-94a5-5476a31dd7fe,,,D5,L,PLACED,[ ],R,Rijksweg A6,,,360466003.0,2024-03-01,Noordoostpolder,GM0171,Bant,,https://wegkenmerken.ndw.nu/api/images/a3dbff54-2b87-4cee-bea7-43adb45343cd,2016-05-04,2022-04-20,,,,,,5.759137044969,52.785574232935,POINT (5.759137 52.785574)
02c62ab1-7231-4a6d-b6b6-8f96ff3d2aa2,,,D5,R,PLACED,[ ],O,CG Roosweg,,,601250372.0,2024-09-01,Krimpen aan den IJssel,GM0542,Krimpen aan den IJssel,,https://wegkenmerken.ndw.nu/api/images/eedf214a-a4aa-4948-af5d-425ae9fd4ca0,2016-01-08,2022-03-03,,,,,,4.5849820866989,51.913907907466,POINT (4.584982 51.913908)
02c78071-0534-48e5-aa42-59f154473b59,,,D5,L,PLACED,"[ { ""type"": ""UIT"", ""text"": ""uitgezonderd"" } ]",N,Cromhoutstraat,,,414311045.0,2024-03-01,Brummen,GM0213,Brummen,,https://wegkenmerken.ndw.nu/api/images/10c58b48-45ef-41ec-8c9a-551bb3b6dba9,2016-04-19,2023-12-04,,,,,,6.1518000352704,52.08587359102,POINT (6.1518 52.085874)
02c9dda8-26ad-4dd9-a509-31c21248e567,,,D5,R,PLACED,[ ],O,Engelendaal,,,600733193.0,2024-03-01,Leiderdorp,GM0547,Leiderdorp,,https://wegkenmerken.ndw.nu/api/images/cfadc81d-5cc8-438b-b256-d1d298c7c4ac,2016-02-26,2022-03-03,,,,,,4.5270398026061,52.164684412353,POINT (4.52704 52.164684)
02ca44e7-fa64-44a5-8259-409839ef401f,,,D5,L,PLACED,"[ { ""type"": ""UIT"", ""text"": ""uitgezonderd"" } ]",N,Slotgraskamp,,,389368020.0,2024-03-01,Epe,GM0232,Epe,,https://wegkenmerken.ndw.nu/api/images/73b05f0b-9afc-42a9-9d4f-9a8f115bffcf,2016-07-20,2023-12-04,,,,,,5.9717108468237,52.343101060294,POINT (5.971711 52.343101)
02cb6d7b-4528-4c00-86f3-274520ca6e2b,,,D5,R,PLACED,"[ { ""type"": ""VRIJ"", ""text"": ""uitgezonderd"" } ]",N,Van Lennepstraat,,,,,Alphen Aan Den Rijn,GM0484,Alphen Aan Den Rijn,,https://wegkenmerken.ndw.nu/api/images/68de61f1-1e19-4fed-907c-33bfb1d557b6,2016-06-06,2022-07-18,,,,,,4.6680732301862,52.12857493807,POINT (4.668073 52.128575)
02dad1e2-12be-42da-9a52-ddcafe78ed76,,,D5,R,PLACED,[ ],W,Van Swietenlaan,,,,,Groningen,GM0014,Groningen,,https://wegkenmerken.ndw.nu/api/images/82cfff19-ed1a-4ab5-b6b0-266ea7318513,2021-08-12,2022-08-29,,,,,,6.5481006657327,53.191749243818,POINT (6.548101 53.191749)
02e9d31c-be20-42a7-a71f-3c34f6106653,,,D5,L,PLACED,"[ { ""type"": ""VRIJ"", ""text"": ""uitgezonderd"" } ]",O,Jeustraat,,,,,Voerendaal,GM0986,Voerendaal,,https://wegkenmerken.ndw.nu/api/images/a43f931c-ab45-47ef-bb30-0f829e43ab34,2017-11-14,2022-12-07,,,,,,5.9289397418599,50.885376487662,POINT (5.92894 50.885376)
02fd6e25-6d6b-4c6b-ac77-8ac0d9923909,,,D5,R,PLACED,"[ { ""type"": ""UIT"", ""text"": ""uitgezonderd"" } ]",Z,Menno Simonszhof,,,275339078.0,2024-03-01,Hilversum,GM0402,Hilversum,,https://wegkenmerken.ndw.nu/api/images/75e8c55a-bc05-471f-8e53-b2f75ecfb7fd,2021-01-22,2023-12-04,,,,,,5.133954254873,52.218130393204,POINT (5.133954 52.21813)
03062c87-8235-4ce3-a0b4-3d9179d5b692,,,D5,L,PLACED,"[ { ""type"": ""UIT"", ""text"": ""uitgezonderd"" } ]",W,Eppenbeek,,,374063049.0,2024-03-01,Sittard-Geleen,GM1883,Geleen,,https://wegkenmerken.ndw.nu/api/images/7961bdd9-028b-4676-88a4-7f10e0d5adba,2016-08-01,2023-12-04,,,,,,5.8461841353826,50.972555212666,POINT (5.846184 50.972555)
0310d8a1-11d9-4be5-894e-a09c8c2ee5db,,,D5,L,PLACED,[ ],O,Parallelweg,,,,,Nieuwegein,GM0356,Nieuwegein,,https://wegkenmerken.ndw.nu/api/images/790814e8-35b2-43e4-af9b-5e61ce7c6b04,2016-05-15,2022-04-06,,,,,,5.069110565073,52.016719591744,POINT (5.069111 52.01672)
031c7554-4018-49d0-ae46-5bf616fa3f16,,,D5,L,PLACED,[ ],Z,Wethouder Fischerplantsoen,,,600720805.0,2024-03-01,'s-Gravenhage,GM0518,'s-Gravenhage,,https://wegkenmerken.ndw.nu/api/images/f94b2dfc-7d09-4088-ab63-0f48dc4a1928,2016-09-19,2022-10-09,,,,,,4.3654812247849,52.038873106519,POINT (4.365481 52.038873)
03208722-3dad-4540-9d8a-50fcdaea6099,,,D5,R,PLACED,[ ],N,Lauwersseewei,,,600971379.0,2024-03-01,Noardeast-Fryslân,GM1970,Wetsens,,https://wegkenmerken.ndw.nu/api/images/0098c965-0ca3-45db-854f-43fde1ba0672,2020-03-23,2022-03-16,,,,,,6.0486385423625,53.341220157872,POINT (6.048639 53.34122)
03236a28-2f26-4b93-8f89-4b88e5428f1f,,,D5,R,PLACED,"[ { ""type"": ""VRIJ"", ""text"": """" } ]",W,Florence Nightingalelaan,,,600441913.0,2024-03-01,Zoetermeer,GM0637,Zoetermeer,,https://wegkenmerken.ndw.nu/api/images/0c60c178-6f9d-44ba-b34c-187d4aaf52f2,2016-07-19,2022-07-20,,,,,,4.5423934881032,52.058126061588,POINT (4.542393 52.058126)
032560ac-1d3d-484e-94d5-fa4ff3780101,,,D5,L,PLACED,"[ { ""type"": ""UIT"", ""text"": ""uitgezonderd"" } ]",W,Gelderhof,,,377070058.0,2024-03-01,Sittard-Geleen,GM1883,Sittard,,https://wegkenmerken.ndw.nu/api/images/0dc01ed9-be83-4f67-bdad-beae41818037,2020-09-01,2023-12-04,,,,,,5.8658282579772,51.007715524593,POINT (5.865828 51.007716)
03292b14-9db3-4e4e-a968-50f53ade3456,,,D5,R,PLACED,"[ { ""type"": ""UIT"", ""text"": ""uitgezonderd"" } ]",W,Prior van Milstraat,,,341215157.0,2024-03-01,Maashorst,GM1991,Uden,,https://wegkenmerken.ndw.nu/api/images/1ff3cf94-2eb4-4b50-98c6-4b85f1a2223d,2016-04-04,2023-12-04,,,,,,5.6189631645847,51.656922356513,POINT (5.618963 51.656922)
032d7341-99fb-4b0c-9603-354f5f20cb1e,,,D5,L,PLACED,[ ],ZO,'s-Gravesandeplein,,,600420966.0,2025-09-01,Amsterdam,GM0363,Amsterdam,,https://wegkenmerken.ndw.nu/api/images/05fe8488-be0e-40ea-b2cb-c5295e5bdfc0,2016-09-16,2025-09-09,,,,,,4.9162010232338,52.359209814858,POINT (4.916201 52.35921)
0336c4fe-5796-4364-8423-0a796f11ed44,,,D5,R,PLACED,[ ],N,Gronausestraat,,,,,Enschede,GM0153,Enschede,,https://wegkenmerken.ndw.nu/api/images/e4845e10-139f-46d6-b80f-8d448fc25876,2016-10-03,2022-10-24,,,,,,6.9518026466644,52.216443722888,POINT (6.951803 52.216444)
033d97e1-5548-4d16-a515-d157e05987cf,,,D5,R,PLACED,[ ],N,Leenderweg,,,,,Eindhoven,GM0772,Eindhoven,,https://wegkenmerken.ndw.nu/api/images/0f6b4b17-815f-45f8-9406-075fb347024e,2016-08-19,2022-08-05,,,,,,5.4974819075784,51.415685521217,POINT (5.497482 51.415686)
03415a82-b5ec-40f4-a4cf-c623c85f4e11,,,D5,L,PLACED,"[ { ""type"": ""VRIJ"", ""text"": """" } ]",O,Noorderstraat,,,229415014.0,2024-03-01,Alkmaar,GM0361,West-Graftdijk,,https://wegkenmerken.ndw.nu/api/images/e0866633-a11a-4b2f-a88b-530ba817c85a,2022-02-19,2022-02-19,,,,,,4.7955617119354,52.556760177434,POINT (4.795562 52.55676)
03418468-6f7e-4b5a-8d78-5883378aba32,,,D5,L,PLACED,[ ],W,Rijksweg A50,1.0,50.0,,,Heerde,GM0246,Heerde,,https://wegkenmerken.ndw.nu/api/images/55af49ad-e29b-4552-835b-ac6f6372c439,2016-04-20,2022-04-19,,,,,,6.0135728466234,52.395755895912,POINT (6.013573 52.395756)
034a1703-0caa-4845-b64a-379de529b2a7,,,D5,R,PLACED,[ ],Z,Kleine Kerkstraat,,,346521214.0,2024-03-01,Súdwest-Fryslân,GM1900,Sneek,,https://wegkenmerken.ndw.nu/api/images/51f35373-8908-4ec7-82ae-64a8bb4111f7,2016-09-05,2022-07-25,,,,,,5.6599025530508,53.032535779029,POINT (5.659903 53.032536)
0350d9d5-8313-411a-b547-25a822b3c745,,,D5,R,PLACED,"[ { ""type"": ""UIT"", ""text"": ""uitgezonderd"" } ]",O,Parallelweg,,,600855034.0,2024-03-01,Montferland,GM1955,Didam,,https://wegkenmerken.ndw.nu/api/images/92aeaa86-db6f-4192-8936-36fd09fcfc49,2016-05-10,2023-12-04,,,,,,6.1394354636374,51.935604160488,POINT (6.139435 51.935604)
03543757-a1f0-41df-b8d0-feb00d7e8510,,,D5,L,PLACED,[ ],Z,Jansbuitensingel,,,381288186.0,2024-03-01,Arnhem,GM0202,Arnhem,,https://wegkenmerken.ndw.nu/api/images/2ee82b91-6c5a-44b5-aecb-8a1678c4731e,2016-04-06,2022-02-28,,,,,,5.9066084640324,51.984222787309,POINT (5.906608 51.984223)
0359e3cb-e069-4e38-aea7-4451d0b09468,,,D5,R,PLACED,"[ { ""type"": ""UIT"", ""text"": ""uitgezonderd"" } ]",N,Rubenslaan,,,178188034.0,2024-03-01,Roosendaal,GM1674,Roosendaal,,https://wegkenmerken.ndw.nu/api/images/44292e85-cdcb-4564-98f3-2783bbbc285d,2016-02-02,2023-12-04,,,,,,4.440168915179,51.533047303985,POINT (4.440169 51.533047)
035cf486-13cb-47d4-a16d-b85e81ad0789,,,D5,R,PLACED,[ ],Z,Tentstraat,,,,,Vaals,GM0981,Vaals,,https://wegkenmerken.ndw.nu/api/images/a23c1331-287a-48d0-9ffb-c2ef73841912,2016-05-26,2022-03-25,,,,,,6.0177914872056,50.768153564946,POINT (6.017791 50.768154)
0368cf18-5ab7-4283-bd2e-bca174f49e9e,,,D5,R,PLACED,[ ],L,Graaf van Lynden van Sandenburgweg,,,600134420.0,2024-03-01,Bunnik,GM0312,Werkhoven,,https://wegkenmerken.ndw.nu/api/images/db6dc473-31d3-415e-9250-c44a32a6c4ed,2022-02-23,2022-02-23,,,,,,5.264659562873,52.015260247889,POINT (5.26466 52.01526)
036a50e7-7a36-4b6f-bdaf-effce54ec448,,,D5,L,PLACED,[ ],N,Parallelweg,,,158178096.0,2024-03-01,Bergen op Zoom,GM0748,Bergen op Zoom,,https://wegkenmerken.ndw.nu/api/images/8aa3411b-0d25-4644-96de-c8bf51e69ad7,2018-03-09,2022-06-23,,,,,,4.2957004065258,51.489810408046,POINT (4.2957 51.48981)
036cc713-b47e-4ba3-bb31-d1527638fe72,,,D5,R,PLACED,[ ],Z,Markerkant 10,,,,,Almere,GM0034,Almere,,https://wegkenmerken.ndw.nu/api/images/6c9fe865-f5bb-441b-be5e-6f69c4ba4f04,2016-05-26,2022-03-28,,,,,,5.2173308516933,52.385606154685,POINT (5.217331 52.385606)
037cad55-95d2-4224-a1ec-9f23452a994d,,,D5,R,PLACED,[ ],O,Eisenhowerlaan,,,601192230.0,2024-03-01,'s-Gravenhage,GM0518,'s-Gravenhage,,https://wegkenmerken.ndw.nu/api/images/2bbea0e9-ff27-4c0e-be4f-fc269e333f89,2016-09-08,2022-10-24,,,,,,4.2845468085291,52.095108702426,POINT (4.284547 52.095109)
0382b603-d42b-4c91-8a0b-aa3214e80033,,,D5,R,PLACED,[ ],Z,Dorpsstraat,,,188319008.0,2024-03-01,Zoeterwoude,GM0638,Zoeterwoude,,https://wegkenmerken.ndw.nu/api/images/e6e74c9a-f48f-4b0c-aca5-ffc7534f8eae,2016-04-18,2022-06-14,,,,,,4.4967782455424,52.121725907442,POINT (4.496778 52.121726)
038545f3-49fa-45fa-8bfc-80aee44c7e0e,,,D5,R,PLACED,"[ { ""type"": ""UIT"", ""text"": ""M.u.v. lijndiensten en voertuigen met ontheffing"" } ]",O,Rotterdam Airportplein,,,600422927.0,2024-03-01,Rotterdam,GM0599,Rotterdam,,https://wegkenmerken.ndw.nu/api/images/b6ee16a8-baca-4e37-81ee-3fbadf75daff,2016-08-09,2023-12-04,,,,,,4.4342808712219,51.947874839081,POINT (4.434281 51.947875)
0385cda9-9d1f-4f20-b8ea-ef5b214f397b,,,D5,L,PLACED,[ ],R,Haagse Hout,,,600107917.0,2024-03-01,Wassenaar,GM0629,Wassenaar,,https://wegkenmerken.ndw.nu/api/images/0aa0a245-d2ed-4aff-9a3c-b0a39f2b1e00,2016-11-22,2022-11-21,,,,,,4.351724336639,52.109334866387,POINT (4.351724 52.109335)
038b0810-8dd7-4e4e-8049-2810c4e04c62,,,D5,R,PLACED,[ ],Z,Prins Bernhardstraat,,,181177029.0,2024-03-01,Roosendaal,GM1674,Nispen,,https://wegkenmerken.ndw.nu/api/images/fca1d2da-adde-4eb2-8bb7-0a4c29146cc3,2016-01-25,2022-03-16,,,,,,4.459622950936,51.483477852993,POINT (4.459623 51.483478)
038d68e2-a190-46a4-ab70-3dd8d43046f2,,,D5,L,PLACED,[ ],W,Cronjéstraat,,,600836843.0,2024-03-01,Arnhem,GM0202,Arnhem,,https://wegkenmerken.ndw.nu/api/images/d85dc5f7-f72f-43cf-aa77-ba3295854d2c,2016-04-20,2022-03-06,,,,,,5.9052809729571,51.985220648495,POINT (5.905281 51.985221)
038f4373-0622-4122-bb65-12af852a9925,,,D5,L,PLACED,"[ { ""type"": ""VRIJ"", ""text"": ""uitgezonderd"" } ]",W,Pastoor Lancrietstraat,,,157180055.0,2024-03-01,Bergen op Zoom,GM0748,Bergen op Zoom,,https://wegkenmerken.ndw.nu/api/images/7d71582d-5a90-48dc-a0fa-b4ee41a3b06f,2016-04-06,2022-06-23,,,,,,4.2900077643508,51.496471424698,POINT (4.290008 51.496471)
03919560-916d-411b-b2b1-1b7c1a270f8d,,,D5,R,PLACED,[ ],N,Keizerstraat,,,157316054.0,2024-03-01,'s-Gravenhage,GM0518,'s-Gravenhage,,https://wegkenmerken.ndw.nu/api/images/56dd0769-0e1a-4ac5-ace6-e3bce2c76ac3,2016-09-05,2022-10-24,,,,,,4.27249305258,52.10679732873,POINT (4.272493 52.106797)
0394d63d-b367-4d58-b44f-02693cb7bcf3,,,D5,L,PLACED,[ ],Z,Rijksweg A1,,,600284433.0,2024-03-01,Gooise Meren,GM1942,Muiderberg,,https://wegkenmerken.ndw.nu/api/images/5ccb7587-51ac-466d-a46e-be68a5d89fe4,2019-05-07,2022-06-22,,,,,,5.0926380387964,52.317893125609,POINT (5.092638 52.317893)
0396815f-14be-45f9-900a-dfacddd8c594,,,D5,R,PLACED,"[ { ""type"": ""UIT"", ""text"": ""uitgezonderd"" } ]",Z,Scandinaviëlaan,,,357450009.0,2024-03-01,Noordoostpolder,GM0171,Emmeloord,,https://wegkenmerken.ndw.nu/api/images/55a31e70-4a98-4cc4-ab79-2c96b724a19a,2021-03-23,2023-12-04,,,,,,5.7398822900291,52.711754033297,POINT (5.739882 52.711754)
0397403c-ac7e-4887-8b1f-013e104e9ac7,,,D5,L,PLACED,[ ],Z,Arianestraat,,,229353104.0,2024-03-01,Aalsmeer,GM0358,Aalsmeer,,https://wegkenmerken.ndw.nu/api/images/9b37816b-c59d-4a9a-aab3-e2a367f54221,2016-09-26,2022-11-12,,,,,,4.7982050805844,52.274888826929,POINT (4.798205 52.274889)
03a19fd4-a30e-4afa-ac5e-778d3da911a4,,,D5,R,PLACED,[ ],O,Lauriergracht,,,240374041.0,2025-09-01,Amsterdam,GM0363,Amsterdam,,https://wegkenmerken.ndw.nu/api/images/1a91d27d-3596-4c1e-b94a-281049158744,2019-07-24,2025-09-09,,,,,,4.8794702006902,52.371134868832,POINT (4.87947 52.371135)
03ac57fc-88e6-4800-a840-9e4c44706cf2,,,D5,L,PLACED,"[ { ""type"": ""UIT"", ""text"": ""uitgezonderd"" } ]",O,Schutterspad,,,252253114.0,2024-03-01,Gorinchem,GM0512,Gorinchem,,https://wegkenmerken.ndw.nu/api/images/2a50cfe1-d54a-4cf2-b238-77c2a66555d0,2016-05-13,2023-12-04,,,,,,4.9726137577561,51.828244298515,POINT (4.972614 51.828244)
03b10645-d7ef-4165-849c-20ee98386e3c,,,D5,R,PLACED,[ ],N,Ratio,,,396283009.0,2024-03-01,Duiven,GM0226,Duiven,,https://wegkenmerken.ndw.nu/api/images/8f993d42-2038-4387-b785-c18836962eb3,2020-03-24,2022-03-11,,,,,,6.0125825159965,51.962102339811,POINT (6.012583 51.962102)
03c6e32c-5638-444f-be4a-a87a11346fbe,,,D5,L,PLACED,[ ],W,Schiestraat,,,601019469.0,2024-03-01,Eindhoven,GM0772,Eindhoven,,https://wegkenmerken.ndw.nu/api/images/9be3c330-49f6-44a0-86ec-eb098b4725e4,2016-09-09,2022-07-18,,,,,,5.4226715898714,51.47749838149,POINT (5.422672 51.477498)
03cd883b-daf7-44d0-8ac2-64befe53d478,,,D5,L,PLACED,[ ],W,Venrayseweg,,,,,Venlo,GM0983,Venlo,,https://wegkenmerken.ndw.nu/api/images/0abe97d9-06c9-475b-84bd-00f599ad457c,2018-01-25,2022-02-12,,,,,,6.1306358350221,51.404007904798,POINT (6.130636 51.404008)
03deeaf7-c4e4-426d-87b7-d817949e48ff,,,D5,L,PLACED,[ ],W,Kuijperstraat,,,232402039.0,2024-03-01,Wormerland,GM0880,Wormer,,https://wegkenmerken.ndw.nu/api/images/5e9534e6-479c-46d1-ae9c-b6f94ad6bb21,2021-11-23,2022-10-26,,,,,,4.8137629858979,52.497030163434,POINT (4.813763 52.49703)
03e7c549-9180-464c-8eff-4f2d91f62b49,,2025-07-10,D5,R,PLACED,"[ { ""type"": ""UIT"", ""text"": ""uitgezonderd [[fietser]] [[bromfietser]]"" } ]",NW,Campuslaan,,,601358380.0,2025-08-01,Wijchen,GM0296,Wijchen,,https://wegkenmerken.ndw.nu/api/images/fd9f58ea-6f62-4eb0-8ffe-eaedd45590c8,2016-01-15,2025-07-10,,,,,,5.7377798175384,51.802692556848,POINT (5.73778 51.802693)
03e9bfbd-47a1-4a3f-a6fe-1d5a1e302dc3,,,D5,L,PLACED,"[ { ""type"": ""UIT"", ""text"": ""uitgezonderd"" }, { ""type"": ""UIT"", ""text"": ""uitgezonderd"" } ]",O,Bergstraat,,,600179611.0,2024-03-01,Loon op Zand,GM0809,Loon op Zand,,https://wegkenmerken.ndw.nu/api/images/0bd04fff-4b87-4b1d-8894-2bf412e2cb67,2017-05-19,2023-12-05,,,,,,5.0641390542699,51.625682016299,POINT (5.064139 51.625682)
03ecaefa-0e03-43fd-a197-807006645292,,,D5,R,PLACED,"[ { ""type"": ""VRIJ"", ""text"": """" } ]",W,Broekermeerstraat,,,214361050.0,2024-03-01,Haarlemmermeer,GM0394,Hoofddorp,,https://wegkenmerken.ndw.nu/api/images/4025b0cb-1a30-4e75-90e3-86e617c98504,2016-07-01,2022-07-29,,,,,,4.6901653424588,52.313390574858,POINT (4.690165 52.313391)
03f98f24-3a02-4f9c-8fa0-09212be38066,,,D5,,PLACED,[ ],N,Rimburgerweg,,,,,Brunssum,GM0899,Brunssum,,,2022-11-25,2022-11-25,,,,,,5.9795176150429,50.940694802347,POINT (5.979518 50.940695)
03fb39a3-2958-4f83-94d1-0943c7755075,,,D5,L,PLACED,[ ],N,Rijsbergseweg,,,600749067.0,2024-03-01,Breda,GM0758,Breda,,https://wegkenmerken.ndw.nu/api/images/7b6bb545-9e7f-480d-9d9a-745251f30fa8,2016-09-21,2022-08-10,,,,,,4.7305751011693,51.554012897025,POINT (4.730575 51.554013)
03ff9ff8-e397-4582-a142-94412d9a6da0,,,D5,R,PLACED,[ ],N,Raadhuisplein,,,,,Bernheze,GM1721,Heeswijk-Dinther,,https://wegkenmerken.ndw.nu/api/images/1bee171d-b786-4eab-81fd-d6f4b1f32b7e,2016-02-15,2022-02-10,,,,,,5.4813027453485,51.647409877271,POINT (5.481303 51.64741)
0403f068-88c5-4b94-bea4-2f4611547dda,,,D5,R,PLACED,[ ],O,Gerard Burgerlaan,,,601104186.0,2024-03-01,Vlaardingen,GM0622,Vlaardingen,,https://wegkenmerken.ndw.nu/api/images/a28b875e-533d-4a74-bedb-ee0d5aa900da,2016-03-30,2022-07-13,,,,,,4.3359362351917,51.916977912508,POINT (4.335936 51.916978)
040b7017-1b31-4df6-beef-32d9bcf965d9,,,D5,L,PLACED,"[ { ""type"": ""UIT"", ""text"": ""uitgezonderd"" } ]",O,Horionstraat,,,386042017.0,2024-03-01,Voerendaal,GM0986,Voerendaal,,https://wegkenmerken.ndw.nu/api/images/095953e1-dff3-4bf2-a932-9ef17fd4ed7c,2016-11-08,2023-12-04,,,,,,5.9351358172001,50.880962191189,POINT (5.935136 50.880962)
040c037f-187f-43a8-8417-9bd364570773,,,D5,R,PLACED,"[ { ""type"": ""UIT"", ""text"": ""uitgezonderd"" } ]",Z,Franciscushof,,,221310001.0,2024-03-01,Bodegraven-Reeuwijk,GM1901,Bodegraven,,https://wegkenmerken.ndw.nu/api/images/c8710915-ff39-44d7-ae21-31b24a65eb1e,2017-01-05,2023-12-04,,,,,,4.7428248818513,52.085262433986,POINT (4.742825 52.085262)
040ced66-f4af-4967-9ad9-cd3cf19b4f7f,1516_1982,,D5,R,PLACED,[ ],Z,Otto van Reesweg,,,287280111.0,2025-08-01,Culemborg,GM0216,Culemborg,,https://wegkenmerken.ndw.nu/api/images/cbf17532-f3c7-4d96-ba30-4e92c252f4bc,2016-07-06,2025-08-13,,,,,,5.22370533865637,51.94890042284433,POINT (5.223705 51.9489)
04170715-56a8-4354-b843-436a7e47f473,,,D5,R,PLACED,"[ { ""type"": ""UIT"", ""text"": ""uitgezonderd"" } ]",W,Biezendam,,,294211082.0,2024-03-01,Vught,GM0865,Vught,,https://wegkenmerken.ndw.nu/api/images/dbbef648-4091-491a-8f71-cd8adeee8b09,2016-08-16,2023-12-04,,,,,,5.2782832818496,51.639958482143,POINT (5.278283 51.639958)
041bced8-d1b2-4b22-8e50-f5a34bb14f60,,,D5,R,PLACED,"[ { ""type"": ""UIT"", ""text"": ""uitgezonderd"" } ]",Z,Burgemeester Verheullaan,,,202321072.0,2024-03-01,Alphen aan den Rijn,GM0484,Koudekerk aan den Rijn,,https://wegkenmerken.ndw.nu/api/images/67bb24f4-f8d8-44ca-9522-cc4106949ec0,2016-06-02,2023-12-04,,,,,,4.6028207423822,52.132808844555,POINT (4.602821 52.132809)
041dfd2d-47b7-4421-86e4-63156a8a7407,,,D5,L,PLACED,"[ { ""type"": ""UIT"", ""text"": ""uitgezonderd"" } ]",Z,Johanniterhof,,,263312074.0,2024-03-01,Utrecht,GM0344,Utrecht,,https://wegkenmerken.ndw.nu/api/images/7046e5b7-9462-47dc-81c0-dc2b891a88b7,2018-04-07,2023-12-04,,,,,,5.0473393975085,52.092868016602,POINT (5.047339 52.092868)
0428bd98-bdd5-4641-a530-7dc2db62777d,,,D5,R,PLACED,"[ { ""type"": ""UIT"", ""text"": ""uitgezonderd"" } ]",W,Molenstraat,,,377231028.0,2024-03-01,Land van Cuijk,GM1982,Cuijk,,https://wegkenmerken.ndw.nu/api/images/0bcadfb6-d96d-44f1-ae34-65c3be1f5f75,2016-11-11,2023-12-04,,,,,,5.878471022031,51.729082054346,POINT (5.878471 51.729082)
042aa288-e32e-4e9f-a027-9cf08bbd0417,,,D5,L,PLACED,[ ],W,Kerkstraat,,,391141055.0,2024-03-01,Peel en Maas,GM1894,Panningen,,https://wegkenmerken.ndw.nu/api/images/f41e3f30-8a01-41ec-afae-85149111fb52,2016-07-19,2022-08-09,,,,,,5.9747920422039,51.326769318329,POINT (5.974792 51.326769)
043ab25c-79ed-498b-b38e-83532c4e8207,,,D5,R,PLACED,"[ { ""type"": ""UIT"", ""text"": ""uitgezonderd"" } ]",N,Johan van Oldenbarneveldtstraat,,,600374202.0,2024-03-01,Landgraaf,GM0882,Landgraaf,,https://wegkenmerken.ndw.nu/api/images/e263531c-ac80-4507-81ac-920afee6f40e,2020-10-02,2023-12-04,,,,,,6.0068780854343,50.905648400664,POINT (6.006878 50.905648)
043bae93-b637-408f-934c-5d08d9b8be7c,,,D5,L,PLACED,"[ { ""type"": ""UIT"", ""text"": ""uitgezonderd"" } ]",W,Lorentzlaan,,,236207038.0,2024-03-01,Oosterhout,GM0826,Oosterhout,,https://wegkenmerken.ndw.nu/api/images/8ab88b09-b622-40e0-ace3-fc982e84296d,2022-09-26,2023-12-04,,,,,,4.8546318627522,51.622623348433,POINT (4.854632 51.622623)
044a3beb-890d-4a83-836c-b5e4e6d767ca,,,D5,R,PLACED,"[ { ""type"": ""UIT"", ""text"": ""uitgezonderd"" } ]",N,Voormalige Oudeweg,,,601002712.0,2024-03-01,Haarlem,GM0392,Haarlem,,https://wegkenmerken.ndw.nu/api/images/c3e6d8dd-bf4a-4812-a92b-34d83695b228,2022-09-25,2023-12-04,,,,,,4.6508217111096,52.383853811112,POINT (4.650822 52.383854)
04518ff8-88bf-4a99-9e7b-ffc800c1748d,,,D5,R,PLACED,[ ],O,Woonboulevard,,,,,Almelo,GM0141,Almelo,,https://wegkenmerken.ndw.nu/api/images/eb4028e3-4891-41e2-b992-70a7e01e17e8,2016-10-26,2022-11-11,,,,,,6.6428318615631,52.340018558257,POINT (6.642832 52.340019)
04632f61-9cd1-48fc-923d-77a6d0161121,,,D5,R,PLACED,"[ { ""type"": ""UIT"", ""text"": ""uitgezonderd"" } ]",W,Schaepmanstraat,,,415146009.0,2024-03-01,Venlo,GM0983,Tegelen,,https://wegkenmerken.ndw.nu/api/images/a36bfcb0-1d98-4164-a7c5-4aa56aefab38,2016-02-10,2023-12-04,,,,,,6.147128069689,51.346201071413,POINT (6.147128 51.346201)
04650d22-91b2-4297-8566-0ca34efdadb6,,,D5,L,PLACED,[ ],O,Wulfaertstraat,,,102182014.0,2024-03-01,Goes,GM0664,Goes,,https://wegkenmerken.ndw.nu/api/images/493d853f-8513-4653-a812-08ae799a0422,2016-12-12,2022-01-17,,,,,,3.8913598217515,51.499120973227,POINT (3.89136 51.499121)
0467c046-ce93-4c6f-8e7d-939bc3097c5d,,,D5,R,PLACED,"[ { ""type"": ""UIT"", ""text"": ""uitgezonderd"" } ]",N,Kuipertjeswal,,,600377274.0,2024-03-01,'s-Hertogenbosch,GM0796,'s-Hertogenbosch,,https://wegkenmerken.ndw.nu/api/images/89605939-d1d1-4296-8698-af08ce0402fe,2019-10-28,2023-12-04,,,,,,5.298490622247,51.686228835015,POINT (5.298491 51.686229)
04727b5d-e280-45b6-a9f9-264369879968,,,D5,R,PLACED,"[ { ""type"": ""UIT"", ""text"": ""uitgezonderd"" } ]",W,Laan van Blois,,,601342601.0,2025-06-01,Beverwijk,GM0375,Beverwijk,,https://wegkenmerken.ndw.nu/api/images/6fdd1fb7-ca3f-4161-bfd6-8a46eafb8c08,2020-11-22,2023-12-04,,,,,,4.643762634217,52.489144917253,POINT (4.643763 52.489145)
049ad538-8f10-4e47-bd9f-1cad93491caa,,,D5,R,PLACED,"[ { ""type"": ""VRIJ"", ""text"": """" } ]",O,Abeelstraat,,,,,Echt-Susteren,GM1711,Echt,,https://wegkenmerken.ndw.nu/api/images/9ba4c55c-3b0b-45d2-ae03-8914b890698d,2016-06-29,2022-07-04,,,,,,5.8700836034158,51.110020465972,POINT (5.870084 51.11002)
049c5e12-0311-4ac3-9ec4-0cdd38ec31d8,,,D5,L,PLACED,"[ { ""type"": ""VRIJ"", ""text"": """" } ]",O,Middenjoght,,,179332019.0,2024-03-01,Katwijk,GM0537,Valkenburg,,https://wegkenmerken.ndw.nu/api/images/3a015976-d522-4cb1-a800-1450126e7500,2021-05-06,2022-04-12,,,,,,4.43130144039,52.181878060455,POINT (4.431301 52.181878)
04a1bfdd-37b4-4f21-b954-2f26dace6f04,,,D5,R,PLACED,"[ { ""type"": ""UIT"", ""text"": ""uitgezonderd"" } ]",NO,Pegasusstraat,,,241383043.0,2025-09-01,Amsterdam,GM0363,Amsterdam,,https://wegkenmerken.ndw.nu/api/images/5ed3bf85-63b5-4321-bdee-9a8aee4358dc,2016-07-22,2025-09-09,,,,,,4.8857414331008,52.411950958439,POINT (4.885741 52.411951)
04ac4285-cabf-44ee-9ca4-671726395d0c,,,D5,R,PLACED,[ ],O,Vaassenseweg,,,601088660.0,2024-03-01,Epe,GM0232,Emst,,https://wegkenmerken.ndw.nu/api/images/15762a05-a415-4ec4-b934-32492122f5dc,2020-04-15,2022-06-08,,,,,,5.9824990072961,52.303796979438,POINT (5.982499 52.303797)
04aec252-776b-4759-a8bb-806c0d1e5c68,,,D5,L,PLACED,[ ],N,Structuurbaan,,,,,Nieuwegein,GM0356,Nieuwegein,,https://wegkenmerken.ndw.nu/api/images/10654ac3-6b27-4336-923b-12370b762b02,2016-02-17,2022-03-11,,,,,,5.1062235236212,52.033332331947,POINT (5.106224 52.033332)
04b5a896-0d2b-48cf-950a-1cdd1108a769,,,D5,L,PLACED,"[ { ""type"": ""UIT"", ""text"": ""uitgezonderd"" } ]",N,Hartzstraat,,,168309136.0,2024-03-01,Leidschendam-Voorburg,GM1916,Voorburg,,https://wegkenmerken.ndw.nu/api/images/a6afa94d-144a-4623-90da-391c41beb3cb,2017-05-18,2023-12-04,,,,,,4.3540504208462,52.079074510415,POINT (4.35405 52.079075)
04b94865-7f12-4c0f-94fb-c4119611add1,,,D5,R,PLACED,[ ],O,Sonsbeekweg,,,600836856.0,2024-03-01,Arnhem,GM0202,Arnhem,,https://wegkenmerken.ndw.nu/api/images/61c32a5b-9dc7-4752-970c-ea3b534f4a3a,2020-03-06,2022-03-06,,,,,,5.9082111341983,51.988236949947,POINT (5.908211 51.988237)
04c090f7-d74c-4a78-8e62-bffa1634e012,,,D5,L,PLACED,[ ],Z,Hoefsmidstraat,,,170264019.0,2024-03-01,Rotterdam,GM0599,Hoogvliet Rotterdam,,https://wegkenmerken.ndw.nu/api/images/f9d475f7-f23d-48d1-a0c6-8a6dce1e3c8a,2016-08-25,2022-03-22,,,,,,4.374844256136,51.872965865831,POINT (4.374844 51.872966)
04c2922d-5838-42f6-bde8-94f6dff1c137,,,D5,L,PLACED,"[ { ""type"": ""UIT"", ""text"": ""uitgezonderd"" } ]",Z,Jeugdkerkstraat,,,601005996.0,2024-03-01,Winterswijk,GM0294,Winterswijk,,https://wegkenmerken.ndw.nu/api/images/56fe2dc8-ee50-4180-aef6-3e935c5f0c3b,2021-06-08,2023-12-04,,,,,,6.7167383173094,51.971742647841,POINT (6.716738 51.971743)
04cd3447-3a9d-4f63-8627-170659cc4089,,,D5,R,PLACED,"[ { ""type"": ""UIT"", ""text"": ""uitgezonderd"" } ]",W,Gomarushof,,,276340126.0,2024-03-01,Hilversum,GM0402,Hilversum,,https://wegkenmerken.ndw.nu/api/images/85a17bf2-2e92-4a81-a211-90965d41775b,2020-12-22,2023-12-04,,,,,,5.1387838834851,52.219984236839,POINT (5.138784 52.219984)
04cd4efc-0620-4a65-b528-cb84ef12aa62,,,D5,R,PLACED,"[ { ""type"": ""VRIJ"", ""text"": ""uitgezonderd"" } ]",N,Rozenstraat,,,,,Hof Van Twente,GM1735,Goor,,https://wegkenmerken.ndw.nu/api/images/f24d6bd0-b7bc-4900-84fb-e73d6f838344,2016-06-23,2022-05-31,,,,,,6.5891934733043,52.233051993404,POINT (6.589193 52.233052)
04cf08d7-93ed-4a5d-97a0-3a5f1f1c1a4a,,,D5,R,PLACED,[ ],O,Nordhornsestraat,2.0,342.0,,,Dinkelland,GM1774,Denekamp,,https://wegkenmerken.ndw.nu/api/images/cc9549bc-3895-420d-b4c4-fd2c765df978,2016-12-02,2022-10-31,,,,,,7.033612307454,52.401815288174,POINT (7.033612 52.401815)
04e58e0d-a5ed-4c67-9ac5-e621382c6db3,,,D5,R,PLACED,[ ],W,Houtwerf,,,300199040.0,2024-03-01,Boxtel,GM0757,Boxtel,,https://wegkenmerken.ndw.nu/api/images/d29474e2-6d03-4c43-aaf6-9c8f777d51f2,2022-02-21,2022-02-21,,,,,,5.3203482280362,51.589282082674,POINT (5.320348 51.589282)
04eea2cb-b910-4dfa-929b-f3fc2b861517,,,D5,R,PLACED,"[ { ""type"": ""UIT"", ""text"": ""uitgezonderd"" } ]",W,L. Rotgansstraat,,,265320014.0,2024-03-01,Stichtse Vecht,GM1904,Maarssen,,https://wegkenmerken.ndw.nu/api/images/aaa05354-7a9a-4a0f-a364-bc38d43be3f9,2016-09-29,2023-12-04,,,,,,5.058485224372,52.128576682274,POINT (5.058485 52.128577)
04f199a2-f1b2-4eeb-a20f-bdafa4ddb133,,,D5,L,PLACED,[ ],Z,Atlasstraat,,,600931088.0,2024-03-01,Tilburg,GM0855,Tilburg,,https://wegkenmerken.ndw.nu/api/images/bf607a06-6b01-44db-9894-4c6f35af4cbe,2016-07-07,2022-06-17,,,,,,5.0035616791186,51.606627487989,POINT (5.003562 51.606627)
04fe0388-df0f-4fa0-b8af-e701257b4ebd,,,D5,R,PLACED,[ ],Z,Vogelkerslaan,,,600376340.0,2024-03-01,Eindhoven,GM0772,Eindhoven,,https://wegkenmerken.ndw.nu/api/images/faca274d-0eaa-428a-a1fa-77c0dbb87e04,2016-08-25,2022-08-08,,,,,,5.4862986858446,51.41657605415,POINT (5.486299 51.416576)
04fe7e49-dd1d-48b8-ba82-af790cdd95f1,,,D5,R,PLACED,[ ],N,Schipholweg,,,226366075.0,2024-03-01,Haarlemmermeer,GM0394,Badhoevedorp,,https://wegkenmerken.ndw.nu/api/images/95f7c55e-6b64-4332-acf3-fd98e5236692,2016-07-13,2022-07-20,,,,,,4.7741606776079,52.334391785926,POINT (4.774161 52.334392)
05038b0c-8b6c-4307-af1e-9ddb1dfc1a88,,,D5,L,PLACED,"[ { ""type"": ""VRIJ"", ""text"": """" } ]",W,Nieuwstraat,,,400514011.0,2024-03-01,Opsterland,GM0086,Gorredijk,,https://wegkenmerken.ndw.nu/api/images/f7f4c0f1-f9cb-4378-9394-ba5087ea6608,2016-03-09,2022-02-18,,,,,,6.0629778945743,53.001406194662,POINT (6.062978 53.001406)
050ab77c-7a1b-4a96-a50a-fb227d7ca1c8,,,D5,L,PLACED,"[ { ""type"": ""VRIJ"", ""text"": ""uitgezonderd"" } ]",N,Pastoor de Kroonstraat,,,,,Den Bosch,GM0796,'s-Hertogenbosch,,https://wegkenmerken.ndw.nu/api/images/fb24e7fc-832b-4ce9-98dc-dc9622b65e10,2016-11-14,2022-11-14,,,,,,5.3030681754046,51.691305835417,POINT (5.303068 51.691306)
0513e130-6ea7-43b9-b984-07e48baefbf4,,,D5,L,PLACED,"[ { ""type"": ""VRIJ"", ""text"": ""uitgezonderd"" } ]",Z,Comeniushof,,,601255100.0,2024-10-01,Hilversum,GM0402,Hilversum,,https://wegkenmerken.ndw.nu/api/images/07b996e0-8a9f-43db-948a-93e6efc30be5,2022-01-24,2022-01-24,,,,,,5.1407931188694,52.219306355171,POINT (5.140793 52.219306)
05184366-acf2-4ce3-a447-a4c191639f84,,,D5,R,PLACED,[ ],O,Binckhorstlaan,,,600718929.0,2024-03-01,'s-Gravenhage,GM0518,'s-Gravenhage,,https://wegkenmerken.ndw.nu/api/images/4bd4b1ef-58ba-4144-b704-f550ea02515c,2016-09-26,2022-10-06,,,,,,4.3326418507832,52.073067034785,POINT (4.332642 52.073067)
0529d35f-2e0c-4bde-a6a4-e3a71035a645,,,D5,R,PLACED,"[ { ""type"": ""UIT"", ""text"": ""uitgezonderd"" }, { ""type"": ""UIT"", ""text"": ""uitgezonderd bestemmingsverkeer"" } ]",N,Oude Bosschebaan,,,600462724.0,2024-03-01,Tilburg,GM0855,Biezenmortel,,https://wegkenmerken.ndw.nu/api/images/024afadc-0f4f-4f00-9ec8-176dd2fe3642,2018-07-02,2023-12-05,,,,,,5.1488219749692,51.639197658401,POINT (5.148822 51.639198)
05347a06-9ca3-46d2-aaef-a3abe1307f4b,,,D5,R,PLACED,"[ { ""type"": ""UIT"", ""text"": ""uitgezonderd"" } ]",W,Schoolstraat,,,601005986.0,2024-03-01,Winterswijk,GM0294,Winterswijk,,https://wegkenmerken.ndw.nu/api/images/a60d4f7a-7c37-4c14-99c2-72a9511c71ec,2021-06-08,2023-12-04,,,,,,6.7170954404586,51.971769136951,POINT (6.717095 51.971769)
053ba369-44b1-4f8d-976a-6be44e1a430d,,,D5,R,PLACED,"[ { ""type"": ""UIT"", ""text"": ""uitgezonderd"" } ]",N,Meindert Hobbemastraat,,,600371508.0,2024-03-01,Dordrecht,GM0505,Dordrecht,,https://wegkenmerken.ndw.nu/api/images/fa1c7602-8397-41ba-b346-c0dbb4e11c30,2020-04-08,2023-12-04,,,,,,4.6594171191202,51.796286713711,POINT (4.659417 51.796287)
05449f63-7407-4631-b5cd-437637fb36c9,,,D5,L,PLACED,[ ],WZW,,,,,,Heeze-Leende,GM1658,Heeze,Privaat Grond,https://wegkenmerken.ndw.nu/api/images/9a13abe6-defd-47af-a062-d2ed3e310e93,2016-03-24,2025-08-25,,,,,,5.6003613605162,51.370858076323,POINT (5.600361 51.370858)
0549aabd-2626-4ebd-874b-009d672ea28d,,,D5,R,PLACED,[ ],W,Oostereind,,,,,Hilversum,GM0402,Hilversum,,https://wegkenmerken.ndw.nu/api/images/aea45142-67f9-4d82-b20e-feba24361963,2020-01-27,2022-01-21,,,,,,5.1985397735073,52.214080438822,POINT (5.19854 52.21408)
056bdebe-aa03-487c-939b-327afe39a5ca,,,D5,L,PLACED,"[ { ""type"": ""VRIJ"", ""text"": ""Parkeren op eigen risico Wegenverkeersregelement van toepassing Directie is niet aansprakelijk voor enige schade of letsel"" } ]",W,Ravelstraat,,,,,Bergen Op Zoom,GM0748,Bergen Op Zoom,,https://wegkenmerken.ndw.nu/api/images/36cce50c-f578-4ab8-81d5-40a625677606,2016-03-31,2022-06-28,,,,,,4.3023458281212,51.506613529746,POINT (4.302346 51.506614)
056f60fb-f01b-438e-82ed-3fefd336edb1,,,D5,R,PLACED,[ ],Z,Hartmanplein,,,143298069.0,2024-03-01,Westland,GM1783,Monster,,https://wegkenmerken.ndw.nu/api/images/5f85f764-3708-4259-b37f-25b46f577c34,2016-01-11,2022-01-26,,,,,,4.1714141988967,52.026927503482,POINT (4.171414 52.026928)
05704df9-2efc-4067-8e8c-f6b83a185509,,,D5,R,PLACED,"[ { ""type"": ""UIT"", ""text"": ""uitgezonderd"" } ]",Z,Henricus Turkenstraat,,,304224072.0,2024-03-01,'s-Hertogenbosch,GM0796,Rosmalen,,https://wegkenmerken.ndw.nu/api/images/e2582312-1c10-426f-93bc-43238890bcf8,2021-11-11,2023-12-04,,,,,,5.3449242041465,51.698877249836,POINT (5.344924 51.698877)
05889d63-3960-426d-8eec-550f39c14e8a,,,D5,R,PLACED,"[ { ""type"": ""UIT"", ""text"": ""uitgezonderd taxi's en (brom-)fietsers"" } ]",W,Markt,,,352036111.0,2024-03-01,Maastricht,GM0935,Maastricht,,https://wegkenmerken.ndw.nu/api/images/ec602dc8-feb2-4866-91a9-914b81be471f,2016-10-03,2023-12-04,,,,,,5.690293719726,50.851640263292,POINT (5.690294 50.85164)
0591600c-3dcb-4abf-81b7-7c26baed5a34,,,D5,L,PLACED,[ ],Z,Beestenmarkt,,,123133064.0,2024-03-01,Hulst,GM0677,Hulst,,https://wegkenmerken.ndw.nu/api/images/1a2cd4ce-1a41-4e91-91e3-51f4c4afb983,2016-07-21,2022-07-25,,,,,,4.0522625888094,51.279701802999,POINT (4.052263 51.279702)
0599a59e-8514-4584-851f-407033a4da9f,,,D5,L,PLACED,"[ { ""type"": ""UIT"", ""text"": ""uitgezonderd"" } ]",N,Winston Churchillstraat,,,127192071.0,2024-03-01,Tholen,GM0716,Sint-Maartensdijk,,https://wegkenmerken.ndw.nu/api/images/0cfd1e24-9af8-410f-90ff-b38ebf5b083a,2016-03-14,2023-12-04,,,,,,4.0743039127693,51.546895822322,POINT (4.074304 51.546896)
059f3c13-d588-4375-9da1-d55a75f67e8d,,,D5,R,PLACED,"[ { ""type"": ""UIT"", ""text"": ""uitgezonderd"" } ]",N,Meerten Verhoffstraat,,,225201066.0,2024-03-01,Breda,GM0758,Breda,,https://wegkenmerken.ndw.nu/api/images/d440a801-c099-44d9-9d1c-41a3a7d33af3,2017-08-08,2023-12-04,,,,,,4.781132747334,51.594679170373,POINT (4.781133 51.594679)
05a06b08-e11f-4823-b2fc-91228c574b0d,,,D5,Unknown,PLACED,[ ],O,Oudeschans,,,,,Amsterdam,GM0363,Amsterdam,,https://wegkenmerken.ndw.nu/api/images/1787a458-30b5-4ea0-9807-a29847be0b9c,2022-05-13,2022-05-13,,,,,,4.905685832987,52.371878813837,POINT (4.905686 52.371879)
05a6d90a-ae1d-48b7-ba59-f04c7bd5c626,,,D5,L,PLACED,"[ { ""type"": ""UIT"", ""text"": ""uitgezonderd"" } ]",W,Sportring,,,169298007.0,2024-03-01,Delft,GM0503,Delft,,https://wegkenmerken.ndw.nu/api/images/68f75675-67e6-4fe8-92f6-028b2f8dff35,2021-06-28,2023-12-04,,,,,,4.3666126988729,52.027494010581,POINT (4.366613 52.027494)
05b1dab3-36c9-49c5-8035-1fd26ac5d82a,,,D5,R,PLACED,[ ],Z,Wellensiekstraat,,,601177476.0,2024-03-01,Ede,GM0228,Ede,,https://wegkenmerken.ndw.nu/api/images/6b15a9f9-629a-4456-9b2b-44edd658714c,2016-06-28,2022-07-15,,,,,,5.6104759110345,52.036338049533,POINT (5.610476 52.036338)
05b31c86-5880-4f05-82b9-25a26206b3bd,,,D5,R,PLACED,[ ],N,Oosterweg Noord,,,,,Dijk En Waard,GM1980,Heerhugowaard,,https://wegkenmerken.ndw.nu/api/images/c6bc5b89-e6c7-432f-9e73-20f058e1c852,2016-07-13,2022-05-18,,,,,,4.8642933869379,52.672521121256,POINT (4.864293 52.672521)
05ba58d4-1aef-4a0c-a352-46b782a25aed,,,D5,R,PLACED,[ ],Z,Langewijk,,,,,Hardenberg,GM0160,Dedemsvaart,,https://wegkenmerken.ndw.nu/api/images/8d267319-fa35-4fc6-86b4-82a06da2306b,2016-09-14,2022-08-25,,,,,,6.4527172935158,52.604882510618,POINT (6.452717 52.604883)
05bbf020-5a2d-4cb8-b9a3-71fccef1f9db,,,D5,L,PLACED,"[ { ""type"": ""UIT"", ""text"": ""uitgezonderd"" } ]",N,Rapenburg,,,600384628.0,2024-03-01,Leiden,GM0546,Leiden,,https://wegkenmerken.ndw.nu/api/images/7b72f9ad-d6e4-4aca-b712-2a9567ea1520,2016-03-21,2023-12-04,,,,,,4.4861078146525,52.156977608926,POINT (4.486108 52.156978)
05bcf7f7-b188-428d-b00f-ab3d350fd6f5,,,D5,R,PLACED,"[ { ""type"": ""UIT"", ""text"": ""uitgezonderd"" } ]",W,Nassaustraat,,,189328046.0,2024-03-01,Leiden,GM0546,Leiden,,https://wegkenmerken.ndw.nu/api/images/abbca6aa-f16d-47cd-846a-75ffe1b850ca,2016-03-24,2023-12-04,,,,,,4.5048602185602,52.164297018328,POINT (4.50486 52.164297)
05c2394b-745a-4450-8c1f-3e647f89fb9d,,,D5,L,PLACED,"[ { ""type"": ""UIT"", ""text"": ""uitgezonderd lijnbussen"" } ]",W,Beneluxlaan,,,601270063.0,2024-11-01,Beverwijk,GM0375,Beverwijk,,https://wegkenmerken.ndw.nu/api/images/ebcbb21f-b114-4beb-96a7-4faeb78a8ee6,2016-11-23,2023-12-04,,,,,,4.6683205620265,52.491005526383,POINT (4.668321 52.491006)
05c5a120-16fd-4be9-907b-696c5a7a2c4f,,,D5,R,PLACED,[ ],N,John F. Kennedylaan,,,,,Valkenswaard,GM0858,Valkenswaard,,https://wegkenmerken.ndw.nu/api/images/c38776ae-ea08-48cf-b157-d490d554c02c,2016-03-08,2022-03-16,,,,,,5.4828424550567,51.350129343256,POINT (5.482842 51.350129)
05ca000f-05de-4ab9-b2a1-083509ebcfb5,,,D5,R,PLACED,[ ],W,Kloosterland,,,601013799.0,2024-03-01,Wassenaar,GM0629,Wassenaar,,https://wegkenmerken.ndw.nu/api/images/d84103ef-f9a7-4f7e-bd8b-ae28fc2d491e,2016-11-24,2022-11-25,,,,,,4.3927216293666,52.143391617982,POINT (4.392722 52.143392)
05db5630-e397-40b9-a8e6-5d8c9ef0c95e,,,D5,R,PLACED,"[ { ""type"": ""UIT"", ""text"": ""uitgezonderd"" } ]",Z,Primulastraat,,,600377415.0,2024-03-01,Heusden,GM0797,Drunen,,https://wegkenmerken.ndw.nu/api/images/5d81900d-0b54-4bee-b0ce-cb7aa4e213f7,2016-12-01,2023-12-04,,,,,,5.1366447268853,51.692819180395,POINT (5.136645 51.692819)
05e37e3c-9a6b-40df-a1b3-f50a36f9f6dd,,,D5,R,PLACED,[ ],Z,Laan van Europa,,,,,Dordrecht,GM0505,Dordrecht,,https://wegkenmerken.ndw.nu/api/images/dca1e69e-346a-4244-b096-5995111f6307,2016-02-26,2022-04-12,,,,,,4.6538547008963,51.776213039384,POINT (4.653855 51.776213)
05fa3d12-4cbe-4fec-9727-cb5a9753c2e2,,,D5,R,PLACED,[ ],W,Rotterdamseweg,,,600741297.0,2024-03-01,Zwijndrecht,GM0642,Zwijndrecht,,https://wegkenmerken.ndw.nu/api/images/c08c8341-60b2-462c-861e-bceb86710457,2016-04-06,2022-04-19,,,,,,4.6476917780798,51.821699861745,POINT (4.647692 51.8217)
060159e5-fd63-43ff-92ba-60d4ed0c4efa,,,D5,R,PLACED,[ ],Z,Balensteiger,,,600372241.0,2024-03-01,Gorinchem,GM0512,Gorinchem,,https://wegkenmerken.ndw.nu/api/images/fbdcffcd-4acc-4373-9925-1a96f77ce385,2020-08-18,2022-07-11,,,,,,4.9792718159802,51.830511067031,POINT (4.979272 51.830511)
060f982f-0acf-42ec-977b-4b45a98ccdfe,,,D5,R,PLACED,"[ { ""type"": ""UIT"", ""text"": ""uitgezonderd"" } ]",NO,Damrak,,,601019825.0,2025-09-01,Amsterdam,GM0363,Amsterdam,,https://wegkenmerken.ndw.nu/api/images/5cb41aad-683f-4d52-90d0-9b50d5186e14,2019-07-22,2025-09-09,,,,,,4.8980425259504,52.376764974061,POINT (4.898043 52.376765)
0615c8ee-f449-4cc2-80b6-4d6d6faaddda,,,D5,L,PLACED,[ ],O,'s Heer Boeijenstraat,,,210251048.0,2024-03-01,Dordrecht,GM0505,Dordrecht,,https://wegkenmerken.ndw.nu/api/images/07457a82-bdff-4a4e-8956-10cdd6754548,2016-03-02,2022-04-25,,,,,,4.6679758012067,51.816332723247,POINT (4.667976 51.816333)
0615f45e-f8c1-4aca-a293-3c6816901f24,,,D5,L,PLACED,[ ],Z,Logistiekweg,,,,,Lingewaard,GM1705,Bemmel,,https://wegkenmerken.ndw.nu/api/images/6d3df070-c37b-4073-9d8a-46dc40865de1,2022-10-03,2022-10-03,,,,,,5.9295982964631,51.904916403109,POINT (5.929598 51.904916)
061ddaf1-fd63-47d6-a944-4779fd0eebcd,,,D5,R,PLACED,[ ],W,Almystraat,,,600984237.0,2024-03-01,Oisterwijk,GM0824,Oisterwijk,,https://wegkenmerken.ndw.nu/api/images/7c3a1013-1087-4f71-983c-6c403b605fd5,2016-07-11,2022-06-23,,,,,,5.1842169217015,51.580072465565,POINT (5.184217 51.580072)
0622d075-70e7-4e5e-a389-e8dae2d4090f,,,D5,R,PLACED,[ ],Z,Klaas Benninkstraat,,,398431042.0,2024-03-01,Zwartewaterland,GM1896,Genemuiden,,https://wegkenmerken.ndw.nu/api/images/0c33f3e7-a15b-46db-9681-7ed74f2488a4,2017-04-18,2022-04-28,,,,,,6.0427331085677,52.625121857337,POINT (6.042733 52.625122)
0622f6a0-63c2-4af6-a755-3c067bca70cb,,,D5,R,PLACED,"[ { ""type"": ""VRIJ"", ""text"": """" } ]",O,Kasteel Liebeekstraat,,,355038026.0,2024-03-01,Maastricht,GM0935,Maastricht,,https://wegkenmerken.ndw.nu/api/images/0f718de0-f636-4a8d-956f-4a046dc7374a,2016-09-25,2022-09-05,,,,,,5.7119273136337,50.863506773555,POINT (5.711927 50.863507)
0625a17a-e02e-47e3-8358-8812305d626f,,,D5,L,PLACED,[ ],Z,Morgenzonweg,,,,,Winterswijk,GM0294,Winterswijk,,https://wegkenmerken.ndw.nu/api/images/4594b390-602b-481c-a633-e3ad473170b0,2016-05-24,2022-05-24,,,,,,6.7017832636116,51.977278320111,POINT (6.701783 51.977278)
062702ea-363a-46e7-aaf6-df535a7e28a2,,,D5,L,PLACED,[ ],N,Keucheniusstraat,,,289357153.0,2024-03-01,Huizen,GM0406,Huizen,,https://wegkenmerken.ndw.nu/api/images/721336be-3057-4c4b-9cf0-b10d238f431c,2016-03-14,2022-06-09,,,,,,5.2336517890889,52.297379475415,POINT (5.233652 52.297379)
062abd33-968b-43ca-8f2b-84dc0f571d68,,,D5,R,PLACED,[ ],W,Stationsstraat,,,210319119.0,2024-03-01,Alphen aan den Rijn,GM0484,Alphen aan den Rijn,,https://wegkenmerken.ndw.nu/api/images/5613ba59-9896-4151-8a2f-693f8e15068f,2016-06-03,2022-07-15,,,,,,4.6585793142601,52.12537221104,POINT (4.658579 52.125372)
062bb0ff-b8a8-4ea1-a4d4-59ea8abdc453,,,D5,L,PLACED,[ ],O,Spirealaan,,,306231075.0,2024-03-01,'s-Hertogenbosch,GM0796,Rosmalen,,https://wegkenmerken.ndw.nu/api/images/99194932-9669-412e-9abf-4660f75b887a,2016-11-24,2022-11-22,,,,,,5.3625822458698,51.731437232288,POINT (5.362582 51.731437)
062c7d49-0889-4d4d-bbd4-bb3ae8201291,,,D5,L,PLACED,[ ],N,Badhuiskade,,,601319887.0,2025-09-01,Amsterdam,GM0363,Amsterdam,,https://wegkenmerken.ndw.nu/api/images/f9d5b0e1-9aef-4751-b76b-b6ce6d0e1dec,2022-06-03,2025-09-09,,,,,,4.9067834349906,52.386047325218,POINT (4.906783 52.386047)
062dbe13-7633-4239-9045-54d951b2b174,,2024-10-17,D5,L,PLACED,[ ],Z,Groene Zoom,,,601255820.0,2024-10-01,Noordoostpolder,GM0171,Marknesse,,https://wegkenmerken.ndw.nu/api/images/be494c4a-f558-4e88-b1a0-903db05fed66,2024-10-17,2024-10-17,,2024-10-17,,,,5.863531697541475,52.70993096854596,POINT (5.863532 52.709931)
06372c03-c52c-4a10-9bf1-ef9ae525364f,,,D5,L,PLACED,"[ { ""type"": ""UIT"", ""text"": ""uitgezonderd"" } ]",Z,Spittaalderkamp,,,600858810.0,2024-03-01,Zutphen,GM0301,Zutphen,,https://wegkenmerken.ndw.nu/api/images/c54cd5b3-4015-4dfe-ad0e-5ffff14d4d79,2016-09-13,2023-12-04,,,,,,6.2137904086315,52.135414771552,POINT (6.21379 52.135415)
0648e4dc-4d85-471f-b487-16514de0f31f,,,D5,L,PLACED,[ ],N,Nieuwstraat,,,600380584.0,2024-03-01,Zaltbommel,GM0297,Brakel,,https://wegkenmerken.ndw.nu/api/images/8864b519-143f-4652-ba0f-70aae940425a,2021-12-21,2021-12-21,,,,,,5.0977600002587,51.820876989294,POINT (5.09776 51.820877)
064e9aa3-4016-4851-a4bf-44feffbc7649,,,D5,R,PLACED,[ ],O,Laan van Oud-Poelgeest,,,600728734.0,2024-03-01,Oegstgeest,GM0579,Oegstgeest,,https://wegkenmerken.ndw.nu/api/images/65f92fd2-b4dd-488c-afef-be02a64906bb,2016-01-29,2022-02-17,,,,,,4.4813845788301,52.1809171371,POINT (4.481385 52.180917)
064ea12e-97b8-4da7-9d9c-6ddeb03c0f00,,,D5,R,PLACED,"[ { ""type"": ""UIT"", ""text"": ""uitgezonderd"" } ]",Z,Dorpssingel,,,601237291.0,2024-07-01,Beuningen,GM0209,Beuningen Gld,,https://wegkenmerken.ndw.nu/api/images/cbe330df-e0b7-4fdc-800c-4808825b78c5,2016-06-02,2023-12-04,,,,,,5.7719840786335,51.862998645539,POINT (5.771984 51.862999)
0670d0f0-4669-4a0e-a91b-cfd7f05419a7,,,D5,R,PLACED,[ ],W,Eerste Westerparklaan,,,,,Utrecht,GM0344,Utrecht,,https://wegkenmerken.ndw.nu/api/images/c88d4860-3796-4f5a-8818-ed1b37a64624,2022-04-20,2022-04-20,,,,,,5.0515325535096,52.089187821047,POINT (5.051533 52.089188)
06aa6d3d-625c-4d34-8350-8a74d6655c9c,,,D5,L,PLACED,[ ],N,Mierloseweg,,,334163086.0,2024-03-01,Geldrop-Mierlo,GM1771,Geldrop,,https://wegkenmerken.ndw.nu/api/images/a1a2750f-4db9-4474-b2ca-aa181803bebb,2021-11-29,2022-11-08,,,,,,5.56361323994,51.425184161302,POINT (5.563613 51.425184)
06aeb9f4-7623-43e4-a694-562249d52840,,,D5,L,PLACED,[ ],Z,Ferguutstraat,,,237375023.0,2025-09-01,Amsterdam,GM0363,Amsterdam,,https://wegkenmerken.ndw.nu/api/images/a31e8424-292a-4918-8a68-13f745f34e1c,2016-08-25,2025-09-09,,,,,,4.8551550328833,52.376964856653,POINT (4.855155 52.376965)
06b4cf54-6921-4d83-8052-899d82320637,,,D5,R,PLACED,[ ],N,Thurledeweg,,,600723122.0,2024-03-01,Rotterdam,GM0599,Rotterdam,,https://wegkenmerken.ndw.nu/api/images/690d7ec6-0bc3-48e4-babd-0f3b47177b83,2016-08-09,2022-03-16,,,,,,4.4117891870122,51.930069668446,POINT (4.411789 51.93007)
06d02be8-b32e-488f-8b77-5b0abf0a1192,,,D5,R,PLACED,"[ { ""type"": ""VRIJ"", ""text"": """" } ]",N,Van Baerleplantsoen,,,600910967.0,2024-03-01,Dordrecht,GM0505,Dordrecht,,https://wegkenmerken.ndw.nu/api/images/70522389-4e4f-4a04-9a27-6e96473732e5,2020-04-08,2022-04-22,,,,,,4.6619513086931,51.807494946336,POINT (4.661951 51.807495)
06d57fab-982b-45e7-9936-9601f8739598,,,D5,L,PLACED,[ ],W,Nassaustraat,,,601149018.0,2024-03-01,Rheden,GM0275,Velp,,https://wegkenmerken.ndw.nu/api/images/99c9c900-3fd0-4209-8b75-99a27cfc78b7,2021-05-06,2022-04-26,,,,,,5.9678251239213,51.991693917956,POINT (5.967825 51.991694)
06e90288-b7cc-49ac-80d1-a0fe38add369,,,D5,L,PLACED,[ ],L,Akermaat,,,600119620.0,2024-03-01,Heemskerk,GM0396,Heemskerk,,https://wegkenmerken.ndw.nu/api/images/f9cf6114-29fb-4cec-b968-e9b8010d00bd,2016-01-08,2022-04-23,,,,,,4.6988051402983,52.497109065769,POINT (4.698805 52.497109)
06eeabf7-b869-4196-b934-c2c13afb636a,,,D5,L,PLACED,[ ],W,Troostwijkstraat,,,600794628.0,2024-03-01,Amersfoort,GM0307,Amersfoort,,https://wegkenmerken.ndw.nu/api/images/1cef456a-7925-4cce-ae64-f204f8b53b65,2016-06-22,2022-05-18,,,,,,5.3816856430743,52.155962402908,POINT (5.381686 52.155962)
06f971ba-7c1d-446b-87b3-8424ce6fa669,,,D5,R,PLACED,"[ { ""type"": ""UIT"", ""text"": ""uitgezonderd lijnbussen"" } ]",Z,Vlielantweg,,,600743724.0,2024-03-01,Velsen,GM0453,Santpoort-Noord,,https://wegkenmerken.ndw.nu/api/images/c0ad1451-0e26-45fd-804f-158f0ecfbc21,2016-12-08,2023-12-04,,,,,,4.6453158606409,52.428880520216,POINT (4.645316 52.428881)
06fa3406-1ee2-4019-89ce-db142a658684,,,D5,R,PLACED,"[ { ""type"": ""VRIJ"", ""text"": ""vrachtauto's"" } ]",W,Laan van Vredestein,,,154305096.0,2024-03-01,'s-Gravenhage,GM0518,'s-Gravenhage,,https://wegkenmerken.ndw.nu/api/images/fdf61a93-3b4b-414a-89b4-ed91791a3c42,2016-09-06,2022-10-11,,,,,,4.2509784685537,52.057847209831,POINT (4.250978 52.057847)
06fe258a-31ed-495b-9530-52936fc116cb,,,D5,R,PLACED,"[ { ""type"": ""UIT"", ""text"": ""uitgezonderd"" } ]",N,Gedempte Neltjeshaven,,,601149610.0,2024-03-01,Súdwest-Fryslân,GM1900,Sneek,,https://wegkenmerken.ndw.nu/api/images/1ed23fdb-9d94-46b8-96b0-5b8ca8df3d00,2016-09-05,2023-12-04,,,,,,5.6584194572207,53.03332279405,POINT (5.658419 53.033323)
07070549-1501-4858-8763-b179bec9fdea,,,D5,L,PLACED,"[ { ""type"": ""UIT"", ""text"": ""uitgezonderd"" } ]",W,Weissenbruchstraat,,,163312001.0,2024-03-01,'s-Gravenhage,GM0518,'s-Gravenhage,,https://wegkenmerken.ndw.nu/api/images/5ab57dfc-57f6-4172-97f1-ff28cceea8ac,2016-09-09,2023-12-04,,,,,,4.3174288937675,52.089186237532,POINT (4.317429 52.089186)
070a000f-7562-40ea-b668-d3b898d74212,,,D5,L,PLACED,"[ { ""type"": ""UIT"", ""text"": ""uitgezonderd"" } ]",Z,St Odulphusstraat,,,600377479.0,2024-03-01,Oirschot,GM0823,Oirschot,,https://wegkenmerken.ndw.nu/api/images/2d68b0c7-2a3b-4bbb-926a-c07baeb24b31,2016-09-29,2023-12-04,,,,,,5.3075938383049,51.504636189272,POINT (5.307594 51.504636)
070cc0f6-f135-4618-b9e1-d2060c0dfd7c,,,D5,L,PLACED,[ ],ZO,J.C. Beetslaan,,,214362008.0,2025-03-01,Haarlemmermeer,GM0394,Hoofddorp,,https://wegkenmerken.ndw.nu/api/images/c5b1e82e-7857-4947-847e-b7410fdf53c7,2016-07-01,2025-03-19,,,,,,4.6897991034134,52.313340645001,POINT (4.689799 52.313341)
070f16d5-615f-48fc-8d0a-c1b673947e62,,,D5,R,PLACED,"[ { ""type"": ""UIT"", ""text"": ""uitgezonderd"" } ]",W,Oudewand,,,600383033.0,2024-03-01,Zutphen,GM0301,Zutphen,,https://wegkenmerken.ndw.nu/api/images/f5150b94-9001-41ce-8ede-081afe86672f,2016-09-13,2023-12-04,,,,,,6.1965992629404,52.142713910193,POINT (6.196599 52.142714)
07166f5e-f23d-43ee-ae6a-c5271fbefa26,,,D5,R,PLACED,[ ],W,Bredeweg,,,600846412.0,2024-03-01,Roermond,GM0957,Roermond,,https://wegkenmerken.ndw.nu/api/images/97679bbb-1d3c-4d64-8599-08d75abd2964,2016-04-11,2022-05-23,,,,,,6.0020315457484,51.179701144,POINT (6.002032 51.179701)
07194d29-6932-494c-aa02-db2ed3a60255,,,D5,L,PLACED,"[ { ""type"": ""UIT"", ""text"": ""uitgezonderd"" } ]",O,Lutherhof,,,276339062.0,2024-03-01,Hilversum,GM0402,Hilversum,,https://wegkenmerken.ndw.nu/api/images/e8343ba9-16d9-483b-afcc-751521f78551,2022-01-24,2023-12-04,,,,,,5.1395580664505,52.214773375959,POINT (5.139558 52.214773)
0723c098-28d7-45ba-b493-5cf50ec56c81,,,D5,R,PLACED,[ ],O,Museumpark,,,601229200.0,2024-06-01,Rotterdam,GM0599,Rotterdam,,https://wegkenmerken.ndw.nu/api/images/b307adde-9f99-4874-8b64-0c6b005cf559,2016-08-08,2022-03-07,,,,,,4.4701636229446,51.913965705992,POINT (4.470164 51.913966)
073c7df8-7eaf-4e35-8f5f-6504e2a9470b,,,D5,R,PLACED,[ ],N,Arlandaweg,,,601102833.0,2025-09-01,Amsterdam,GM0363,Amsterdam,,,2025-09-09,2025-09-09,,2025-09-09,,,,4.8392524664498,52.3858370904413,POINT (4.839252 52.385837)
073fb385-23bb-42a0-b031-c8c8bad6f96f,,,D5,L,PLACED,"[ { ""type"": ""UIT"", ""text"": ""uitgezonderd"" } ]",Z,Havenplein,,,398430142.0,2024-03-01,Zwartewaterland,GM1896,Genemuiden,,https://wegkenmerken.ndw.nu/api/images/da43ccb0-4410-4b10-a9c7-c11b3c9e8b9b,2017-04-18,2023-12-04,,,,,,6.0407755433044,52.623624947062,POINT (6.040776 52.623625)
074199a5-a58d-4393-808b-fcc00c751ba0,,,D5,R,PLACED,"[ { ""type"": ""UIT"", ""text"": ""uitgezonderd"" } ]",N,Westsingel,,,101182009.0,2024-03-01,Goes,GM0664,Goes,,https://wegkenmerken.ndw.nu/api/images/24fcacec-7836-4e68-979e-e658454b8b6f,2020-01-09,2023-12-04,,,,,,3.8875390921247,51.501820701661,POINT (3.887539 51.501821)
0741be9c-6eb1-46c2-96ea-3b6cb0a00ef5,,,D5,R,PLACED,[ ],N,Sanderboutlaan,,,600827097.0,2024-03-01,Stein,GM0971,Elsloo,,https://wegkenmerken.ndw.nu/api/images/78992e6d-4c42-4e66-b58f-746b7fd9a8e1,2017-01-05,2022-01-12,,,,,,5.7856604350839,50.954452693766,POINT (5.78566 50.954453)
07496201-497b-4095-8f0f-b4c06cfe77d0,,,D5,R,PLACED,"[ { ""type"": ""UIT"", ""text"": ""uitgezonderd"" } ]",O,Grutto,,,155295005.0,2024-03-01,Westland,GM1783,Kwintsheul,,https://wegkenmerken.ndw.nu/api/images/7396716d-2409-4b46-ab18-552481ec8289,2016-01-19,2023-12-04,,,,,,4.2599986318473,52.014012083033,POINT (4.259999 52.014012)
0753ca3c-e365-4338-ad00-8fc98241f78a,,,D5,R,PLACED,"[ { ""type"": ""UIT"", ""text"": ""uitgezonderd"" } ]",O,Binnenveld,,,384242026.0,2024-03-01,Berg en Dal,GM1945,Groesbeek,,https://wegkenmerken.ndw.nu/api/images/105aa513-ee09-4c5b-9f14-5d6db1da3e7f,2016-09-13,2023-12-04,,,,,,5.9312633618647,51.776672397669,POINT (5.931263 51.776672)
0761b288-ab51-40fb-bf4e-0801b47d7514,,,D5,R,PLACED,"[ { ""type"": ""UIT"", ""text"": ""uitgezonderd lijnbussen"" } ]",O,Terheijdenseweg,,,226202111.0,2024-03-01,Breda,GM0758,Breda,,https://wegkenmerken.ndw.nu/api/images/bb3f007e-e763-43f6-91dc-8a93365fe794,2016-09-23,2023-12-04,,,,,,4.7818034205956,51.597169983719,POINT (4.781803 51.59717)
076edccc-c2fc-4c16-b953-507267b7f8f6,,,D5,R,PLACED,"[ { ""type"": ""VRIJ"", ""text"": """" } ]",O,Nieuwe Aamsestraat,,,601029309.0,2024-03-01,Overbetuwe,GM1734,Elst,,https://wegkenmerken.ndw.nu/api/images/94e905b3-d40a-4fc4-95e6-1bd03a0969a4,2016-02-23,2022-02-03,,,,,,5.869682493834,51.914296061873,POINT (5.869682 51.914296)
07751763-0366-4992-b484-e94ec90daf15,,,D5,R,PLACED,[ ],Z,Diergaardesingel,,,601081292.0,2024-03-01,Rotterdam,GM0599,Rotterdam,,https://wegkenmerken.ndw.nu/api/images/9a065fad-572a-48d5-870e-473edf8432a9,2016-08-08,2022-03-21,,,,,,4.4707949491238,51.92101829468,POINT (4.470795 51.921018)
077aa304-7971-4b62-9ced-03d4eb561665,,,D5,R,PLACED,[ ],Z,Velperplein,,,600837353.0,2024-03-01,Arnhem,GM0202,Arnhem,,https://wegkenmerken.ndw.nu/api/images/a9d1a416-7f52-447c-8cdd-1c82b942ede8,2021-03-31,2022-03-28,,,,,,5.9117149714668,51.983396773139,POINT (5.911715 51.983397)
077b0348-a7be-49d4-bb59-cf10ad9d462e,,,D5,R,PLACED,[ ],Z,Proostwetering,,,,,Utrecht,GM0344,Utrecht,,https://wegkenmerken.ndw.nu/api/images/01bb0c31-571e-405c-9d63-d37169c13866,2016-04-25,2022-03-25,,,,,,5.0428529587549,52.111885938518,POINT (5.042853 52.111886)
0781cea9-38c0-46e9-97d7-6a2776fba32e,,,D5,R,PLACED,[ ],Z,Nieuwe Meerlaan,,,232360051.0,2024-03-01,Amstelveen,GM0362,Amstelveen,,https://wegkenmerken.ndw.nu/api/images/6c468f44-8dd7-4769-bbb5-48cff8f7a0c9,2016-08-03,2022-10-31,,,,,,4.8164664083148,52.306849564703,POINT (4.816466 52.30685)
0782a19d-0a8b-421b-9576-dcb4bc55cd45,,,D5,L,PLACED,"[ { ""type"": ""VRIJ"", ""text"": """" } ]",W,Kromhoutstraat,,,600115708.0,2024-03-01,Velsen,GM0453,IJmuiden,,https://wegkenmerken.ndw.nu/api/images/27e9ffc3-f1f3-43fc-9e6e-cef643b2bbfa,2016-12-06,2022-12-05,,,,,,4.5746065310641,52.454993653271,POINT (4.574607 52.454994)
078dda6a-3ed2-4f05-9b08-a60f670defe4,,,D5,R,PLACED,"[ { ""type"": ""UIT"", ""text"": ""uitgezonderd"" } ]",W,Emmakade,,,365558075.0,2024-03-01,Leeuwarden,GM0080,Leeuwarden,,https://wegkenmerken.ndw.nu/api/images/44a98829-a826-4f47-a5bd-7f7bc355f2ed,2016-12-01,2023-12-04,,,,,,5.803429264874,53.199652223545,POINT (5.803429 53.199652)
07924086-181b-4bf2-a676-45f62ce32826,,,D5,L,PLACED,[ ],W,Waterstraat,,,,,Maasgouw,GM1641,Thorn,,https://wegkenmerken.ndw.nu/api/images/fee12f9b-bcc7-4a54-bbd0-239cd2daeb89,2016-11-11,2022-04-02,,,,,,5.8438559611921,51.158464425757,POINT (5.843856 51.158464)
0797408b-aaa9-4947-81ca-e76540eaaa5f,,,D5,L,PLACED,"[ { ""type"": ""VRIJ"", ""text"": """" } ]",W,Hoogstraat,,,387116029.0,2024-03-01,Leudal,GM1640,Horn,,https://wegkenmerken.ndw.nu/api/images/47f61de1-52df-4973-bafc-97d753c2cb4d,2016-03-10,2022-05-12,,,,,,5.9435313522673,51.214097293777,POINT (5.943531 51.214097)
07a0de27-bb5c-4644-abcf-b17b1708fb60,,,D5,L,PLACED,"[ { ""type"": ""UIT"", ""text"": ""uitgezonderd (brom)fietsers"" } ]",N,Baron van Brakelllaan,,,364288014.0,2024-03-01,Renkum,GM0274,Doorwerth,,https://wegkenmerken.ndw.nu/api/images/4161f3b8-6945-4e16-bdf9-61689901dc71,2016-10-13,2023-12-04,,,,,,5.7870377352307,51.985521782358,POINT (5.787038 51.985522)
07c10dcf-b9ba-41f9-a80f-1e1ff987958b,,,D5,L,PLACED,[ ],W,Catharina Daemenstraat,,,600404424.0,2024-03-01,Leudal,GM1640,Heythuysen,,https://wegkenmerken.ndw.nu/api/images/c2db858d-9bcd-41ee-a0e8-dce4274062b2,2016-03-14,2022-05-05,,,,,,5.8821731828798,51.2527596438,POINT (5.882173 51.25276)
07c42335-b69f-4d03-846d-4b7e28372fb4,,,D5,R,PLACED,[ ],L,Rijksweg A2,,,600127121.0,2024-03-01,Nieuwegein,GM0356,Nieuwegein,,https://wegkenmerken.ndw.nu/api/images/ef000a58-7f29-4297-96f4-2a28630ee648,2016-05-15,2022-04-11,,,,,,5.0682103097957,52.016895383341,POINT (5.06821 52.016895)
07d20255-b4d9-4648-a31c-8b6bda09316a,,,D5,L,PLACED,[ ],O,Nieuwe Herengracht,,,244373090.0,2024-03-01,Amsterdam,GM0363,Amsterdam,,https://wegkenmerken.ndw.nu/api/images/14184c62-1633-48cc-be67-777e6ce50fd2,2016-08-15,2022-05-18,,,,,,4.9065032050926,52.367214202433,POINT (4.906503 52.367214)
07e90541-6d1b-413f-ae9c-600069910359,,,D5,R,PLACED,"[ { ""type"": ""UIT"", ""text"": ""uitgezonderd"" } ]",W,Lange Broekweg,,,600712621.0,2024-03-01,Westland,GM1783,Naaldwijk,,https://wegkenmerken.ndw.nu/api/images/41843061-514f-4438-a198-3db55b16cf53,2016-01-19,2023-12-04,,,,,,4.2216782709038,51.988654154803,POINT (4.221678 51.988654)
07ebb72a-42ac-4737-ad34-d0ac78b3cf58,,,D5,R,PLACED,[ ],N,Zuid Brouwersstraat,,,205376086.0,2024-03-01,Haarlem,GM0392,Haarlem,,https://wegkenmerken.ndw.nu/api/images/c8130f4e-57b2-4c54-9c1b-ed523ca7c431,2016-09-12,2022-10-03,,,,,,4.6243887409211,52.378627002125,POINT (4.624389 52.378627)
07ef8e05-6903-40ce-af97-453e75165c37,,,D5,L,PLACED,[ ],O,De Wanne,,,601073427.0,2024-03-01,Borne,GM0147,Borne,,https://wegkenmerken.ndw.nu/api/images/15bfd4d7-ad17-496a-ba28-fd79bdabb974,2021-12-22,2021-12-22,,,,,,6.7564603685818,52.307200217658,POINT (6.75646 52.3072)
07f770ee-c2d5-44db-803a-e41abb429f57,,,D5,R,PLACED,[ ],N,Koppelenburgerweg,,,415311037.0,2024-03-01,Brummen,GM0213,Brummen,,https://wegkenmerken.ndw.nu/api/images/ae97eed9-6cea-4a29-bb54-1138bb6b5f82,2016-04-18,2022-02-27,,,,,,6.1576377486599,52.086191730022,POINT (6.157638 52.086192)
08120b60-6e66-48c9-be36-b0b93282cf92,,,D5,L,PLACED,[ ],W,Flight Forum,,,600388771.0,2024-03-01,Eindhoven,GM0772,Eindhoven,,https://wegkenmerken.ndw.nu/api/images/56d968f8-e5f5-49e6-a1a5-f6efddeacb83,2016-08-16,2022-08-02,,,,,,5.4013534816311,51.456541559658,POINT (5.401353 51.456542)
081c07ba-0714-4f8c-8ea7-752d939f0786,,,D5,R,PLACED,"[ { ""type"": ""VRIJ"", ""text"": """" }, { ""type"": ""VRIJ"", ""text"": ""VRACHT AUTO"" } ]",O,Westlandstraat,,,55160056.0,2024-03-01,Sluis,GM1714,Breskens,,https://wegkenmerken.ndw.nu/api/images/593ca58b-2e0c-40ad-ab70-61609a5b8b72,2016-06-29,2022-06-02,,,,,,3.5564407214802,51.397148204829,POINT (3.556441 51.397148)
081e8330-d52e-492f-85e7-4494b09f14ee,,,D5,R,PLACED,[ ],O,Maliestraat,,,275312031.0,2024-03-01,Utrecht,GM0344,Utrecht,,https://wegkenmerken.ndw.nu/api/images/6ce7419a-fe0a-4c90-aefd-c3c5eee84911,2016-03-23,2022-03-17,,,,,,5.1370725071566,52.094095147391,POINT (5.137073 52.094095)
08244cce-03c3-44ab-beb5-b1bf2f3fd511,,,D5,R,PLACED,[ ],Z,Buiksloterweg,,,600763563.0,2025-09-01,Amsterdam,GM0363,Amsterdam,,https://wegkenmerken.ndw.nu/api/images/e26c7d08-daf4-4d0e-8713-b8256214771b,2018-06-06,2025-09-09,,,,,,4.906365702489,52.383700960388,POINT (4.906366 52.383701)
0828a61b-1b5c-4ee1-9da1-4ba18afc8b0c,,,D5,R,PLACED,"[ { ""type"": ""UIT"", ""text"": ""uitgezonderd"" } ]",O,Weteringschans,,,600922145.0,2025-09-01,Amsterdam,GM0363,Amsterdam,,https://wegkenmerken.ndw.nu/api/images/ba9aa916-772a-47ef-9030-088f85d5ec5f,2018-07-16,2025-09-09,,,,,,4.8926498074661,52.359349849691,POINT (4.89265 52.35935)
084294aa-4c66-442d-a49a-320e11575d20,,,D5,L,PLACED,"[ { ""type"": ""VRIJ"", ""text"": """" } ]",Z,Van Hogendorplaan,,,278339038.0,2024-03-01,Hilversum,GM0402,Hilversum,,https://wegkenmerken.ndw.nu/api/images/15ac5460-aa1a-4fc1-8169-95132e7c0500,2016-11-23,2022-01-24,,,,,,5.1560590777334,52.214074864975,POINT (5.156059 52.214075)
084720d1-c632-4aff-8105-3ccad9f19dcb,,,D5,R,PLACED,[ ],L,Legmeerdijk,2.0,231.0,600121858.0,2024-03-01,Amstelveen,GM0362,Amstelveen,,https://wegkenmerken.ndw.nu/api/images/6c00967f-4668-4451-a527-218e8358c3f3,2020-11-17,2022-11-03,,,,,,4.8005418258944,52.266021505043,POINT (4.800542 52.266022)
08484307-4245-45a5-8b0f-e916e74bb0d3,,,D5,L,PLACED,[ ],O,Mitchamplein,,,,,Hengelo O,GM0164,Hengelo,,https://wegkenmerken.ndw.nu/api/images/e7df9a8b-54e5-4371-854c-2d2547742508,2016-06-09,2022-04-10,,,,,,6.7867404832925,52.266858850516,POINT (6.78674 52.266859)
0850dc59-b618-4df3-87a9-40ce38aed4d7,,,D5,R,PLACED,[ ],Z,Gedempte Oude Gracht,,,,,Haarlem,GM0392,Haarlem,,https://wegkenmerken.ndw.nu/api/images/521cd0e5-012d-42d5-8f13-1754c0010336,2020-10-22,2022-10-18,,,,,,4.6367209319532,52.377921178308,POINT (4.636721 52.377921)
08554788-73ed-4bc1-8fa4-9174f331e07d,,,D5,L,PLACED,[ ],Z,Frontenpad,,,,,Maastricht,GM0935,Maastricht,,https://wegkenmerken.ndw.nu/api/images/8e062858-f6cc-493b-8362-af0646f1d1b7,2016-09-23,2022-08-26,,,,,,5.6889479838049,50.858931003242,POINT (5.688948 50.858931)
08568982-009b-4f21-b77e-5dbe9ae55dc3,,,D5,L,PLACED,"[ { ""type"": ""VRIJ"", ""text"": """" } ]",O,Sint Cathrijnestraat,,,600186779.0,2024-03-01,Zaanstad,GM0479,Zaandam,,https://wegkenmerken.ndw.nu/api/images/75c2f35c-294c-4b39-9d5a-98ce7071a5bc,2016-08-31,2022-09-14,,,,,,4.8315630252228,52.438383872869,POINT (4.831563 52.438384)
0866320f-fe8b-4c87-a437-dd17e98dd885,,,D5,R,PLACED,[ ],N,Bijlmerdreef,,,,,Amsterdam,GM0363,Amsterdam,,https://wegkenmerken.ndw.nu/api/images/728cfc7d-795b-4a79-822c-bc30bc0c883f,2019-06-24,2022-05-30,,,,,,4.9693910989576,52.320967816885,POINT (4.969391 52.320968)
0875cd71-3b8b-4d06-a9e9-e5c145edd982,,,D5,R,PLACED,[ ],O,Barckalaan,,,195274088.0,2024-03-01,Capelle aan den IJssel,GM0502,Capelle aan den IJssel,,https://wegkenmerken.ndw.nu/api/images/8b1894cb-5ced-4512-b86d-7696188e8415,2022-02-04,2022-02-04,,,,,,4.557315526078,51.919702295309,POINT (4.557316 51.919702)
0898722e-e397-40d7-953b-245aaee68391,,,D5,L,PLACED,"[ { ""type"": ""UIT"", ""text"": ""uitgezonderd"" } ]",Z,Zoete Aagt,,,601154868.0,2024-03-01,Rijswijk,GM0603,Rijswijk,,https://wegkenmerken.ndw.nu/api/images/30a2d3ff-b760-4e76-801a-883bf5affaf5,2021-08-25,2023-12-04,,,,,,4.3257630298056,52.020289421956,POINT (4.325763 52.020289)
089eb881-f317-4929-8b41-5d225688dbe5,,,D5,L,PLACED,"[ { ""type"": ""UIT"", ""text"": ""uitgezonderd bestemmingsverkeer"" } ]",Z,Schaijkseweg,,,600817230.0,2024-03-01,Maashorst,GM1991,Zeeland,,https://wegkenmerken.ndw.nu/api/images/b65b76f7-5d8f-4668-a9dd-d0761220f1a7,2016-05-03,2023-12-04,,,,,,5.6642118122026,51.708093662895,POINT (5.664212 51.708094)
08a11993-9159-43a2-a50a-a1524c7e99f7,,,D5,R,PLACED,[ ],Z,Sloetsweg,,,502354068.0,2024-03-01,Hengelo (O),GM0164,Hengelo,,https://wegkenmerken.ndw.nu/api/images/f6fb6c83-9f15-4724-87a8-a544f34393d2,2016-06-06,2022-04-10,,,,,,6.7973866487958,52.274241369133,POINT (6.797387 52.274241)
08ab2648-54ee-4a4d-a28d-336a90473073,,,D5,R,PLACED,[ ],Z,Rijksweg Zuid,,,369059039.0,2024-03-01,Sittard-Geleen,GM1883,Geleen,,https://wegkenmerken.ndw.nu/api/images/ba2cb5e5-6532-43a3-876a-cc4492b090af,2016-07-28,2022-09-12,,,,,,5.8135368577722,50.956218159454,POINT (5.813537 50.956218)
08ab2ccc-c040-4053-8964-33118f900be7,,,D5,R,PLACED,[ ],W,Constant Erzeijstraat,,,601009371.0,2024-03-01,Utrecht,GM0344,Utrecht,,https://wegkenmerken.ndw.nu/api/images/f1facdd8-9913-4ff3-9e2a-d9534072c24f,2016-03-24,2022-03-15,,,,,,5.1203669910578,52.067117361183,POINT (5.120367 52.067117)
08bc002e-7bdf-4251-8672-a519db234b1f,,,D5,R,PLACED,"[ { ""type"": ""VRIJ"", ""text"": """" } ]",Z,Stationsstraat,,,209301030.0,2024-03-01,Waddinxveen,GM0627,Waddinxveen,,https://wegkenmerken.ndw.nu/api/images/c758f921-aaab-4150-b2e1-7cb71ddbff2a,2016-05-11,2022-08-04,,,,,,4.6524311804989,52.044251614985,POINT (4.652431 52.044252)
08bf3fe9-dc3c-4ae5-bace-5515e8dead9a,,,D5,R,PLACED,[ ],O,Van Doornestraat,,,601048919.0,2024-03-01,Goes,GM0664,Goes,,https://wegkenmerken.ndw.nu/api/images/0abdad1c-ff63-40f5-b641-29ef518feb72,2016-12-08,2022-01-20,,,,,,3.8867404723693,51.497592878512,POINT (3.88674 51.497593)
08d02634-3d0d-42c9-82c3-53f6f8d78bb7,,,D5,R,PLACED,[ ],Z,Kenaupark,,,207377111.0,2024-03-01,Haarlem,GM0392,Haarlem,,https://wegkenmerken.ndw.nu/api/images/e3323516-21dd-42d2-a56b-da8f15a89f0c,2020-10-14,2022-10-04,,,,,,4.632799087687,52.38624147054,POINT (4.632799 52.386241)
08de27bf-aeab-4804-b3d7-7184debe51ce,,,D5,R,PLACED,[ ],O,Turfmarkt,,,163310011.0,2024-03-01,'s-Gravenhage,GM0518,'s-Gravenhage,,https://wegkenmerken.ndw.nu/api/images/c7e5db5e-0420-43e6-b698-3a22063cddf5,2017-10-09,2022-10-12,,,,,,4.3219360527999,52.079682768017,POINT (4.321936 52.079683)
08ed7359-a88b-48f2-8703-977b0420c172,,,D5,R,PLACED,[ ],W,Borniastraat,,,,,Leeuwarden,GM0080,Leeuwarden,,https://wegkenmerken.ndw.nu/api/images/d2208fb0-e999-47a5-9564-6d6aeca7166a,2016-12-22,2022-11-21,,,,,,5.8001521907302,53.189046990829,POINT (5.800152 53.189047)
08f2251e-bb55-43a9-b7c2-eb0da9708eef,,,D5,L,PLACED,"[ { ""type"": ""VRIJ"", ""text"": ""uitgezonderd"" } ]",W,Veldstraat,,,249207009.0,2024-03-01,Dongen,GM0766,Dongen,,https://wegkenmerken.ndw.nu/api/images/9c83237e-7fc4-4c30-b374-dc69b059c4c4,2020-09-21,2022-09-01,,,,,,4.9520314630399,51.624065049075,POINT (4.952031 51.624065)
08f667bc-4fbb-439c-822f-7854384b87e7,,,D5,R,PLACED,"[ { ""type"": ""UIT"", ""text"": ""uitgezonderd"" } ]",O,Noord Brabantlaan,,,600799289.0,2024-03-01,Eindhoven,GM0772,Eindhoven,,https://wegkenmerken.ndw.nu/api/images/c53ad737-2695-450c-9f72-180abe22489e,2016-08-15,2023-12-04,,,,,,5.4413001141896,51.442667994031,POINT (5.4413 51.442668)
08fd7f90-e86d-49d8-bbe1-32a8253b73c3,,,D5,R,PLACED,"[ { ""type"": ""VRIJ"", ""text"": """" } ]",N,Baron Des Tombeslaan,,,600929034.0,2024-03-01,Maastricht,GM0935,Maastricht,,https://wegkenmerken.ndw.nu/api/images/9506c291-5e30-4895-86bd-1235c08206b9,2020-10-15,2022-09-01,,,,,,5.6824841903417,50.859171994326,POINT (5.682484 50.859172)
0907eed0-0d10-4e32-9de2-c76c894c55c1,,,D5,R,PLACED,[ ],W,Voorhavenwal,,,600462260.0,2024-03-01,Gouda,GM0513,Gouda,,https://wegkenmerken.ndw.nu/api/images/8cf0a43e-dff5-4562-afc5-ff33b65e6b29,2018-05-17,2022-06-13,,,,,,4.694604666562,51.998776878128,POINT (4.694605 51.998777)
0912270f-3dc2-456a-916e-b636025fb602,,,D5,R,PLACED,"[ { ""type"": ""UIT"", ""text"": ""uitgezonderd"" } ]",N,Rodenburgstraat,,,381286039.0,2024-03-01,Arnhem,GM0202,Arnhem,,https://wegkenmerken.ndw.nu/api/images/20c6c2ce-3ffc-40e3-a177-fac063a910b7,2020-03-09,2023-12-04,,,,,,5.908412319927,51.9787838398,POINT (5.908412 51.978784)
09193844-bf31-40ab-92c6-0a7bf9265df5,,,D5,R,PLACED,[ ],O,Wattstraat,,,,,Zoetermeer,GM0637,Zoetermeer,,https://wegkenmerken.ndw.nu/api/images/48bdfc8c-1f5d-4289-a21c-44feee23c78e,2018-07-13,2022-08-01,,,,,,4.5253391915548,52.060785431294,POINT (4.525339 52.060785)
091d8ff2-3914-4342-bfbb-f9473a1f5696,,,D5,R,PLACED,[ ],N,Oude Plantagedreef,,,190273036.0,2024-03-01,Rotterdam,GM0599,Rotterdam,,https://wegkenmerken.ndw.nu/api/images/31277f28-6136-48ea-9aeb-7eebc276ea2f,2021-03-20,2022-03-12,,,,,,4.5211323100698,51.915258908093,POINT (4.521132 51.915259)
0923819a-de44-43cc-85ab-1d80165e6be2,,,D5,L,PLACED,"[ { ""type"": ""VRIJ"", ""text"": ""uitgezonderd"" } ]",O,Hildo Kropstraat,,,,,Nieuwegein,GM0356,Nieuwegein,,https://wegkenmerken.ndw.nu/api/images/f67404bb-9c16-41ac-bde2-e6259d9649f8,2020-02-14,2022-03-03,,,,,,5.0896980651465,52.032211235475,POINT (5.089698 52.032211)
092c0bc7-16d5-4bab-81b3-04deedde8cb0,,,D5,R,PLACED,[ ],N,Walter Hallsteindomein,,,356033008.0,2024-03-01,Maastricht,GM0935,Maastricht,,https://wegkenmerken.ndw.nu/api/images/4d7d4f15-bcdf-49fe-8dd5-0d1e45c71578,2016-09-28,2022-09-08,,,,,,5.7154320722921,50.838263412672,POINT (5.715432 50.838263)
092d82b4-d8d2-446c-aa0d-8b99703d643d,,,D5,R,PLACED,"[ { ""type"": ""UIT"", ""text"": ""uitgezonderd"" } ]",W,Dunne Bierkade,,,600205198.0,2024-03-01,'s-Gravenhage,GM0518,'s-Gravenhage,,https://wegkenmerken.ndw.nu/api/images/27386431-b1e1-4281-ba17-87c9cb0bd6d7,2016-11-03,2023-12-04,,,,,,4.3142325719667,52.072972016211,POINT (4.314233 52.072972)
092f4c68-b042-4d91-90be-a5452a18be1e,,,D5,R,PLACED,[ ],O,Molenstraat,,,600991620.0,2024-03-01,Enschede,GM0153,Enschede,,https://wegkenmerken.ndw.nu/api/images/c1363857-31fb-455f-9a06-acce4bbba788,2022-11-01,2022-11-01,,,,,,6.8989274010508,52.223667057124,POINT (6.898927 52.223667)
093352d6-c23e-4316-9e0c-c4545f51a06d,,,D5,R,PLACED,[ ],Z,Helftheuvelweg,,,,,Den Bosch,GM0796,'s-Hertogenbosch,,https://wegkenmerken.ndw.nu/api/images/a7310447-627a-4d80-8360-cf6d267b2eb1,2016-11-04,2022-11-03,,,,,,5.2720216265614,51.70116484123,POINT (5.272022 51.701165)
094092d8-bff6-4f40-932b-00081575440c,,,D5,L,PLACED,[ ],Z,Nielant,,,,,Lingewaard,GM1705,Huissen,,https://wegkenmerken.ndw.nu/api/images/c541070f-53ef-46dc-8388-073aabb5a581,2016-09-21,2022-10-03,,,,,,5.9312702671056,51.94788376494,POINT (5.93127 51.947884)
09433f58-5a7b-4bc5-b81b-214f6323e0f2,,,D5,L,PLACED,"[ { ""type"": ""UIT"", ""text"": ""uitgezonderd lijnbussen"" } ]",Z,Molendwarsstraat,,,389338103.0,2024-03-01,Apeldoorn,GM0200,Apeldoorn,,https://wegkenmerken.ndw.nu/api/images/c975b274-f73f-464a-b612-ef0977ae47ea,2016-12-02,2023-12-04,,,,,,5.9712073321675,52.209934819752,POINT (5.971207 52.209935)
09476198-dcce-4f54-9c63-a56e1811a5a1,,,D5,R,PLACED,[ ],W,St.-Jacobsstraat,,,272312109.0,2024-03-01,Utrecht,GM0344,Utrecht,,https://wegkenmerken.ndw.nu/api/images/3c427d02-c057-43b3-a536-6a77c215b89f,2016-03-21,2022-03-11,,,,,,5.1147170480366,52.094658207227,POINT (5.114717 52.094658)
094abe85-c82b-4449-a66b-04aba8a42cfd,,,D5,R,PLACED,[ ],Z,Voorburgstraat,,,600995531.0,2024-03-01,Rotterdam,GM0599,Rotterdam,,https://wegkenmerken.ndw.nu/api/images/bc671ccb-b02d-4ff5-922a-130e0f193b24,2020-03-31,2022-03-30,,,,,,4.4678764445771,51.939117696509,POINT (4.467876 51.939118)
094e9709-8674-4218-bdfb-8ec4c0e3d276,,,D5,R,PLACED,[ ],O,Venloseweg,1.0,73.0,,,Venray,GM0984,Oirlo,,https://wegkenmerken.ndw.nu/api/images/d41f60dd-2cb0-476b-8b81-d03abbd32a77,2016-04-25,2022-03-10,,,,,,6.0215391913311,51.503878648921,POINT (6.021539 51.503879)
0957816c-c8be-490b-900b-df773aac8881,,,D5,L,PLACED,[ ],ONO,Pieter Jacobstraat,,,263359037.0,2025-09-01,Amsterdam,GM0363,Weesp,,,2025-09-09,2025-09-09,,2025-09-09,,,,5.04386883587879,52.3064658398947,POINT (5.043869 52.306466)
095c4ce1-7284-4e75-bff9-d475d57debfd,,,D5,R,PLACED,[ ],O,Mijnbouwweg,,,,,Amersfoort,GM0307,Amersfoort,,https://wegkenmerken.ndw.nu/api/images/68054572-7b9e-4e8a-b183-c135a98c3674,2021-04-16,2022-04-22,,,,,,5.3651966868509,52.164060137111,POINT (5.365197 52.16406)
095d412d-5e1f-420c-a540-6717039edddf,,,D5,R,PLACED,[ ],N,Trekweg,,,,,Almere,GM0034,Almere,,https://wegkenmerken.ndw.nu/api/images/0d2a1e0c-6b86-424f-8e8a-2ac1e1944766,2018-03-22,2022-03-15,,,,,,5.2826933926166,52.3793580932,POINT (5.282693 52.379358)
0963c54c-936f-4f7a-b46f-9ae043bbc366,,,D5,R,PLACED,"[ { ""type"": ""UIT"", ""text"": ""uitgezonderd"" } ]",O,Boterberg,,,260200012.0,2024-03-01,Tilburg,GM0855,Tilburg,,https://wegkenmerken.ndw.nu/api/images/99431983-e313-40fe-9792-ff2695bffee1,2016-07-07,2023-12-04,,,,,,5.0291912791489,51.59013061244,POINT (5.029191 51.590131)
0966f85d-0be5-4060-9a48-dc6e5ef9dcf2,,,D5,L,PLACED,[ ],W,Amberweg,,,193302009.0,2024-03-01,Lansingerland,GM1621,Bleiswijk,,https://wegkenmerken.ndw.nu/api/images/91b680f0-3d05-4950-bc72-1c89079ad04c,2020-09-18,2022-09-20,,,,,,4.539724785559,52.047262613532,POINT (4.539725 52.047263)
098fe7ca-176d-4064-994f-7f9820aab0ef,,,D5,R,PLACED,[ ],W,F.A. Molijnlaan,,,363374017.0,2024-03-01,Nunspeet,GM0302,Nunspeet,,https://wegkenmerken.ndw.nu/api/images/9634c86b-d244-4c70-a91a-eeb7e5de7fa0,2016-08-05,2022-07-04,,,,,,5.7834259444615,52.371041711039,POINT (5.783426 52.371042)
099c0ce8-5b92-4a87-b958-704aca0aae91,,,D5,L,PLACED,[ ],O,Ringdijk,,,,,Rotterdam,GM0599,Rotterdam,,https://wegkenmerken.ndw.nu/api/images/76455dd8-a68d-4ac3-94cb-9126301aaea1,2020-03-23,2022-03-24,,,,,,4.4769010321254,51.951906648652,POINT (4.476901 51.951907)
099f1b80-82c0-4591-b673-9da1614b6c92,,,D5,R,PLACED,[ ],N,Ir. Op den Kampstraat,,,600215852.0,2024-03-01,Brunssum,GM0899,Brunssum,,https://wegkenmerken.ndw.nu/api/images/0a44d439-ff36-445f-9fea-e199001ea3a7,2016-10-27,2022-11-25,,,,,,5.9715325119526,50.944140372293,POINT (5.971533 50.94414)
09a24a0f-26d5-42f0-b549-9c639cf054bf,,,D5,R,PLACED,[ ],O,Nieuw-Eyckholt,,,,,Heerlen,GM0917,Heerlen,,https://wegkenmerken.ndw.nu/api/images/b5fdf5cb-6230-4c63-b9e7-00d545b5dc19,2020-03-25,2022-03-02,,,,,,5.9603574609251,50.882102255846,POINT (5.960357 50.882102)
09a67c64-0e90-48b5-b5f1-4cd65d174630,,,D5,R,PLACED,"[ { ""type"": ""UIT"", ""text"": ""uitgezonderd"" } ]",Z,Astersingel,,,183288068.0,2024-03-01,Lansingerland,GM1621,Berkel en Rodenrijs,,https://wegkenmerken.ndw.nu/api/images/9260bbac-16bb-433c-b881-be6dffca82e7,2016-08-31,2023-12-04,,,,,,4.4646449132627,51.981033143964,POINT (4.464645 51.981033)
09a8908f-7510-4ce5-b4ff-40babe1fd356,,,D5,R,PLACED,[ ],Z,Brusselseweg,,,600904950.0,2024-03-01,Maastricht,GM0935,Maastricht,,https://wegkenmerken.ndw.nu/api/images/3481c5f5-32dc-49f0-9ff1-f999496a367b,2020-10-13,2022-08-31,,,,,,5.6715344684682,50.856303903106,POINT (5.671534 50.856304)
09ac0302-8bb4-473f-af7b-a0dff51c6784,,,D5,R,PLACED,[ ],Z,Houtstraat,,,320264013.0,2024-03-01,West Maas en Waal,GM0668,Wamel,,https://wegkenmerken.ndw.nu/api/images/71f0f856-5121-447e-b9fb-31c15da3f158,2018-08-07,2022-07-26,,,,,,5.4669921921855,51.87975782725,POINT (5.466992 51.879758)
09ae577b-267e-4213-ae6b-8342f7e833bb,,,D5,R,PLACED,"[ { ""type"": ""UIT"", ""text"": ""uitgezonderd"" } ]",Z,Nico Bovenweg,,,372290013.0,2024-03-01,Renkum,GM0274,Oosterbeek,,https://wegkenmerken.ndw.nu/api/images/82653815-613e-4dc7-b080-9de1e4337cdf,2016-10-14,2023-12-04,,,,,,5.8408109291067,51.993974702376,POINT (5.840811 51.993975)
09b2006d-3318-48b7-8c35-e103008ad605,,,D5,R,PLACED,[ ],N,Wissel,,,224351008.0,2024-03-01,Aalsmeer,GM0358,Aalsmeer,,,2021-12-07,2021-12-07,,,,2023-03-30,,4.758887006425,52.267346739718,POINT (4.758887 52.267347)
09b6b702-7283-4a76-84d3-86350037afb1,,,D5,R,PLACED,"[ { ""type"": ""UIT"", ""text"": ""uitgezonderd"" } ]",W,Narcisstraat,,,163260049.0,2024-03-01,Nissewaard,GM1930,Spijkenisse,,https://wegkenmerken.ndw.nu/api/images/64cf6159-7347-4ebe-90f4-53b9d17f508c,2016-05-03,2023-12-04,,,,,,4.3250529414134,51.856700563714,POINT (4.325053 51.856701)
09bd4185-0947-4132-9e1a-be4f04b366c3,,,D5,L,PLACED,[ ],N,Venloseweg,,,600146928.0,2024-03-01,Venray,GM0984,Oirlo,,https://wegkenmerken.ndw.nu/api/images/e88cf75a-6ec9-42f9-b968-5659df6707a4,2016-04-25,2022-03-10,,,,,,6.0212179683749,51.506783078836,POINT (6.021218 51.506783)
09c25bec-52b4-4544-a329-4aa733238107,,,D5,R,PLACED,[ ],O,Strandweg,,,601045372.0,2024-03-01,'s-Gravenhage,GM0518,'s-Gravenhage,,https://wegkenmerken.ndw.nu/api/images/cce4e115-8d45-44e7-b1e2-297fb9e6ed7d,2021-11-03,2022-10-21,,,,,,4.2870688680608,52.117396396255,POINT (4.287069 52.117396)
09d2137c-aac3-40fa-8c75-9f84eb9399b6,,,D5,L,PLACED,[ ],Z,Venrayseweg,,,,,Venlo,GM0983,Venlo,,https://wegkenmerken.ndw.nu/api/images/0b27e16f-e1aa-4c5a-b2f3-095d740e03d6,2018-01-25,2022-02-12,,,,,,6.1306353223792,51.404008195715,POINT (6.130635 51.404008)
09d225b6-91fe-44b4-a9bf-5eb416a340b6,,,D5,R,PLACED,[ ],O,Engerweg,,,404039017.0,2024-03-01,Kerkrade,GM0928,Kerkrade,,https://wegkenmerken.ndw.nu/api/images/d4eaf5ba-1963-44b5-98d4-eba879dd8d8c,2020-11-04,2022-11-16,,,,,,6.0628183803852,50.863925102826,POINT (6.062818 50.863925)
09f550e4-9240-4d0f-9edf-9e0c86b9e5bb,,,D5,R,PLACED,[ ],W,Vondelstraat,,,187303023.0,2024-03-01,Zoetermeer,GM0637,Zoetermeer,,https://wegkenmerken.ndw.nu/api/images/110737a3-66ae-4051-8fb7-a16862f9d028,2016-07-13,2022-07-27,,,,,,4.4940875374796,52.049092815752,POINT (4.494088 52.049093)
0a19d5ad-13af-4dae-acb9-21b7452908d6,,,D5,R,PLACED,[ ],W,Koningin Sophialaan,,,307324009.0,2024-03-01,Amersfoort,GM0307,Amersfoort,,https://wegkenmerken.ndw.nu/api/images/16d92ef7-135d-4465-8a2c-ad67f45bcb33,2016-06-16,2022-05-17,,,,,,5.3710539175978,52.150274570634,POINT (5.371054 52.150275)
0a1f4aec-d0e6-4d58-b492-9ef32b1e19da,,,D5,R,PLACED,[ ],N,Wagenweg,,,,,Lingewaard,GM1705,Huissen,,https://wegkenmerken.ndw.nu/api/images/a87cc885-c1eb-46a2-bf01-4123facfb23c,2017-10-11,2022-10-04,,,,,,5.9269171683361,51.944713638856,POINT (5.926917 51.944714)
0a27a306-dcf3-4597-acb5-a4ab7fcebecc,,,D5,R,PLACED,[ ],N,Mollerusstraat,,,600382040.0,2024-03-01,Baarn,GM0308,Baarn,,https://wegkenmerken.ndw.nu/api/images/6ff4305c-6c70-4815-9243-136e54e55056,2016-08-15,2022-09-21,,,,,,5.2904332480188,52.212795711236,POINT (5.290433 52.212796)
0a28799d-34c2-489d-bd51-97902fa96029,,,D5,L,PLACED,[ ],N,Librije,,,601132175.0,2024-03-01,Horst aan de Maas,GM1507,Horst,,https://wegkenmerken.ndw.nu/api/images/91736d53-3285-4a2c-8069-ba8d1655be8d,2016-11-28,2022-10-13,,,,,,6.054107128506,51.454841177711,POINT (6.054107 51.454841)
0a2afc28-03ba-45af-911f-975f71d4939f,,,D5,R,PLACED,[ ],W,Torenstraat,,,600383783.0,2024-03-01,Roosendaal,GM1674,Roosendaal,,https://wegkenmerken.ndw.nu/api/images/cb281bb9-195b-45b9-8e00-a33d34cb93a4,2016-01-29,2022-03-04,,,,,,4.4554430689283,51.530719136022,POINT (4.455443 51.530719)
0a4a43d1-d728-4807-875e-9de97b255805,,,D5,L,PLACED,[ ],W,Scheuterstraat,,,391368056.0,2024-03-01,Epe,GM0232,Epe,,https://wegkenmerken.ndw.nu/api/images/bec82d73-0b13-4520-a50e-6e6a5310c28b,2016-07-19,2022-06-09,,,,,,5.9838988096365,52.34678076369,POINT (5.983899 52.346781)
0a5368f6-740e-4e91-91ca-c0288e0a3d5f,,,D5,R,PLACED,"[ { ""type"": ""UIT"", ""text"": ""uitgezonderd"" } ]",Z,Vosmaerlaan,,,278339004.0,2024-03-01,Hilversum,GM0402,Hilversum,,https://wegkenmerken.ndw.nu/api/images/4e340dd1-0402-4274-b788-cf9aed6fd152,2016-11-23,2023-12-04,,,,,,5.1599678778693,52.21693838565,POINT (5.159968 52.216938)
0a6295b7-e915-4e51-ae7e-4939388a05bb,,,D5,R,PLACED,[ ],W,Vijverpark,,,600739340.0,2024-03-01,Bloemendaal,GM0377,Overveen,,https://wegkenmerken.ndw.nu/api/images/fe383a29-2bf8-4551-aa6f-c1fde4a3d429,2017-11-16,2022-10-16,,,,,,4.6092887319923,52.39008892369,POINT (4.609289 52.390089)
0a68c44b-256e-4ff1-8f3b-c7b5042beb09,,,D5,R,PLACED,[ ],ZZO,Leidsekade,,,600422015.0,2025-09-01,Amsterdam,GM0363,Amsterdam,,https://wegkenmerken.ndw.nu/api/images/c02b0e63-18de-4bd9-a44f-d9ef6500ddf1,2018-07-09,2025-09-09,,,,,,4.8812571733877,52.363466084193,POINT (4.881257 52.363466)
0a75c976-4e1d-4af7-951d-fc4fb8a7001c,,,D5,R,PLACED,[ ],O,Stommeerkade,,,223351037.0,2024-03-01,Aalsmeer,GM0358,Aalsmeer,,https://wegkenmerken.ndw.nu/api/images/881f15ba-263c-4d58-9991-b352662e5b7c,2016-09-23,2022-11-14,,,,,,4.7546292324399,52.268763401265,POINT (4.754629 52.268763)
0a8069cf-f06a-4899-8370-dad6340357fa,,,D5,R,PLACED,[ ],Z,Emmy Belinfantedreef,,,600916345.0,2024-03-01,'s-Gravenhage,GM0518,'s-Gravenhage,,https://wegkenmerken.ndw.nu/api/images/0d16c0a3-ff36-43fd-aca2-85c4eeff4615,2016-09-15,2022-10-19,,,,,,4.4034312126075,52.065061215401,POINT (4.403431 52.065061)
0a8246a0-46ea-45a4-85fd-84ee92ec811e,,,D5,L,PLACED,"[ { ""type"": ""UIT"", ""text"": ""uitgezonderd"" } ]",W,Wilgenstraat,,,193200104.0,2024-03-01,Halderberge,GM1655,Oudenbosch,,https://wegkenmerken.ndw.nu/api/images/4f20bb39-643b-4424-baad-361fe8f2d821,2021-06-24,2023-12-04,,,,,,4.5477133753934,51.589073530203,POINT (4.547713 51.589074)
0a8a4f75-58d0-48a3-99a0-59ef4f1c5a41,,,D5,L,PLACED,"[ { ""type"": ""VRIJ"", ""text"": """" } ]",W,Martinus Nijhofflaan,,,,,Delft,GM0503,Delft,,https://wegkenmerken.ndw.nu/api/images/fedc52cf-eb5d-4bd1-a31e-88de3ca2b9d9,2018-05-24,2022-06-29,,,,,,4.3516439785161,51.996487861256,POINT (4.351644 51.996488)
0a8e3c34-6ee5-4cf2-8191-fae5a94f4fd6,,,D5,R,PLACED,"[ { ""type"": ""UIT"", ""text"": ""uitgezonderd"" } ]",W,Oosterlaan,,,205371017.0,2024-03-01,Heemstede,GM0397,Heemstede,,https://wegkenmerken.ndw.nu/api/images/ce6f7ecc-4d5c-40b6-ac16-24fb024aa127,2016-10-04,2023-12-04,,,,,,4.6217451796217,52.356324764608,POINT (4.621745 52.356325)
