id,externalId,validatedOn,rvvCode,status,textSigns,side,roadName,roadType,roadNumber,roadSectionId,nwbVersion,countyName,countyCode,townName,bgtCode,imageUrl,firstSeenOn,lastSeenOn,placedOn,removedOn,trafficOrderUrl,longitude,latitude,geometry_wkt
0019c25a-2c87-44a8-bbb7-8ee1ddea2299,,,G12b,PLACED,[ ],W,Groenedijk,,,,,Capelle Aan Den Ijssel,GM0502,Capelle Aan Den Ijssel,,https://wegkenmerken.ndw.nu/api/images/21d6986a-a081-4c9e-9dd2-e25de306b875,2022-02-07,2022-02-07,,,,4.598830418307,51.928265035495,POINT (4.59883 51.928265)
00230729-916a-4242-926b-89e3ce0a1f79,,,G12b,PLACED,[ ],Z,Lage Mierdseweg,,,600540837.0,2024-03-01,Hilvarenbeek,GM0798,Esbeek,,https://wegkenmerken.ndw.nu/api/images/ce407129-7081-4436-b4d6-f6db80ca83f0,2016-07-07,2022-07-04,,,,5.1401232320259,51.449632787593,POINT (5.140123 51.449633)
002f40df-eccb-4b00-956f-4a7788d90745,,,G12b,PLACED,[ ],O,Fietspad,,,600495284.0,2024-03-01,Westland,GM1783,'s-Gravenzande,,https://wegkenmerken.ndw.nu/api/images/bb652712-2ade-4db6-b134-4fa85ff978e5,2020-02-03,2022-03-30,,,,4.1810798165704,51.999052585893,POINT (4.18108 51.999053)
0031d2f1-3b89-4b97-be4d-5f1fd66b7ad8,,,G12b,PLACED,[ ],N,Abdijweg,,,509371032.0,2024-03-01,Dinkelland,GM1774,Weerselo,,https://wegkenmerken.ndw.nu/api/images/9d67926d-beaa-4363-ba79-c62ec6fc16d9,2016-12-20,2022-11-03,,,,6.853526616701,52.351491195166,POINT (6.853527 52.351491)
003733ee-765d-403a-bbbf-f4ecc3cecf92,,,G12b,PLACED,[ ],W,Rijksweg,,,600680576.0,2024-03-01,Steenbergen,GM0851,Nieuw-Vossemeer,,https://wegkenmerken.ndw.nu/api/images/e6ca0654-fbc7-4c01-93f1-72d42e7a408c,2016-06-08,2022-07-06,,,,4.2337037172239,51.604354996864,POINT (4.233704 51.604355)
0046ec54-8264-485f-af8d-aebc894812a4,,,G12b,PLACED,[ ],O,Turnhoutseweg,,,600598785.0,2024-03-01,Reusel-De Mierden,GM1667,Reusel,,https://wegkenmerken.ndw.nu/api/images/f38cfb07-b54e-40d7-9e45-2e4818f56653,2016-10-28,2022-11-01,,,,5.1557246611625,51.359688403041,POINT (5.155725 51.359688)
004d33cb-2a22-4374-a733-1bf7d9ab08f3,,,G12b,PLACED,[ ],W,Dijkpad,,,306179001.0,2024-03-01,Best,GM0753,Best,,https://wegkenmerken.ndw.nu/api/images/af9c5f8e-2786-444e-86fa-24bed9958b78,2022-02-11,2022-02-11,,,,5.360125178132,51.496642780006,POINT (5.360125 51.496643)
00636e54-edbc-4d03-82cd-f2d09917d13f,,,G12b,PLACED,[ ],N,Fietspad,,,600489030.0,2024-03-01,Enschede,GM0153,Enschede,,https://wegkenmerken.ndw.nu/api/images/d711ab25-c303-4302-9f8f-2f1793ad8188,2016-09-30,2022-10-19,,,,6.8600746690408,52.203278125081,POINT (6.860075 52.203278)
0069b9f7-aa7b-4e54-9307-e5d9b752f739,,,G12b,PLACED,[ ],O,Verlengde Arnhemseweg,,,600609066.0,2024-03-01,Ede,GM0228,Ede,,https://wegkenmerken.ndw.nu/api/images/ae0486b6-af13-4178-9bd5-55d1dd914a87,2016-06-10,2022-06-28,,,,5.7357910699485,52.03711235181,POINT (5.735791 52.037112)
0080219c-2ad0-4e38-94ee-2f81b84306e3,,,G12b,PLACED,[ ],N,Nieuwendijk,,,600597773.0,2024-03-01,Someren,GM0847,Someren,,https://wegkenmerken.ndw.nu/api/images/87036b1e-5903-4606-bb02-850526fd8c55,2021-04-09,2022-03-24,,,,5.7315408328323,51.354900437477,POINT (5.731541 51.3549)
0082fba9-d7aa-498f-b797-4fe933aedba0,,,G12b,PLACED,[ ],W,Burgemeester des Tombeweg,,,600574406.0,2024-03-01,De Ronde Venen,GM0736,Abcoude,,https://wegkenmerken.ndw.nu/api/images/1d7eb5c6-e0a5-49eb-8514-8be71b7bde58,2016-10-06,2022-10-06,,,,4.9598584704743,52.263904493738,POINT (4.959858 52.263904)
0089337f-213a-430f-97bf-ca850796b242,,,G12b,PLACED,[ ],N,Deventerweg,,,600970629.0,2024-03-01,Deventer,GM0150,Deventer,,https://wegkenmerken.ndw.nu/api/images/e4639d97-492e-4a99-9e95-7dbf30bf8c6d,2016-08-10,2022-06-18,,,,6.1876643466193,52.230287424459,POINT (6.187664 52.230287)
008c27c9-6609-4bf8-b348-bd5ef5372c90,,,G12b,PLACED,[ ],N,Holtmühlestraat,,,600603254.0,2024-03-01,Venlo,GM0983,Tegelen,,https://wegkenmerken.ndw.nu/api/images/0580bb03-3cf0-438c-8e62-55d3ac5b24af,2016-02-12,2022-03-02,,,,6.1468616703191,51.335044139105,POINT (6.146862 51.335044)
00916620-4124-463f-9fbf-6a462d220f7b,,,G12b,PLACED,[ ],OZO,Kelbergenpad,,,251363112.0,2025-06-01,Amsterdam,GM0363,Amsterdam,,,2025-06-18,2025-06-18,2025-06-18,,,4.96153821119232,52.3219183873536,POINT (4.961538 52.321918)
00986a4f-32f9-4495-bd60-9f773dce97bc,,,G12b,PLACED,[ ],W,Van Oudheusdenweg,,,600998169.0,2024-03-01,Zuidplas,GM1892,Zevenhuizen,,https://wegkenmerken.ndw.nu/api/images/a52048a1-dac4-4f59-b2f4-1894acc4aadd,2018-07-27,2022-08-11,,,,4.5901978587669,51.999650170054,POINT (4.590198 51.99965)
00b8e827-4bc3-42ee-a005-297b6a28040c,,,G12b,PLACED,[ ],Z,Braken,,,244440036.0,2024-03-01,Koggenland,GM1598,Obdam,,https://wegkenmerken.ndw.nu/api/images/ce1a8a7d-6e41-4916-b287-3061070babc7,2021-12-08,2022-10-15,,,,4.8996071772785,52.670001278757,POINT (4.899607 52.670001)
00f6a123-7673-477d-96ad-0a834cedc463,,,G12b,PLACED,[ ],N,Zwarteweg,,,182287061.0,2024-03-01,Lansingerland,GM1621,Berkel en Rodenrijs,,https://wegkenmerken.ndw.nu/api/images/3b453408-9ba1-4608-b4c9-1e0844fe7ff4,2016-08-31,2022-09-22,,,,4.4614666820868,51.976513927219,POINT (4.461467 51.976514)
00fae73a-00d3-4b57-97d5-c1c0930c579b,,,G12b,PLACED,[ ],N,De Kruse,,,112252008.0,2024-03-01,Goeree-Overflakkee,GM1924,Ouddorp,,https://wegkenmerken.ndw.nu/api/images/74d191ca-aa14-422f-89ee-03a504697baa,2016-08-29,2022-11-02,,,,3.956013614496,51.814476753999,POINT (3.956014 51.814477)
0119a868-1f9b-4d30-8825-ca2f889cb762,,,G12b,PLACED,[ ],O,Lieshoutseweg,,,600497483.0,2024-03-01,Laarbeek,GM1659,Beek en Donk,,https://wegkenmerken.ndw.nu/api/images/230aa3a0-8c16-4a38-9da6-b3157cd7ed4e,2016-09-21,2022-09-20,,,,5.6410311154388,51.528488192542,POINT (5.641031 51.528488)
01220071-1aac-4372-be80-d44b008f8a9e,,,G12b,PLACED,[ ],Z,Schipholweg,,,601199567.0,2024-04-01,Haarlemmermeer,GM0394,Vijfhuizen,,https://wegkenmerken.ndw.nu/api/images/f021fd6c-28bc-443b-b047-f4bdda5a8979,2018-08-16,2022-07-26,,,,4.7033817449329,52.368471030789,POINT (4.703382 52.368471)
012744f9-f855-4795-83af-d754164e0a33,,,G12b,PLACED,[ ],N,Achter de Blokhut,,,254365073.0,2024-03-01,Diemen,GM0384,Diemen,,https://wegkenmerken.ndw.nu/api/images/d7fbb6fe-1ec0-47d5-a7e7-fc2cd0afd2a6,2016-12-02,2022-11-08,,,,4.9817043700192,52.332957228632,POINT (4.981704 52.332957)
0130cda4-45a6-40df-a7a6-bd3146dff585,,,G12b,PLACED,[ ],Z,Schoonderbeeklaan,,,601202522.0,2024-04-01,Putten,GM0273,Putten,,https://wegkenmerken.ndw.nu/api/images/82b383b1-3c82-44d3-aca3-3cdc35544226,2022-06-14,2022-06-14,,,,5.6085794463581,52.267759668121,POINT (5.608579 52.26776)
01378d89-735a-4424-82e1-b1f8429b5211,,,G12b,PLACED,[ ],W,Rijksstraatweg,,,600615441.0,2024-03-01,Stichtse Vecht,GM1904,Loenen aan de Vecht,,https://wegkenmerken.ndw.nu/api/images/1ba0fd68-cb98-4314-88c6-c1a7aebcc015,2016-09-22,2022-05-03,,,,5.0190349382882,52.212605058552,POINT (5.019035 52.212605)
0137f989-2add-4b88-8d40-f7bc815fdd09,,,G12b,PLACED,[ ],Z,De Wijde Vliet,,,219393001.0,2024-03-01,Zaanstad,GM0479,Assendelft,,https://wegkenmerken.ndw.nu/api/images/5d5d05fb-30c1-488f-99b0-64a4c0e780f3,2016-08-05,2022-09-03,,,,4.7180095733272,52.457044675742,POINT (4.71801 52.457045)
01463ad8-6feb-481a-bf1a-d5585523dd82,,,G12b,PLACED,[ ],N,Rijksweg,,,209393004.0,2024-03-01,Velsen,GM0453,Velsen-Zuid,,https://wegkenmerken.ndw.nu/api/images/5701ddb8-7561-4391-ad22-1c39e413a69d,2016-12-16,2022-11-26,,,,4.649655473827,52.457744861357,POINT (4.649655 52.457745)
015c92ad-81ca-40bc-b512-4ac3c8038b2a,,,G12b,PLACED,[ ],W,West,,,600621449.0,2024-03-01,Achtkarspelen,GM0059,Buitenpost,,https://wegkenmerken.ndw.nu/api/images/a3a72e26-f634-44b9-9bcf-fff547200185,2017-01-05,2022-06-29,,,,6.130988434694,53.251154178597,POINT (6.130988 53.251154)
01618085-d655-41be-86ea-210bbfb565ad,,,G12b,PLACED,[ ],W,Fietspad,,,600586298.0,2024-03-01,Zoetermeer,GM0637,Zoetermeer,,https://wegkenmerken.ndw.nu/api/images/42517614-e114-41d6-af4c-bbec6baed89d,2016-07-14,2022-07-29,,,,4.4923945887507,52.070143680465,POINT (4.492395 52.070144)
016d88a8-8a1e-4b4b-aada-7b8d9c744d28,,,G12b,PLACED,[ ],O,Rijksweg,,,601289965.0,2025-01-01,Gilze en Rijen,GM0784,Hulten,,https://wegkenmerken.ndw.nu/api/images/972f6c82-490b-4ffd-b3a6-3358623357c9,2017-01-17,2022-02-02,,,,4.950427450196,51.572404520037,POINT (4.950427 51.572405)
0171eba7-7c16-420a-908b-5beab1426571,,,G12b,PLACED,[ ],Z,Havelterweg,,,424456001.0,2024-03-01,De Wolden,GM1690,Ruinerwold,,https://wegkenmerken.ndw.nu/api/images/b1fe038e-2309-4792-8652-499c418fa549,2021-03-08,2022-02-28,,,,6.2437985304947,52.727287696007,POINT (6.243799 52.727288)
017564c4-dec4-402d-99b4-ee676a73cae1,,,G12b,PLACED,[ ],W,Rietstapperweg,,,459261031.0,2024-03-01,Aalten,GM0197,Dinxperlo,,https://wegkenmerken.ndw.nu/api/images/6ff93605-f7fb-4ac9-ad5d-4e45ffe5b342,2018-07-31,2022-05-06,,,,6.4695829810542,51.860805191109,POINT (6.469583 51.860805)
017cb37b-7b23-4809-96d8-49caf16ef3f8,,,G12b,PLACED,[ ],W,Rietdijk,,,283296108.0,2024-03-01,Houten,GM0321,Houten,,https://wegkenmerken.ndw.nu/api/images/e74c3359-74a6-4c9d-aa18-01d450603b40,2016-02-29,2022-03-03,,,,5.1951770967782,52.023204512679,POINT (5.195177 52.023205)
019a46f6-2cdb-4251-9b87-79b8208df5ca,,,G12b,PLACED,[ ],O,Marnewaard,,,203277117.0,2024-03-01,Capelle aan den IJssel,GM0502,Capelle aan den IJssel,,https://wegkenmerken.ndw.nu/api/images/bff633cc-e7ea-4844-88d1-5bb3d01ab1b3,2022-02-08,2022-02-08,,,,4.6122650436396,51.93569986457,POINT (4.612265 51.9357)
019b139e-2192-44c9-a186-c24b01f3888f,,,G12b,PLACED,[ ],Z,Karrepad,,,527462008.0,2024-03-01,Emmen,GM0114,Klazienaveen-Noord,,https://wegkenmerken.ndw.nu/api/images/1d43e81f-87e5-4bf4-bd39-84e92085a507,2020-02-17,2022-02-07,,,,6.9993073726186,52.756878534749,POINT (6.999307 52.756879)
019fbd10-62b9-4c61-acca-ff2d3a181a01,,,G12b,PLACED,[ ],W,Fietspad,,,600688149.0,2024-03-01,Goeree-Overflakkee,GM1924,Ouddorp,,https://wegkenmerken.ndw.nu/api/images/38f87b8f-ba56-4688-b2ae-14a481a05899,2016-08-26,2022-10-31,,,,3.9112410874753,51.796983636173,POINT (3.911241 51.796984)
01ab73b3-67e0-4de0-af61-1e904f6b2616,,,G12b,PLACED,[ ],N,Tunnelstraat,,,600830502.0,2024-03-01,Sittard-Geleen,GM1883,Geleen,,https://wegkenmerken.ndw.nu/api/images/488c5d3c-f0ce-4d96-bf8f-08c19a60df4a,2016-08-18,2022-09-12,,,,5.8220959185131,50.976404709371,POINT (5.822096 50.976405)
01b53f65-8618-4195-8d6a-af1ce9fb1207,,,G12b,PLACED,[ ],N,Meijelseweg,,,,,Asten,GM0743,Heusden,,https://wegkenmerken.ndw.nu/api/images/e35cacc8-6a92-4e70-8703-5268b5852168,2020-03-26,2022-03-23,,,,5.8245343890633,51.36865215506,POINT (5.824534 51.368652)
01c04087-1a57-4db1-b81e-725b7ae8b344,,,G12b,PLACED,[ ],N,Fietspad,,,600660065.0,2024-03-01,Haarlemmermeer,GM0394,Hoofddorp,,https://wegkenmerken.ndw.nu/api/images/28eef937-cc2e-437c-a382-0c3aeb2f57f7,2018-09-03,2022-07-26,,,,4.7058856217908,52.291038297001,POINT (4.705886 52.291038)
01d7019a-ccb1-4230-832f-fd62ea6bcedd,,,G12b,PLACED,[ ],Z,Fietspad,,,600589977.0,2024-03-01,Soest,GM0342,Soesterberg,,https://wegkenmerken.ndw.nu/api/images/661f9980-9d54-4a9e-bdca-d4f5df93eddb,2017-10-16,2022-10-04,,,,5.2815460083693,52.122083893719,POINT (5.281546 52.122084)
01df31ff-face-41a2-9280-bc07e5c6553e,,,G12b,PLACED,[ ],W,Drie Burgpad,,,248367016.0,2024-03-01,Amsterdam,GM0363,Amsterdam,,https://wegkenmerken.ndw.nu/api/images/1fb1ed41-f180-45ee-a646-d5fa137df7f0,2016-09-15,2022-06-01,,,,4.9342110852714,52.339030462417,POINT (4.934211 52.33903)
01e92adb-0a17-4ec6-969c-e9a2de23aed9,,,G12b,PLACED,[ ],N,Kesselseweg,,,601150922.0,2024-03-01,Peel en Maas,GM1894,Helden,,https://wegkenmerken.ndw.nu/api/images/75505b6e-18e8-492f-a33c-fc94a03d17ea,2016-07-15,2022-08-08,,,,6.004420792794,51.317318755274,POINT (6.004421 51.317319)
0200394d-8a31-4850-b9a9-90c24f569c79,,,G12b,PLACED,[ ],N,Fietspad,,,600542376.0,2023-05-01,Rotterdam,GM0599,Hoogvliet Rotterdam,,https://wegkenmerken.ndw.nu/api/images/7123614a-afa4-4c89-8008-372531017153,2020-03-31,2022-03-25,,,,4.3631154828726,51.854509877146,POINT (4.363115 51.85451)
021b025d-ebee-40ba-babf-380f96c505ca,,,G12b,PLACED,[ ],O,Kattenberg,,,601031644.0,2024-03-01,Rheden,GM0275,Dieren,,https://wegkenmerken.ndw.nu/api/images/12b0e3c7-1e45-40da-a456-e76c42db2bc4,2018-04-12,2022-04-14,,,,6.1128361694049,52.049980817454,POINT (6.112836 52.049981)
0224b696-a798-4d17-bfb9-f757db870a0e,,,G12b,PLACED,[ ],Z,Zeeuwse schouw,,,600748657.0,2024-03-01,Papendrecht,GM0590,Papendrecht,,https://wegkenmerken.ndw.nu/api/images/2addf791-9688-4d0c-9d41-d61a7390e51e,2016-01-19,2022-05-04,,,,4.7149349578314,51.833108231181,POINT (4.714935 51.833108)
0230858b-c9c3-4bc5-b761-8e4e780aa0a1,,,G12b,PLACED,[ ],W,Fietspad,,,600578543.0,2024-03-01,Vlaardingen,GM0622,Vlaardingen,,https://wegkenmerken.ndw.nu/api/images/810698d2-78fa-44f5-95bb-ae28501829da,2020-06-08,2022-07-13,,,,4.3335060207986,51.908619093656,POINT (4.333506 51.908619)
023376e2-e7ef-4550-a2e1-9a073d715165,,,G12b,PLACED,[ ],N,Leunisdijk,,,600540909.0,2024-03-01,Boxtel,GM0757,Esch,,https://wegkenmerken.ndw.nu/api/images/23021cc3-f7d0-41e3-8f0e-dacd12d995b7,2016-05-20,2022-02-23,,,,5.2895860890809,51.607090491797,POINT (5.289586 51.60709)
023c6b79-3f86-4c86-8b45-adeeb22e6889,,,G12b,PLACED,[ ],O,Stadhuisplein,,,,,Meierijstad,GM1948,Veghel,,https://wegkenmerken.ndw.nu/api/images/36b74791-9cc7-40fd-870e-abf10bd292c3,2016-11-18,2022-06-01,,,,5.5471798017026,51.615075570986,POINT (5.54718 51.615076)
02473700-15b4-4590-bcc6-c463d5abc109,,,G12b,PLACED,[ ],N,'t Eng,,,600686929.0,2024-03-01,Coevorden,GM0109,Sleen,,https://wegkenmerken.ndw.nu/api/images/c3f54588-838a-411c-b794-723d6e91fe49,2018-05-18,2022-05-13,,,,6.8063983643081,52.770101421702,POINT (6.806398 52.770101)
024c1639-b440-43da-8b79-473d89025c04,22769,2025-09-24,G12b,PLACED,[ ],N,Astenseweg,2.0,279.0,375146008.0,2025-09-01,Peel en Maas,GM1894,Meijel,,,2025-09-24,2025-09-24,2025-09-24,,,5.859985599360752,51.34968925304895,POINT (5.859986 51.349689)
02505b64-8216-49e6-a5e2-ed529fd105e4,,,G12b,PLACED,[ ],N,Fietspad,,,600505818.0,2024-03-01,Wierden,GM0189,Wierden,,https://wegkenmerken.ndw.nu/api/images/5974c0c3-c71d-4141-8462-54fb419ea7ea,2016-02-29,2022-02-01,,,,6.556638044486,52.33400731127,POINT (6.556638 52.334007)
02637e3e-b483-4121-be57-1a95f85fcf9b,,,G12b,PLACED,[ ],N,Van der Takstraat,,,601109558.0,2024-03-01,Rotterdam,GM0599,Rotterdam,,https://wegkenmerken.ndw.nu/api/images/ffcdd16e-3708-4dd5-9846-837e18a38cf2,2016-07-28,2022-03-07,,,,4.4966796764079,51.913708902665,POINT (4.49668 51.913709)
026dea75-fdcf-48c9-93f2-3374888e7bad,,,G12b,PLACED,[ ],N,Lossersestraat,2.0,734.0,521358021.0,2024-03-01,Oldenzaal,GM0173,Oldenzaal,,https://wegkenmerken.ndw.nu/api/images/6328bf7a-ae2d-4bb6-9e87-6181d3bcda41,2016-08-23,2022-06-07,,,,6.9352843471246,52.291178644964,POINT (6.935284 52.291179)
0272ce6d-8e7d-4ee0-9f89-16b4069c92a9,,,G12b,PLACED,[ ],Z,Dirck van Hornelaan,,,319156017.0,2024-03-01,Waalre,GM0866,Waalre,,https://wegkenmerken.ndw.nu/api/images/7d842001-f96b-4901-b161-dfc56cd7944a,2021-01-25,2022-02-03,,,,5.4524722217523,51.394118781994,POINT (5.452472 51.394119)
028c6789-2fc8-4f80-b912-5b758a6db3df,,,G12b,PLACED,[ ],W,Daalderstraatje,,,600816187.0,2024-03-01,Oss,GM0828,Ravenstein,,https://wegkenmerken.ndw.nu/api/images/c8ded4e0-d4cf-4364-83dd-a5f8eb1c69cb,2017-09-07,2022-08-15,,,,5.6580222278026,51.788644981017,POINT (5.658022 51.788645)
028c7066-0389-479d-9cc7-1a3c337f25a3,,,G12b,PLACED,[ ],O,Fietspad,,,600930530.0,2024-03-01,Heerenveen,GM0074,Oudeschoot,,https://wegkenmerken.ndw.nu/api/images/f2a83b8e-294c-40aa-9b1c-0908aa3f7802,2017-10-26,2022-10-03,,,,5.9603698252204,52.934326779023,POINT (5.96037 52.934327)
029011b4-d11a-4719-ac42-db99086fd7dc,,,G12b,PLACED,[ ],W,Binnenveld,,,601438652.0,2025-09-01,Barneveld,GM0203,Barneveld,,https://wegkenmerken.ndw.nu/api/images/a0f9e47a-d992-48a3-8d5a-edb78766abf5,2020-07-27,2022-08-10,,,,5.5997843416345,52.16009586402,POINT (5.599784 52.160096)
02905a62-6aa7-4fd9-bdf1-ab179fb364a3,,,G12b,PLACED,[ ],N,Flevopad,,,600425550.0,2024-03-01,Hollands Kroon,GM1911,Middenmeer,,https://wegkenmerken.ndw.nu/api/images/427fc157-bd93-4952-b8cd-42822b158c68,2016-06-19,2022-08-06,,,,5.0061575460756,52.807467101443,POINT (5.006158 52.807467)
029706d7-589d-4894-a10a-fb2aa8f464bf,,,G12b,PLACED,[ ],O,De Hout,,,600568447.0,2024-03-01,Drechterland,GM0498,Hem,,https://wegkenmerken.ndw.nu/api/images/34a7ecda-54ea-47eb-a172-7d7e47bbe40c,2016-10-31,2022-08-02,,,,5.1665162108126,52.669000225524,POINT (5.166516 52.669)
02b43dba-b05e-41e0-bfef-fd7e3e01c7e7,,,G12b,PLACED,[ ],W,Prinses Margrietstraat,,,65184012.0,2024-03-01,Middelburg,GM0687,Middelburg,,https://wegkenmerken.ndw.nu/api/images/730e17d2-f45a-4612-a1a4-c2e82ea8e6ac,2016-07-11,2022-08-01,,,,3.6261450151047,51.505316256405,POINT (3.626145 51.505316)
02c85dd2-e7f0-47af-bde2-b591691321a3,,,G12b,PLACED,[ ],O,Zwarteweg,,,600726430.0,2024-03-01,Rotterdam,GM0599,Rotterdam,,https://wegkenmerken.ndw.nu/api/images/3d3a2420-2f89-4ae2-bd3e-0a1e686cf1bb,2018-04-09,2022-03-24,,,,4.4632074154469,51.967320460975,POINT (4.463207 51.96732)
02d7329b-1612-4bdd-b558-5ee6d1550331,,,G12b,PLACED,[ ],W,Amsterdamseweg,,,600536988.0,2023-01-01,Amersfoort,GM0307,Amersfoort,,https://wegkenmerken.ndw.nu/api/images/1f0efa16-6c7d-4892-86fb-7dcce0471074,2021-04-16,2022-04-22,,,,5.353727679329,52.164545697557,POINT (5.353728 52.164546)
02e9027d-1b3b-441a-b937-f002806e31a6,,,G12b,PLACED,[ ],W,Fietspad,,,600678875.0,2024-03-01,Altena,GM1959,Almkerk,,https://wegkenmerken.ndw.nu/api/images/4106a579-b8cc-4588-aa30-e21cc8c5fa42,2016-10-13,2022-10-25,,,,4.9622641372714,51.781062291602,POINT (4.962264 51.781062)
02eadcc2-5b17-4d11-a1dd-1253914c045d,,,G12b,PLACED,[ ],O,Fietspad,,,600681482.0,2024-03-01,Venlo,GM0983,Venlo,,https://wegkenmerken.ndw.nu/api/images/033eb468-caa4-4089-abfb-8e63af151d48,2018-01-29,2022-03-02,,,,6.1623340183844,51.354090736492,POINT (6.162334 51.354091)
02ebe931-6e6b-439a-9829-30440c244d60,TECH-GM0439-005091,,G12b,PLACED,[ ],ZZW,Oudelandsdijkje,,,600767563.0,2025-09-01,Purmerend,GM0439,Purmerend,,https://wegkenmerken.ndw.nu/api/images/e033c00c-9e65-4ca0-8a0f-9d726430e035,2016-01-26,2025-09-30,,,,4.963181621130407,52.496843084237646,POINT (4.963182 52.496843)
02f845a6-1e92-4b3b-b88f-f0300c958497,,,G12b,PLACED,[ ],N,Nes,,,600927848.0,2024-03-01,Schagen,GM0441,Schagen,,https://wegkenmerken.ndw.nu/api/images/1590e93f-080b-4aec-9918-0f1a63a8def2,2017-10-02,2022-07-05,,,,4.8129189671546,52.793823244708,POINT (4.812919 52.793823)
02f874a7-6fda-48d6-b403-65884c525c3c,,,G12b,PLACED,[ ],N,Fietspad,,,600643426.0,2024-03-01,Rotterdam,GM0599,Rotterdam,,https://wegkenmerken.ndw.nu/api/images/259e87c0-b9cf-4986-929a-2a480e482c2f,2018-04-10,2022-03-03,,,,4.5879462588249,51.973053941122,POINT (4.587946 51.973054)
02fa6d27-a377-4f0f-99d8-b43f5d16a0fd,,,G12b,PLACED,[ ],N,Fietspad,,,600689190.0,2024-03-01,Houten,GM0321,Houten,,https://wegkenmerken.ndw.nu/api/images/9a5449d5-76f7-4f22-aed7-d695f70da924,2016-04-22,2022-03-07,,,,5.1673892538485,52.023619873687,POINT (5.167389 52.02362)
0311324d-75ff-4ab8-836b-29b6bc42c270,,,G12b,PLACED,[ ],W,Fietspad,,,601436195.0,2025-09-01,Amersfoort,GM0307,Amersfoort,,https://wegkenmerken.ndw.nu/api/images/99744fdd-89ae-4502-b0a5-37f4a3bedf23,2016-06-13,2022-05-18,,,,5.3902232008579,52.14478387244,POINT (5.390223 52.144784)
03210292-d36f-4b8d-a4a1-d7310409e64c,,,G12b,PLACED,[ ],Z,Hoefweg,,,600666085.0,2024-03-01,Lansingerland,GM1621,Bleiswijk,,https://wegkenmerken.ndw.nu/api/images/3304d34e-83f1-4db9-8bba-a53788672ec5,2016-08-25,2022-09-20,,,,4.5387629110164,52.030980395002,POINT (4.538763 52.03098)
032cc22f-745f-43ff-913c-4b8fb753d39c,,,G12b,PLACED,[ ],W,Kruisweg,,,600745055.0,2024-03-01,Kaag en Braassem,GM1884,Woubrugge,,https://wegkenmerken.ndw.nu/api/images/f6c7e3c8-f1f8-474a-8883-af8ddd86a50f,2016-02-16,2022-03-25,,,,4.6749972846717,52.16824523175,POINT (4.674997 52.168245)
032dd708-b8a7-493f-badb-06edd2c39fe7,,,G12b,PLACED,[ ],W,Rustenburg,,,601212422.0,2024-05-01,Bergen (NH),GM0373,Egmond aan den Hoef,,https://wegkenmerken.ndw.nu/api/images/5901904d-bacd-4621-8293-38eb8107ad21,2020-11-10,2022-11-10,,,,4.6507147949641,52.618943332595,POINT (4.650715 52.618943)
03314ed4-634c-488c-acc4-f77122b0364f,,,G12b,PLACED,[ ],W,Fietspad,,,600554471.0,2024-03-01,Midden-Drenthe,GM1731,Hooghalen,,https://wegkenmerken.ndw.nu/api/images/5849c0ed-2a85-4860-b54d-abc3e6e11867,2016-11-28,2022-10-25,,,,6.5389484393814,52.90693317425,POINT (6.538948 52.906933)
0339755b-d808-48cf-9668-3b1a352bdbeb,,,G12b,PLACED,[ ],O,Fietspad,,,600965966.0,2024-03-01,Steenwijkerland,GM1708,Steenwijk,,https://wegkenmerken.ndw.nu/api/images/b20224cc-36c2-4dbd-bd97-0167d49240f1,2016-10-12,2022-09-01,,,,6.0993090064795,52.778908769024,POINT (6.099309 52.778909)
03413ae5-15ca-4f43-89aa-c3bd74c1646b,,,G12b,PLACED,[ ],Z,Eindhovenseweg-Zuid,,,600612093.0,2024-03-01,Best,GM0753,Best,,https://wegkenmerken.ndw.nu/api/images/6fee2da5-f81a-48c5-9be5-a90581769978,2016-12-08,2022-02-15,,,,5.417289408942,51.499500206276,POINT (5.417289 51.4995)
034ff162-dad2-4138-94f7-f87c3bcc7216,,,G12b,PLACED,[ ],O,Schoolstraat-Lemelerveld,,,439391064.0,2024-03-01,Dalfsen,GM0148,Lemelerveld,,https://wegkenmerken.ndw.nu/api/images/a1084cd6-50c3-452e-b649-a876a364d343,2016-05-25,2022-04-25,,,,6.3405123583335,52.444216201726,POINT (6.340512 52.444216)
03604d7a-5c2d-4983-9e17-b211a510cc2a,,,G12b,PLACED,[ ],ONO,Groenedijk,,,601213301.0,2025-03-01,Tiel,GM0281,Tiel,,https://wegkenmerken.ndw.nu/api/images/dd2e51f9-8c00-4ee6-b3eb-6b9f65f7033e,2016-05-26,2025-03-17,,,,5.4196184895044,51.90120595924,POINT (5.419618 51.901206)
0361b769-329f-4ed6-a58d-860e7593ed9f,,,G12b,PLACED,[ ],Z,Heistraat,,,600592428.0,2024-03-01,Land van Cuijk,GM1982,Velp,,https://wegkenmerken.ndw.nu/api/images/8e97a7e7-a015-4883-a8b3-5bd6dc7399f0,2020-11-18,2022-11-16,,,,5.7133851336655,51.744585464383,POINT (5.713385 51.744585)
036596a9-d726-4e60-b2ab-0acef8cc193d,,,G12b,PLACED,[ ],W,Fietspad,,,600646521.0,2024-03-01,Haarlemmermeer,GM0394,Hoofddorp,,https://wegkenmerken.ndw.nu/api/images/8bc34d53-24a1-4244-8399-59e8fce07d02,2016-08-01,2022-07-27,,,,4.6692720193906,52.311179914822,POINT (4.669272 52.31118)
0371a977-48d6-4c6c-9811-9d77ee4311f4,,,G12b,PLACED,[ ],O,Combinatieweg,,,171301006.0,2024-03-01,Pijnacker-Nootdorp,GM1926,Nootdorp,,https://wegkenmerken.ndw.nu/api/images/4ca60c16-d558-4b40-bef7-dab9a40091f9,2018-05-02,2022-05-18,,,,4.3808427778737,52.039599374147,POINT (4.380843 52.039599)
03741bc3-7fcd-4175-b7a2-5bc5d4138a51,,,G12b,PLACED,[ ],O,Smaragdweg,,,600563363.0,2024-03-01,Amersfoort,GM0307,Amersfoort,,https://wegkenmerken.ndw.nu/api/images/75b5f141-a365-4f42-82c9-6dac415c4c6a,2016-06-22,2022-05-19,,,,5.3952988441426,52.140784223819,POINT (5.395299 52.140784)
037e4fce-b56e-46f7-85d8-c3ed80f4df66,7C511302-6B62-4AF8-853A-6014D1E0A3BA,,G12b,PLACED,[ ],ZZW,Sportlaan,,,194245017.0,2025-08-01,Hoeksche Waard,GM1963,Maasdam,,,2025-08-21,2025-08-21,2025-08-21,,,4.553104748094096,51.79223616320715,POINT (4.553105 51.792236)
03954984-4fbf-48b3-8839-d0811c57a256,,,G12b,PLACED,[ ],N,Schepersweg,,,297179026.0,2024-03-01,Oirschot,GM0823,Oirschot,,https://wegkenmerken.ndw.nu/api/images/e2ff1382-0f46-4a0c-b26e-3803aa8c9b4a,2016-10-04,2022-10-06,,,,5.2991740389452,51.495199555198,POINT (5.299174 51.4952)
03966cac-2a8e-4f44-ba3e-8504187ce4ca,,,G12b,PLACED,[ ],W,Posthoorn,,,600553316.0,2024-03-01,Oisterwijk,GM0824,Haaren,,https://wegkenmerken.ndw.nu/api/images/33553f8c-b13b-4e6a-97cc-8267d1c41a45,2016-05-26,2022-06-21,,,,5.2448651558087,51.587832256091,POINT (5.244865 51.587832)
03a7c0c5-2c10-47bc-a6b6-0e40005d9ad5,,,G12b,PLACED,[ ],W,Dorpsstraat,,,600612824.0,2024-03-01,Bladel,GM1728,Casteren,,https://wegkenmerken.ndw.nu/api/images/c1d36e9e-b313-486e-8b07-46d38aa07ce2,2022-10-24,2022-10-24,,,,5.2437013111764,51.395335326954,POINT (5.243701 51.395335)
03b71e5f-3dcd-4e36-8cc7-575d4c38ca9e,,,G12b,PLACED,[ ],Z,Beurtschip,,,379506038.0,2024-03-01,Heerenveen,GM0074,Heerenveen,,https://wegkenmerken.ndw.nu/api/images/08025bae-0d02-4c41-b624-b6bd9affe092,2016-11-01,2022-09-16,,,,5.9057579512034,52.964506187807,POINT (5.905758 52.964506)
03b7b384-770b-4e84-ac40-27665eb02ca2,,,G12b,PLACED,[ ],OZO,Gooilandseweg,,,600546420.0,2025-09-01,Amsterdam,GM0363,Weesp,,https://wegkenmerken.ndw.nu/api/images/a389dfe9-35fa-42b2-b9b8-69217205ffe1,2020-11-25,2025-09-09,,,,5.083437319741,52.29168740478,POINT (5.083437 52.291687)
03c550b5-f7c8-457c-b5db-a13af9b1a5fd,,,G12b,PLACED,[ ],WZW,Breeweersepad,,,600241260.0,2024-03-01,Steenwijkerland,GM1708,Ossenzijl,,https://wegkenmerken.ndw.nu/api/images/0f660eb4-bc84-4ee7-b646-4c5797f69a12,2020-09-10,2023-12-11,,,,5.9391301645528,52.811596113049,POINT (5.93913 52.811596)
03c9fa93-83e0-4f8b-8dd5-eff46536a13c,,,G12b,PLACED,[ ],N,Akeleibaan,,,601067802.0,2024-03-01,Capelle aan den IJssel,GM0502,Capelle aan den IJssel,,https://wegkenmerken.ndw.nu/api/images/ca05dadb-0715-4a49-b244-8478421e9775,2022-02-10,2022-02-10,,,,4.58628924359,51.961190135881,POINT (4.586289 51.96119)
03ca80ae-0dde-4ac4-a502-a0bcc6b1d9eb,,,G12b,PLACED,[ ],W,Fietspad,,,600538977.0,2024-03-01,Heerenveen,GM0074,Heerenveen,,https://wegkenmerken.ndw.nu/api/images/45441319-5245-4790-b9fb-07795725250a,2020-10-14,2022-09-16,,,,5.9089826377395,52.962645602813,POINT (5.908983 52.962646)
03fe43bf-7c6e-4bdd-95ca-851252a4b2ac,,,G12b,PLACED,[ ],N,Fietspad,,,600702745.0,2024-03-01,Deurne,GM0762,Deurne,,https://wegkenmerken.ndw.nu/api/images/97428cbb-9e78-48ed-9e1c-6c74788bff6e,2016-11-08,2022-12-06,,,,5.7426694891633,51.468553745053,POINT (5.742669 51.468554)
0403f89a-cc2b-4051-8afb-6d84b41576d0,10343,2025-09-24,G12b,PLACED,[ ],N,Midden Peelweg,2.0,277.0,600949373.0,2025-09-01,Horst aan de Maas,GM1507,Sevenum,,,2025-09-24,2025-09-24,2025-09-24,,,5.981884935467685,51.38244285154676,POINT (5.981885 51.382443)
040b0786-9f22-45ca-acc7-afdc04a95d3a,,,G12b,PLACED,[ ],N,Fietspad,,,600550375.0,2024-03-01,De Bilt,GM0310,De Bilt,,https://wegkenmerken.ndw.nu/api/images/4a98b386-598d-476d-8b01-6743d240150b,2020-02-11,2022-03-20,,,,5.1835674952335,52.10330193564,POINT (5.183567 52.103302)
042004f3-f4c1-47d2-a389-683473d8e300,,,G12b,PLACED,[ ],N,Bremstraat,,,600677820.0,2024-03-01,Rucphen,GM0840,St. Willebrord,,https://wegkenmerken.ndw.nu/api/images/a0786000-2ee8-4e83-b832-a979a23c55a0,2016-05-03,2022-07-12,,,,4.5843015540007,51.555372249554,POINT (4.584302 51.555372)
0422f8cb-f0e1-46ed-b6df-f2ac920c1a77,,,G12b,PLACED,[ ],O,Tweehekkenweg,,,348223005.0,2024-03-01,Maashorst,GM1991,Zeeland,,https://wegkenmerken.ndw.nu/api/images/5e971b34-aee9-46cb-8aee-722dcddf3d30,2020-07-13,2022-03-10,,,,5.6666195671138,51.695767494401,POINT (5.66662 51.695767)
042dda4e-398d-4423-8673-b08e384950c3,,,G12b,PLACED,[ ],Z,Haulewei,,,600654076.0,2024-03-01,Harlingen,GM0072,Midlum,,https://wegkenmerken.ndw.nu/api/images/b5a2ccb7-8be3-4f4f-b56f-d6a7c0ed36b9,2016-08-03,2022-08-23,,,,5.438795021894,53.18217014609,POINT (5.438795 53.18217)
04377be9-2604-451a-9bb6-0edbbc9ef519,,,G12b,PLACED,[ ],N,Legmeerdijk,,,600621308.0,2024-03-01,Amstelveen,GM0362,Amstelveen,,https://wegkenmerken.ndw.nu/api/images/92873880-7088-4523-b7de-ea5b544ea828,2016-08-05,2022-11-03,,,,4.8003523836647,52.265502615706,POINT (4.800352 52.265503)
0443aa27-38b9-4eb0-adfc-31b1281daeb8,,,G12b,PLACED,[ ],O,Lange Vaart,,,194295097.0,2024-03-01,Lansingerland,GM1621,Bleiswijk,,https://wegkenmerken.ndw.nu/api/images/4f2d67c9-456f-458b-9422-f39a084a09bb,2016-08-25,2022-09-20,,,,4.5504577517677,52.015762662144,POINT (4.550458 52.015763)
044a14a5-ab7a-4c52-b504-2c258561da8d,,,G12b,PLACED,[ ],Z,Fietspad,,,600658572.0,2024-03-01,Roermond,GM0957,Herten,,https://wegkenmerken.ndw.nu/api/images/24ec09b5-d658-4283-9fd6-15628d80c50e,2016-04-08,2022-05-17,,,,5.9615608319988,51.179072746977,POINT (5.961561 51.179073)
0472490f-b386-4eba-b2ac-ec9ccd8938ca,,,G12b,PLACED,[ ],W,'s-Gravenpad,,,177303032.0,2024-03-01,Pijnacker-Nootdorp,GM1926,Nootdorp,,https://wegkenmerken.ndw.nu/api/images/d86a7b18-6ddb-4d64-a2ca-a18b8d50200c,2016-02-08,2022-05-23,,,,4.4236609231946,52.050899348721,POINT (4.423661 52.050899)
048d60ce-cb71-40ff-a982-a3535939a6fe,,,G12b,PLACED,[ ],W,Fietspad,,,600687879.0,2024-03-01,Haarlemmermeer,GM0394,Nieuw-Vennep,,https://wegkenmerken.ndw.nu/api/images/2c59d262-3b11-4fb1-a63a-5c9c2668a5c3,2016-07-22,2022-07-13,,,,4.6562390382518,52.252723754583,POINT (4.656239 52.252724)
048f7c53-dc6f-478f-9150-876e05271cec,,,G12b,PLACED,[ ],W,Fietspad,,,600581692.0,2024-03-01,Zuidplas,GM1892,Nieuwerkerk aan den IJssel,,https://wegkenmerken.ndw.nu/api/images/1e25c17c-b7cf-4f71-8715-d23074f858a4,2016-07-08,2022-08-10,,,,4.6233953376653,51.975016737584,POINT (4.623395 51.975017)
04963f07-4e56-4d80-8910-ee13dc91f7a6,,,G12b,PLACED,[ ],W,Fietspad,,,600650478.0,2024-03-01,De Fryske Marren,GM1940,Terherne,,https://wegkenmerken.ndw.nu/api/images/39cee144-ca56-4e62-9edd-79befcd18a10,2016-07-08,2022-06-15,,,,5.7806524863178,53.027608501185,POINT (5.780652 53.027609)
049d1e27-820a-48aa-a84b-ac2ecb99d1f9,,,G12b,PLACED,[ ],Z,Nansenstraat,,,600668821.0,2024-03-01,Gouda,GM0513,Gouda,,https://wegkenmerken.ndw.nu/api/images/63f88ee6-bea3-4b23-8a33-25826fcbe230,2021-05-25,2022-06-14,,,,4.7247723067678,52.014830604607,POINT (4.724772 52.014831)
04a630f6-b2c8-4330-aa65-520e7cc7432e,,,G12b,PLACED,[ ],Z,Ljouwerterdyk,,,600500352.0,2024-03-01,Noardeast-Fryslân,GM1970,Ferwert,,https://wegkenmerken.ndw.nu/api/images/24f5cc26-66ec-4339-b7bf-5c91c27a9919,2016-08-02,2022-03-24,,,,5.8233506556999,53.340462602273,POINT (5.823351 53.340463)
04bd05dd-1149-46bf-955e-65fabf71d603,,,G12b,PLACED,[ ],W,Zwolseweg,,,600521530.0,2024-03-01,Kampen,GM0166,'s-Heerenbroek,,https://wegkenmerken.ndw.nu/api/images/dba1af60-bc8d-409e-8f17-29c20854edc6,2016-08-26,2022-10-12,,,,5.9923636690523,52.537209669855,POINT (5.992364 52.53721)
04ce1180-a5cc-45c2-ba93-04b8075167d3,,,G12b,PLACED,[ ],N,Provincialeweg,,,,,Dordrecht,GM0505,Dordrecht,,https://wegkenmerken.ndw.nu/api/images/8611fd5e-40f5-479b-a8f1-151738047ea5,2016-02-29,2022-04-28,,,,4.6950075982684,51.803438027062,POINT (4.695008 51.803438)
04e93307-b3c0-470b-9a16-1aeb0339f976,,,G12b,PLACED,[ ],W,Westfriesedijk,,,600549745.0,2024-03-01,Hollands Kroon,GM1911,Winkel,,https://wegkenmerken.ndw.nu/api/images/84afe01e-7440-4a11-8c5a-3fe36cef49bd,2018-05-15,2022-07-23,,,,4.9181240651583,52.759647479053,POINT (4.918124 52.759647)
04eaadca-4e60-403c-abd9-c20783505fcc,,,G12b,PLACED,[ ],Z,Bolzijl,,,600515207.0,2024-03-01,Medemblik,GM0420,Medemblik,,https://wegkenmerken.ndw.nu/api/images/af268353-11f4-408b-9f9c-85439fd29818,2020-04-01,2022-04-14,,,,5.0910878092326,52.76030859276,POINT (5.091088 52.760309)
04ed51e9-e7bd-4716-b354-1ea0e7a05b80,,,G12b,PLACED,[ ],Z,Schout van Groenewegenstraat,,,177279067.0,2024-03-01,Rotterdam,GM0599,Rotterdam,,https://wegkenmerken.ndw.nu/api/images/c4cfc7ee-146d-4830-88fc-2af9d8b5e397,2018-04-03,2022-03-23,,,,4.4252601435209,51.939953450475,POINT (4.42526 51.939953)
04f88b0c-6740-4cb6-a3c1-520561e0d53b,,,G12b,PLACED,[ ],N,Arnoud van Gelderweg,,,600702612.0,2024-03-01,Land van Cuijk,GM1982,Grave,,https://wegkenmerken.ndw.nu/api/images/afcd4d59-cdf8-4411-85ca-eeb8f5eab2a3,2016-11-24,2022-11-16,,,,5.734468002906,51.761063261245,POINT (5.734468 51.761063)
050de627-1d72-44fb-b6f1-2c230a93e91c,,,G12b,PLACED,[ ],O,Koivistokade,,,600426545.0,2025-09-01,Amsterdam,GM0363,Amsterdam,,https://wegkenmerken.ndw.nu/api/images/edff9fc1-0eb2-4bcf-9001-f20100a251db,2022-06-09,2025-09-09,,,,4.8758350558053,52.398023562901,POINT (4.875835 52.398024)
051b1113-b9b1-453a-a1b5-1df31a9d6078,,,G12b,PLACED,"[ { ""type"": ""VRIJ"", ""text"": ""(brom) fietsers afstappen"" } ]",O,Fietspad,,,600651802.0,2024-03-01,Rotterdam,GM0599,Rotterdam,,https://wegkenmerken.ndw.nu/api/images/60f7ccb9-2511-4983-803d-420721012674,2016-08-18,2022-03-24,,,,4.4622631184527,51.942357901468,POINT (4.462263 51.942358)
051de53d-04b2-4594-b9cf-a8a18104c5d6,,,G12b,PLACED,[ ],N,Claude Debussystraat,,,601234750.0,2024-07-01,Zaanstad,GM0479,Zaandijk,,https://wegkenmerken.ndw.nu/api/images/86ba2822-591c-42f9-bad0-790f9be09c66,2022-09-30,2022-09-30,,,,4.7951313742894,52.474999907588,POINT (4.795131 52.475)
0535379b-8443-4db4-ac01-485bb5b1ff3b,,,G12b,PLACED,[ ],N,Fietspad,,,601378744.0,2025-09-01,Beverwijk,GM0375,Beverwijk,,https://wegkenmerken.ndw.nu/api/images/f85e43dc-3019-4461-a257-b54cb5b3359d,2016-11-24,2022-11-20,,,,4.6316021748606,52.496867371272,POINT (4.631602 52.496867)
053ad10a-f1ac-4b28-8a68-7dd152225d67,,,G12b,PLACED,[ ],N,Koningsweg,,,600507660.0,2024-03-01,Texel,GM0448,Oosterend,,https://wegkenmerken.ndw.nu/api/images/bedf0e6a-9190-48a6-84a2-f92a252f9435,2017-01-16,2022-02-28,,,,4.8678743610471,53.087494960534,POINT (4.867874 53.087495)
053dd3e8-bdda-4b0d-80bf-dffb78e574ce,,,G12b,PLACED,[ ],Z,Leeuwenhoekweg,,,600680786.0,2024-03-01,Lansingerland,GM1621,Bergschenhoek,,https://wegkenmerken.ndw.nu/api/images/e3126816-8c6a-48fa-8cf9-0032189cd798,2020-09-21,2022-09-20,,,,4.5209359192395,51.993108624101,POINT (4.520936 51.993109)
0548a803-1145-491d-bbb9-876f9066647f,,,G12b,PLACED,[ ],W,Fietspad,,,600605114.0,2024-03-01,Midden-Groningen,GM1952,Slochteren,,https://wegkenmerken.ndw.nu/api/images/340b71fc-ada4-4a07-801b-eb77263909e5,2016-09-27,2022-05-19,,,,6.7974882685252,53.210891230422,POINT (6.797488 53.210891)
057156a0-ee53-42be-a8f2-bc1383ac313a,,,G12b,PLACED,[ ],N,Orion,,,141256054.0,2024-03-01,Voorne aan Zee,GM1992,Hellevoetsluis,,https://wegkenmerken.ndw.nu/api/images/9d183708-b812-4260-81e4-bc142b78681d,2020-11-17,2022-10-03,,,,4.162229136042,51.839347657348,POINT (4.162229 51.839348)
05796ec0-3d36-4a68-b854-70ba171ec092,,,G12b,PLACED,[ ],Z,Soesterbergsestraat,,,601469952.0,2025-09-01,Soest,GM0342,Soest,,https://wegkenmerken.ndw.nu/api/images/1d1932ff-d640-4d1f-a2f3-0f48b61ed431,2016-09-19,2022-10-03,,,,5.3061171914366,52.152657748821,POINT (5.306117 52.152658)
05866f11-9775-4768-93f3-2847ea0336ca,,,G12b,PLACED,[ ],O,Kathagen,,,601211862.0,2024-05-01,Beekdaelen,GM1954,Nuth,,https://wegkenmerken.ndw.nu/api/images/b0943601-cfa9-4000-be2d-69ec9c0222b7,2021-08-12,2022-08-12,,,,5.8916893018649,50.92396264335,POINT (5.891689 50.923963)
05908f13-d26f-4e0e-b41a-b453390ee2b1,,,G12b,PLACED,[ ],Z,Brink,,,600680001.0,2024-03-01,Hollands Kroon,GM1911,Slootdorp,,https://wegkenmerken.ndw.nu/api/images/5e5011ae-45fc-47ae-81ec-640f86460402,2016-06-17,2022-08-06,,,,4.9685213139089,52.845097983531,POINT (4.968521 52.845098)
0598629b-c258-47ac-b873-621ebb78eeb9,,,G12b,PLACED,[ ],Z,Noordervaart,,,,,Alkmaar,GM0361,Stompetoren,,https://wegkenmerken.ndw.nu/api/images/4d3916b6-88da-4710-84de-01049f0565d7,2022-02-19,2022-02-19,,,,4.7808029631666,52.620011869148,POINT (4.780803 52.620012)
059e2222-08a1-4690-bc56-10071f0b608a,,,G12b,PLACED,[ ],W,Brugstraat,,,,,Leudal,GM1640,Grathem,,https://wegkenmerken.ndw.nu/api/images/80183632-89ab-42c5-82d8-c2ef4bb68d7d,2016-03-09,2022-05-11,,,,5.8624321969619,51.186438013999,POINT (5.862432 51.186438)
05af0c1c-59ca-47e7-9b4e-961a09683e86,,,G12b,PLACED,[ ],N,Langbos,,,600505807.0,2024-03-01,Midden-Drenthe,GM1731,Westerbork,,https://wegkenmerken.ndw.nu/api/images/b3d51707-209a-42fb-b1a6-d1562dac504f,2016-11-23,2022-11-02,,,,6.6112030704807,52.844689070884,POINT (6.611203 52.844689)
05bc0b6f-ab91-47fb-adae-c904d5fbd041,,,G12b,PLACED,[ ],Z,Hessenweg,,,601002676.0,2024-03-01,Dalfsen,GM0148,Dalfsen,,https://wegkenmerken.ndw.nu/api/images/b4ade881-ea24-49f9-b946-245270e6f82d,2022-04-28,2022-04-28,,,,6.3342273643541,52.527925032455,POINT (6.334227 52.527925)
05d03edc-23f5-4525-8f74-a46924de62d0,,,G12b,PLACED,[ ],N,Fietspad,,,600594516.0,2024-03-01,De Wolden,GM1690,de Wijk,,https://wegkenmerken.ndw.nu/api/images/025922cb-1591-4184-bcec-573dee06aa52,2016-03-17,2022-03-07,,,,6.3310829185974,52.669993614996,POINT (6.331083 52.669994)
05d2805a-768a-4956-bdd6-d65fc9995c2a,,,G12b,PLACED,[ ],Z,Orion,,,141256054.0,2024-03-01,Voorne aan Zee,GM1992,Hellevoetsluis,,https://wegkenmerken.ndw.nu/api/images/db4269b9-edbc-4925-a318-077efaee4ac1,2020-11-17,2022-10-03,,,,4.1624699126279,51.838844813444,POINT (4.16247 51.838845)
05d69790-c49b-449f-a765-de2eb9c6071f,,,G12b,PLACED,[ ],Z,Schoudermantel,,,286305006.0,2024-03-01,Bunnik,GM0312,Bunnik,,https://wegkenmerken.ndw.nu/api/images/ab575497-c53e-4962-8ff7-a22dee6dc0ed,2022-02-23,2022-02-23,,,,5.2180617299154,52.059197554418,POINT (5.218062 52.059198)
05d8baa3-3b12-44c8-9cbe-6050cc166d96,,,G12b,PLACED,[ ],O,Beijerincklaan,,,600493899.0,2024-03-01,Waddinxveen,GM0627,Waddinxveen,,https://wegkenmerken.ndw.nu/api/images/3547b05e-49a4-413d-a093-14c7bae823b3,2016-05-13,2022-08-04,,,,4.6164225458911,52.02122951086,POINT (4.616423 52.02123)
05df0cf5-c8cb-41aa-bc4b-5fc6ea5ede45,,,G12b,PLACED,[ ],Z,Noordzakweg,,,600967286.0,2024-03-01,Goes,GM0664,'s-Heer Arendskerke,,https://wegkenmerken.ndw.nu/api/images/1d96fade-80ea-46da-a453-a4d1c0f4a2a8,2018-01-19,2022-01-24,,,,3.8084543017047,51.491267863877,POINT (3.808454 51.491268)
05eabdca-3e2b-47b1-baa0-5c2ad9dddd20,,,G12b,PLACED,[ ],N,Nijenburgerweg,,,221426007.0,2024-03-01,Heiloo,GM0399,Heiloo,,https://wegkenmerken.ndw.nu/api/images/b521b4b4-c514-457c-a59b-d9a0596d2c84,2022-04-06,2022-04-06,,,,4.7360661691389,52.60551168103,POINT (4.736066 52.605512)
0604048f-6f53-42cf-9a75-5c3572ad6857,,,G12b,PLACED,[ ],O,Fietspad,,,600578543.0,2024-03-01,Vlaardingen,GM0622,Vlaardingen,,https://wegkenmerken.ndw.nu/api/images/1ff1ced5-a275-40e4-94d6-fd089297f3d1,2016-04-04,2022-07-11,,,,4.3338663274019,51.908562907079,POINT (4.333866 51.908563)
060c7a7c-8744-458a-a16f-8e35f1ad7680,,,G12b,PLACED,[ ],W,Dorpsstraat,,,601101663.0,2024-03-01,Houten,GM0321,Houten,,https://wegkenmerken.ndw.nu/api/images/64f941e8-b19c-4ee6-bbca-6a1c7c33feb7,2016-04-14,2022-03-07,,,,5.1651786738514,52.023847837989,POINT (5.165179 52.023848)
0619566e-3881-4816-8189-76ac80584d03,,,G12b,PLACED,[ ],W,Mijkenbroek,,,601022313.0,2024-03-01,Breda,GM0758,Breda,,https://wegkenmerken.ndw.nu/api/images/c480e042-ab68-4152-99a0-4f4496539840,2022-08-23,2022-08-23,,,,4.7567358141247,51.60202774767,POINT (4.756736 51.602028)
0627f59f-2ec3-42ad-b888-41273825db55,,,G12b,PLACED,[ ],Z,Mijdrechtse dwarsweg,,,600938426.0,2024-03-01,De Ronde Venen,GM0736,Wilnis,,https://wegkenmerken.ndw.nu/api/images/049a7786-e8ba-47a7-9203-3851c23d4632,2020-11-02,2022-10-03,,,,4.8923246192657,52.206423684824,POINT (4.892325 52.206424)
06443355-30cd-4520-8c8e-5fd27afe7f35,,,G12b,PLACED,[ ],Z,Harlingerweg,,,600617266.0,2024-03-01,Súdwest-Fryslân,GM1900,Kimswerd,,https://wegkenmerken.ndw.nu/api/images/9bcbcd47-3eaa-4ada-8c1d-8e23534f0db9,2016-08-23,2022-07-20,,,,5.4292007795667,53.143722536184,POINT (5.429201 53.143723)
06554257-5cac-4a9f-8427-3f294df6c1ad,,,G12b,PLACED,[ ],O,Fort Oranje,,,601253314.0,2024-09-01,Woerden,GM0632,Woerden,,https://wegkenmerken.ndw.nu/api/images/3645adac-0244-450b-9c76-5ce936862c02,2016-06-09,2022-07-06,,,,4.8942324143687,52.091910451393,POINT (4.894232 52.09191)
067d53c0-ee8b-4b1d-8664-51f29bd2b8ba,,,G12b,PLACED,"[ { ""type"": ""VOOR"", ""text"": ""25 m"" } ]",Z,Groningerweg,,,600263386.0,2024-03-01,Noordenveld,GM1699,Peize,,https://wegkenmerken.ndw.nu/api/images/515494e2-db6b-47a6-a55f-82cc9160efd1,2018-02-08,2023-12-03,,,,6.4929566317019,53.153012111649,POINT (6.492957 53.153012)
069c258a-a900-4d3e-a3a6-ea0d4c555667,,,G12b,PLACED,[ ],N,de Wetstein Pfisterlaan,,,297304039.0,2024-03-01,Utrechtse Heuvelrug,GM1581,Driebergen-Rijsenburg,,https://wegkenmerken.ndw.nu/api/images/ee6afd6a-1ab9-4dc6-b27b-ecb89bfd5bea,2016-04-20,2022-03-21,,,,5.2988944802705,52.059727073131,POINT (5.298894 52.059727)
06bc1919-ed78-4618-907e-180f775dd62b,2728,2025-09-24,G12b,PLACED,[ ],N,Midden Peelweg,,,600555096.0,2025-09-01,Peel en Maas,GM1894,Kessel,,,2025-09-24,2025-09-24,2025-09-24,,,6.059882356947602,51.303999685923536,POINT (6.059882 51.304)
06bf95b6-fcae-4542-9a0d-9c5f783b440e,,,G12b,PLACED,[ ],O,Hofmaat,,,477322051.0,2024-03-01,Berkelland,GM1859,Neede,,https://wegkenmerken.ndw.nu/api/images/0e720f04-d677-41e5-9914-d27e5c83f66b,2020-03-14,2022-03-02,,,,6.6126626582371,52.131873410807,POINT (6.612663 52.131873)
06c7287d-bb58-4efa-8818-45286ce82bd1,,,G12b,PLACED,[ ],W,Jodendijk,,,422332003.0,2024-03-01,Lochem,GM0262,Eefde,,https://wegkenmerken.ndw.nu/api/images/04baea74-f9f9-4dd6-b95b-3340b568e645,2021-09-30,2022-09-09,,,,6.2179653303268,52.178927036004,POINT (6.217965 52.178927)
06c72eef-893b-4309-903b-00cd94280c9e,,,G12b,PLACED,[ ],N,Dijkstraat,,,201213054.0,2024-03-01,Moerdijk,GM1709,Zevenbergen,,https://wegkenmerken.ndw.nu/api/images/d2092f8e-b10e-4c59-a814-4e11e86c512b,2016-03-18,2022-05-19,,,,4.6053632596105,51.645903971918,POINT (4.605363 51.645904)
06c91632-1a74-4e82-838b-75cee02a8d1f,,,G12b,PLACED,[ ],N,Fietspad,,,600645343.0,2024-03-01,Land van Cuijk,GM1982,Oeffelt,,https://wegkenmerken.ndw.nu/api/images/900591f7-bc0d-42f7-beda-2f7d0218d0c5,2017-01-10,2022-11-14,,,,5.9345445393338,51.695899245143,POINT (5.934545 51.695899)
06d07277-8c5b-410e-bf9a-1ed2e0595c50,,,G12b,PLACED,[ ],O,Biezenwade,,,600686002.0,2024-03-01,Nieuwegein,GM0356,Nieuwegein,,https://wegkenmerken.ndw.nu/api/images/0aabf781-6296-4a4a-a2c1-a9522eef88fe,2020-02-07,2022-03-12,,,,5.1148938416631,52.046657798473,POINT (5.114894 52.046658)
06d77add-bd29-4836-aa22-26a23ad42a77,,,G12b,PLACED,[ ],Z,Burgemeester Keijzerweg,,,,,Papendrecht,GM0590,Papendrecht,,https://wegkenmerken.ndw.nu/api/images/43071915-432f-4c12-9298-6939f91e52db,2021-04-14,2022-05-05,,,,4.7171839672258,51.829561507458,POINT (4.717184 51.829562)
06d83d5b-3668-41e1-b529-c82bf030e60b,,,G12b,PLACED,[ ],O,van Dedemstraat,,,600772459.0,2024-03-01,Hoorn,GM0405,Hoorn,,https://wegkenmerken.ndw.nu/api/images/c74f21ad-3751-427d-bcb3-dd5e5e1ecf52,2018-01-08,2022-02-02,,,,5.0525976918355,52.646414844809,POINT (5.052598 52.646415)
06d8acb5-7678-42c8-bef3-0b395ddf6ded,,,G12b,PLACED,[ ],Z,Leropperweg,,,600844973.0,2024-03-01,Roermond,GM0957,Roermond,,https://wegkenmerken.ndw.nu/api/images/4ed05010-f83a-4d28-b36e-587dd977a078,2016-04-08,2022-05-17,,,,5.98103660494,51.178562110246,POINT (5.981037 51.178562)
06dd1a84-6985-413f-a7ba-8179bdc0e4cc,,,G12b,PLACED,[ ],W,Buinerstraat,,,601245165.0,2024-08-01,Borger-Odoorn,GM1681,Borger,,https://wegkenmerken.ndw.nu/api/images/8638a183-a922-4ae6-a2a5-56a1de6f3f52,2020-09-24,2022-10-11,,,,6.7978689016035,52.924163173998,POINT (6.797869 52.924163)
06e0a9c3-7b5d-4f31-bb4c-e1b8bd9e7d68,,,G12b,PLACED,[ ],Z,Fietspad,,,,,Meierijstad,GM1948,Sint-Oedenrode,,https://wegkenmerken.ndw.nu/api/images/36eacac5-1a01-4385-a6a1-32dcf915b044,2016-09-30,2022-05-13,,,,5.4735539122824,51.575011612098,POINT (5.473554 51.575012)
06e4bcc1-db8f-4375-8172-b5ab13a001f9,,,G12b,PLACED,[ ],W,Kristiansandstraat,,,158299108.0,2024-03-01,'s-Gravenhage,GM0518,'s-Gravenhage,,https://wegkenmerken.ndw.nu/api/images/cdb24f09-4923-4384-acdb-eb13496d4e07,2019-09-10,2022-11-02,,,,4.28052865725,52.032894002118,POINT (4.280529 52.032894)
06fa0208-1780-4710-82da-0ed751cae03d,,,G12b,PLACED,[ ],O,Jaagpad,,,600852122.0,2024-03-01,Brummen,GM0213,Hall,,https://wegkenmerken.ndw.nu/api/images/83abfaa5-c1e2-4c24-823e-c4cc7a28bb43,2016-04-14,2022-02-26,,,,6.0897198861296,52.095149686311,POINT (6.08972 52.09515)
0720ffb8-435e-49db-a15f-2cb7a50bf016,,,G12b,PLACED,[ ],Z,Dwazziewegen,,,601355200.0,2025-07-01,Noordenveld,GM1699,Roden,,https://wegkenmerken.ndw.nu/api/images/9ffe184a-2954-4505-b1f2-d582ed2fb81e,2016-02-02,2022-01-27,,,,6.4473959651764,53.150934356745,POINT (6.447396 53.150934)
072429f6-7812-455c-8030-a8612da7e75e,,,G12b,PLACED,[ ],O,Schoolweg,,,600689489.0,2024-03-01,Den Helder,GM0400,Julianadorp,,https://wegkenmerken.ndw.nu/api/images/ee429b78-7df6-4eba-97fe-2f2f187d6b5b,2016-05-27,2022-04-02,,,,4.7806268581691,52.894912710483,POINT (4.780627 52.894913)
074a654b-972d-4db5-b0b2-91e81a6132d2,,,G12b,PLACED,[ ],N,Fietspad,,,600663986.0,2024-03-01,Zuidplas,GM1892,Nieuwerkerk aan den IJssel,,https://wegkenmerken.ndw.nu/api/images/7a923c09-136e-49bb-b6e4-2c246391725b,2016-07-08,2022-08-10,,,,4.6012242535682,51.969821836024,POINT (4.601224 51.969822)
076d799c-d947-4022-8934-5d7e41c3747e,,,G12b,PLACED,[ ],N,Menneweersterweg,,,600578099.0,2024-03-01,Het Hogeland,GM1966,Vierhuizen,,https://wegkenmerken.ndw.nu/api/images/110f7a9e-4636-4849-96bc-4c5a8b82231f,2021-06-14,2022-06-23,,,,6.308290211532,53.364159209989,POINT (6.30829 53.364159)
0799ada9-56b6-4104-8c21-e5fa3a4af93c,,,G12b,PLACED,[ ],O,Over de Tol,,,278356002.0,2024-03-01,Gooise Meren,GM1942,Naarden,,https://wegkenmerken.ndw.nu/api/images/4ea23cc1-76ac-4752-ae42-ff5d3bd1f09c,2016-07-15,2022-06-22,,,,5.1641998420663,52.290424935261,POINT (5.1642 52.290425)
07a1faeb-98cb-46cc-bc7d-d7f65b39ddfe,,,G12b,PLACED,[ ],O,Rijksweg,,,600517052.0,2024-03-01,Maashorst,GM1991,Reek,,https://wegkenmerken.ndw.nu/api/images/f448d238-64b5-4084-af70-9278fe1c7f3f,2016-05-03,2022-03-08,,,,5.6790707137097,51.73782743716,POINT (5.679071 51.737827)
07b155e5-f5cc-4058-8122-a53538b74776,,,G12b,PLACED,[ ],Z,Marwei,,,600702945.0,2024-03-01,De Fryske Marren,GM1940,Delfstrahuizen,,https://wegkenmerken.ndw.nu/api/images/4920305a-3ec6-4d1f-9cfe-3b4d8be255b2,2016-07-04,2022-06-21,,,,5.8490982899553,52.889461217303,POINT (5.849098 52.889461)
07b9234b-7152-4951-a04c-9438cb08984d,,,G12b,PLACED,[ ],O,Fietspad,,,600567446.0,2024-03-01,Gouda,GM0513,Gouda,,https://wegkenmerken.ndw.nu/api/images/fc73f3e2-91df-4088-ab05-7897c98f6150,2015-12-23,2022-06-13,,,,4.7416407751141,52.01717837275,POINT (4.741641 52.017178)
07c39353-6e87-4653-8d48-f7051d18e98c,,,G12b,PLACED,[ ],N,Rondweg-Noord,,,600540068.0,2024-03-01,Noardeast-Fryslân,GM1970,Dokkum,,https://wegkenmerken.ndw.nu/api/images/8a28bebe-04d8-4d17-bca5-266908abec02,2016-05-04,2022-03-23,,,,6.0056342004526,53.331478150383,POINT (6.005634 53.331478)
07d6bcbe-c938-43c5-aad7-96e0cb1913ce,,,G12b,PLACED,[ ],W,Vordenseweg,,,600922214.0,2024-03-01,Berkelland,GM1859,Ruurlo,,https://wegkenmerken.ndw.nu/api/images/49343c02-c808-4cd8-9b6b-625357500687,2020-03-18,2022-03-10,,,,6.4454127549777,52.080027089234,POINT (6.445413 52.080027)
07e8bd42-a08a-451a-bdf7-90f5d7c6aa8e,,,G12b,PLACED,[ ],Z,Woudselaan,,,,,Midden-Delfland,GM1842,Den Hoorn,,https://wegkenmerken.ndw.nu/api/images/e20e162f-a9f6-4a04-bdf2-b71e60d33158,2020-11-25,2022-11-09,,,,4.3196234606509,52.010455657536,POINT (4.319623 52.010456)
07f8542f-e105-4255-abc8-d4d707db9ae1,,,G12b,PLACED,[ ],OZO,Daver,,,601471513.0,2025-09-01,Tiel,GM0281,Kerk Avezaath,,https://wegkenmerken.ndw.nu/api/images/753f5af8-9d87-44bd-8879-a9b009f56081,2018-05-08,2025-03-17,,,,5.3960008118648,51.895872123582,POINT (5.396001 51.895872)
07f9dc63-d259-4df0-a1bd-4f2ebdaced5e,,,G12b,PLACED,[ ],W,Oud Vossemeersedijk,,,600641744.0,2024-03-01,Tholen,GM0716,Oud-Vossemeer,,https://wegkenmerken.ndw.nu/api/images/6ff58822-e714-47a4-9809-4ecfe203cd54,2016-04-05,2022-03-04,,,,4.1987450423821,51.566267664748,POINT (4.198745 51.566268)
08058d61-5b3d-4772-9d1b-ae5c36915068,,,G12b,PLACED,[ ],ONO,Anton de Komplein,,,600766885.0,2025-09-01,Amsterdam,GM0363,Amsterdam,,https://wegkenmerken.ndw.nu/api/images/999bf16c-8d30-4de6-818f-c2b12da37a8d,2018-07-11,2025-09-09,,,,4.9589441100793,52.31663302505,POINT (4.958944 52.316633)
080b3dcd-1658-411a-8271-12b807f44107,,,G12b,PLACED,[ ],W,Hoogeveenseweg,,,600587208.0,2024-03-01,Noordwijk,GM0575,Noordwijk,,https://wegkenmerken.ndw.nu/api/images/947907bd-8106-456a-8afb-35b74a4fab9d,2016-07-07,2022-06-08,,,,4.4643059153629,52.23002377581,POINT (4.464306 52.230024)
080b5316-455d-4e2c-af68-acca53bd9cec,,,G12b,PLACED,[ ],Z,Kleingeel,,,601363639.0,2025-09-01,Rhenen,GM0340,Elst Ut,,https://wegkenmerken.ndw.nu/api/images/94b45298-e75b-41cd-8c74-edcdcb8fcc1f,2020-09-15,2022-10-04,,,,5.4978935532994,51.988569673432,POINT (5.497894 51.98857)
080c089f-cc41-41c5-9ffb-a9ca50fbdc80,,2024-12-18,G12b,PLACED,[ ],N,Valtherzandweg,,,600984225.0,2024-03-01,Borger-Odoorn,GM1681,Exloo,,https://wegkenmerken.ndw.nu/api/images/1bef9f5e-877f-4778-9d89-583614a7f630,2016-11-11,2022-10-04,,,,6.8663720198144,52.876482271185,POINT (6.866372 52.876482)
080eaee4-4502-48b3-8859-5bc9ed881bf3,,,G12b,PLACED,[ ],N,Frieseweg,,,600579555.0,2024-03-01,Alkmaar,GM0361,Alkmaar,,https://wegkenmerken.ndw.nu/api/images/18755277-95d1-4e60-a18e-5371a1afaa8c,2020-02-18,2022-03-10,,,,4.7551994816558,52.633078154939,POINT (4.755199 52.633078)
081a7396-fea5-4c0d-9841-164ae3011dd8,,,G12b,PLACED,[ ],Z,Broeklandenweg,,,,,Hardenberg,GM0160,Hardenberg,,https://wegkenmerken.ndw.nu/api/images/4fa8d4c7-414b-47ce-ba39-96124e8ac2b5,2022-08-31,2022-08-31,,,,6.6380049379373,52.550341263818,POINT (6.638005 52.550341)
0830e25c-ce89-4286-b991-5ddb8ee26d89,,,G12b,PLACED,[ ],N,Loeriksepad,,,282296023.0,2024-03-01,Houten,GM0321,Houten,,https://wegkenmerken.ndw.nu/api/images/28f3176a-3d5d-499d-9311-9179c368268d,2016-03-02,2022-03-07,,,,5.1848283418315,52.023943901989,POINT (5.184828 52.023944)
083e1ba3-04ba-4833-a3fc-354f5f067aa8,,,G12b,PLACED,[ ],Z,Beerzepad,,,600183670.0,2024-03-01,Gemert-Bakel,GM1652,Gemert,,https://wegkenmerken.ndw.nu/api/images/50b205fa-ed8c-4e12-b8ee-afb08230aa28,2016-05-17,2022-04-11,,,,5.7047787297372,51.559617782828,POINT (5.704779 51.559618)
084e7423-bab3-481a-8eb3-2fa48d57ac55,,,G12b,PLACED,[ ],O,Fietspad,,,600507641.0,2024-03-01,Goes,GM0664,Kloetinge,,https://wegkenmerken.ndw.nu/api/images/dc58d499-44a7-47e5-a2f4-76a033dc86a0,2016-12-09,2022-01-21,,,,3.9066556705292,51.49074582384,POINT (3.906656 51.490746)
0883da3e-3754-475c-94c2-22bf43f0ed2d,,,G12b,PLACED,[ ],N,Eibergseweg,,,600613862.0,2024-03-01,Berkelland,GM1859,Neede,,https://wegkenmerken.ndw.nu/api/images/e475f3b8-83a0-41ae-bc86-77e0245bfa91,2021-03-01,2022-03-01,,,,6.6204464811164,52.126345424138,POINT (6.620446 52.126345)
08863c85-0caf-4513-b0ee-97f1c81e4869,,,G12b,PLACED,[ ],Z,Heuvelweg,,,600621219.0,2024-03-01,Capelle aan den IJssel,GM0502,Capelle aan den IJssel,,https://wegkenmerken.ndw.nu/api/images/7ba8f795-28a4-4e2c-a0b4-5242ff19f791,2022-02-08,2022-02-08,,,,4.6030660073231,51.938596317606,POINT (4.603066 51.938596)
0892e6e2-b531-4353-b814-437f81a4ad4b,,,G12b,PLACED,[ ],W,Groeneweg,,,600166585.0,2024-03-01,Bronckhorst,GM1876,Hummelo,,https://wegkenmerken.ndw.nu/api/images/7c2ca100-a8b4-49bb-9fe2-23011fd781ef,2016-10-17,2022-05-08,,,,6.2284889256967,52.004803744833,POINT (6.228489 52.004804)
08ce83b6-ce15-46c9-8412-71430829eb12,,,G12b,PLACED,[ ],N,Fietspad,,,601359475.0,2025-08-01,Bunschoten,GM0313,Bunschoten-Spakenburg,,https://wegkenmerken.ndw.nu/api/images/bbc09bdf-0a45-4918-9fd9-b2bcf9182fa1,2016-08-17,2022-09-29,,,,5.3918064437482,52.231268595913,POINT (5.391806 52.231269)
08d0280a-aaff-428c-bed5-981acaca6f4f,,,G12b,PLACED,[ ],Z,Vaartweg,,,600677206.0,2024-03-01,Vlaardingen,GM0622,Vlaardingen,,https://wegkenmerken.ndw.nu/api/images/b76e3a70-4c5b-4cb9-ba1f-a6ec5741da95,2016-04-04,2022-07-11,,,,4.3421692704661,51.914794580939,POINT (4.342169 51.914795)
08d202b6-6e42-4321-9414-57aa912d206b,,,G12b,PLACED,[ ],Z,Zijweg,,,600678802.0,2024-03-01,Bloemendaal,GM0377,Overveen,,https://wegkenmerken.ndw.nu/api/images/6b64e6a0-4896-426f-9c55-9c705f38f43f,2016-07-04,2022-10-16,,,,4.5999244782676,52.375437073436,POINT (4.599924 52.375437)
0901a6a5-8627-40eb-afa8-d06c1e00b509,,,G12b,PLACED,[ ],O,Dorpsstraat,,,600442259.0,2024-03-01,Koggenland,GM1598,Obdam,,https://wegkenmerken.ndw.nu/api/images/4377b7bf-7e2e-417d-9990-a7bfdf04d27e,2020-11-04,2022-10-15,,,,4.9016621119964,52.671466689197,POINT (4.901662 52.671467)
0916baf4-c684-46fa-b0a6-a895e529542e,,,G12b,PLACED,[ ],W,Langstraat,,,600565251.0,2024-03-01,Deurne,GM0762,Deurne,,https://wegkenmerken.ndw.nu/api/images/8c38f787-37dd-4cad-a6e9-4d9c001b4285,2016-11-08,2022-12-06,,,,5.813402591098,51.47367000556,POINT (5.813403 51.47367)
0916bd98-b9be-44a7-a0c7-5657ad2d6bb9,,,G12b,PLACED,[ ],W,Buitenom,,,600909475.0,2024-03-01,West Betuwe,GM1960,Geldermalsen,,https://wegkenmerken.ndw.nu/api/images/d260defa-1376-4229-9686-f83757695f00,2016-08-04,2022-05-04,,,,5.3053325699341,51.872098807747,POINT (5.305333 51.872099)
091bd831-77d5-44b1-87ac-6eb21aa4c769,,,G12b,PLACED,[ ],W,Hoofdweg,,,600404602.0,2024-03-01,Capelle aan den IJssel,GM0502,Capelle aan den IJssel,,https://wegkenmerken.ndw.nu/api/images/0878aa13-63cf-4271-855c-59d22200db44,2022-02-10,2022-02-10,,,,4.5882681410421,51.961603990351,POINT (4.588268 51.961604)
0927134c-8d00-4afe-9251-deec1b483861,,,G12b,PLACED,[ ],O,Leostraat,,,600652770.0,2024-03-01,Eindhoven,GM0772,Eindhoven,,https://wegkenmerken.ndw.nu/api/images/57bfc684-81df-4b7f-8bb8-5c7d98a7fd89,2016-08-19,2022-08-08,,,,5.4861417955074,51.423772557374,POINT (5.486142 51.423773)
0934db41-1e1a-4308-9c42-bb852238e8df,,,G12b,PLACED,[ ],N,Rijksweg,,,235200008.0,2024-03-01,Oosterhout,GM0826,Dorst,,https://wegkenmerken.ndw.nu/api/images/3552bab9-5272-44fd-afe5-176aed1a8352,2016-10-18,2022-09-22,,,,4.8477422858566,51.590826138123,POINT (4.847742 51.590826)
09368aa9-51b5-44ee-85fd-ad4cf43c66bd,,,G12b,PLACED,[ ],W,Sint Catharinaweg,,,340166047.0,2024-03-01,Geldrop-Mierlo,GM1771,Mierlo,,https://wegkenmerken.ndw.nu/api/images/8710ee0c-5d91-4d87-a6bf-a463b8a89199,2016-10-08,2022-11-08,,,,5.6046456557548,51.439974236443,POINT (5.604646 51.439974)
0939cbec-d397-4b82-bfa8-6939ef384986,,,G12b,PLACED,[ ],N,Fietspad,,,600671140.0,2024-03-01,Beverwijk,GM0375,Beverwijk,,https://wegkenmerken.ndw.nu/api/images/f0edb118-78a1-400b-ac8b-b6ef97e418cf,2016-11-24,2022-12-12,,,,4.6455235144019,52.498372922663,POINT (4.645524 52.498373)
0945d529-5a21-4013-9dfe-bb2bf8fb13ad,,,G12b,PLACED,[ ],W,Woudfennen,,,600402734.0,2024-03-01,De Fryske Marren,GM1940,Joure,,https://wegkenmerken.ndw.nu/api/images/73ef6b7e-ec1d-4554-82c7-8865d5056c66,2016-06-29,2022-06-17,,,,5.7669685816833,52.961627931119,POINT (5.766969 52.961628)
094f4884-1aee-4466-acda-2d1ad682d056,,,G12b,PLACED,[ ],Z,Rijksweg,,,600493333.0,2024-03-01,Meierijstad,GM1948,Veghel,,https://wegkenmerken.ndw.nu/api/images/0b0d3d29-f1e5-41de-8b6f-08c71ddcd2a4,2016-11-21,2022-06-03,,,,5.5172946429232,51.61672549418,POINT (5.517295 51.616725)
09580325-9f85-4d9a-a348-8437eb752ef4,,,G12b,PLACED,[ ],Z,Tevixhoekweg,,,600550767.0,2024-03-01,Borsele,GM0654,Borssele,,https://wegkenmerken.ndw.nu/api/images/ccd97398-d3dd-4dd5-b5f9-4286d5a37891,2016-04-14,2022-04-21,,,,3.7571370152079,51.441894365145,POINT (3.757137 51.441894)
095e1669-27f6-48d2-bf69-09dc430063b0,,,G12b,PLACED,[ ],Z,Zomerdijk,,,600625190.0,2024-03-01,Zwartewaterland,GM1896,Zwartsluis,,https://wegkenmerken.ndw.nu/api/images/b78a23ee-eb94-4772-822e-ddbf47ea76c6,2017-04-12,2022-05-02,,,,6.0879649179667,52.64928651085,POINT (6.087965 52.649287)
09636c6d-141d-46eb-8f98-22e4d28f4eec,,,G12b,PLACED,[ ],O,Stevinstraat,,,600878617.0,2024-03-01,Winterswijk,GM0294,Winterswijk,,https://wegkenmerken.ndw.nu/api/images/d5cebad0-429b-406c-9d61-758229d45f17,2021-06-03,2022-06-18,,,,6.7125185913421,51.961449689566,POINT (6.712519 51.96145)
0964862e-607c-40a7-ade7-f38499c5cab6,,,G12b,PLACED,[ ],W,Goversweg,,,601031000.0,2024-12-01,Reimerswaal,GM0703,Kruiningen,,https://wegkenmerken.ndw.nu/api/images/65791204-ae5a-4642-888f-73ef71741db5,2016-12-12,2022-02-24,,,,4.0781069692723,51.437260485577,POINT (4.078107 51.43726)
096706ff-6d9f-43f7-9314-cc0c66b55dc0,,,G12b,PLACED,[ ],N,Rondweg,,,600552404.0,2024-03-01,Emmen,GM0114,Emmen,,https://wegkenmerken.ndw.nu/api/images/fc5100d3-e570-45b7-beef-f32933eca0ae,2018-02-21,2022-01-28,,,,6.9426221192649,52.777773775425,POINT (6.942622 52.777774)
096ae840-f7bd-4605-a469-663fcff470b0,,,G12b,PLACED,[ ],W,Pad door de Oude Haven,,,68179054.0,2024-03-01,Middelburg,GM0687,Middelburg,,https://wegkenmerken.ndw.nu/api/images/172b7c34-6f84-4020-bef5-7ed769cf7237,2016-07-04,2022-08-02,,,,3.646605182175,51.484603624525,POINT (3.646605 51.484604)
09983ac4-6f39-4d3f-81f2-6cabed140e22,,,G12b,PLACED,[ ],N,Fietspad,,,601194570.0,2024-04-01,Horst aan de Maas,GM1507,Grubbenvorst,,https://wegkenmerken.ndw.nu/api/images/49c459b1-8428-48d0-9951-b86b6b0e39e9,2021-11-17,2022-11-02,,,,6.1243324171976,51.422020797963,POINT (6.124332 51.422021)
09a0e530-682d-463e-abdb-1c2dfe85a2c2,,,G12b,PLACED,[ ],Z,Kanaalweg,,,600529308.0,2024-03-01,Sluis,GM1714,Retranchement,,https://wegkenmerken.ndw.nu/api/images/fc556ec3-9ed7-4e7f-9898-eb4386dbcea3,2016-07-01,2022-06-12,,,,3.3845401861904,51.337845907928,POINT (3.38454 51.337846)
09a1b339-91d5-44a6-a2e9-118794475471,,,G12b,PLACED,[ ],W,Milaanstraat,,,600515643.0,2024-03-01,Haarlemmermeer,GM0394,Lijnden,,https://wegkenmerken.ndw.nu/api/images/2fef0a97-7a2d-4879-a436-b7864b34025e,2016-07-08,2022-07-18,,,,4.7654855774193,52.350747789357,POINT (4.765486 52.350748)
09aac028-a9ff-4fbe-98dd-a82674a92ce2,,,G12b,PLACED,[ ],Z,Koningin Emmalaan,,,341359025.0,2024-03-01,Ermelo,GM0233,Ermelo,,https://wegkenmerken.ndw.nu/api/images/08070e78-2f45-4427-9c65-cceb650d551d,2016-08-19,2022-08-03,,,,5.6164614564817,52.304433213366,POINT (5.616461 52.304433)
09bfcb4e-b46a-4fc5-a67e-91766cf69dd5,,,G12b,PLACED,[ ],N,Fietspad 68,,,600937419.0,2024-03-01,Barendrecht,GM0489,Barendrecht,,https://wegkenmerken.ndw.nu/api/images/00b6570f-30e5-429c-950f-e6e6c455a331,2020-11-18,2022-11-14,,,,4.5281778963551,51.842630550776,POINT (4.528178 51.842631)
09d4d071-2e81-4b12-ad24-2b4f8a3b4f78,,,G12b,PLACED,[ ],W,Heemsteedsepad,,,600926950.0,2024-03-01,Houten,GM0321,Houten,,https://wegkenmerken.ndw.nu/api/images/d35ea00e-4cf0-4626-ba26-2def2ed05dc2,2016-02-26,2022-03-02,,,,5.1429471297087,52.024094020963,POINT (5.142947 52.024094)
09d89f02-adbe-48f2-9304-7ada62b63983,,,G12b,PLACED,[ ],W,Korteweegje,,,,,Goeree-Overflakkee,GM1924,Dirksland,,https://wegkenmerken.ndw.nu/api/images/50a4dc03-ed5b-44a6-bc16-93cc92d0f281,2016-08-31,2022-10-27,,,,4.1058523028448,51.748271876268,POINT (4.105852 51.748272)
09ebfb0c-72e4-46ca-8b23-08bfe49da1b9,,,G12b,PLACED,[ ],O,Herenweg,,,600687970.0,2024-03-01,De Fryske Marren,GM1940,Oosterzee,,https://wegkenmerken.ndw.nu/api/images/5a3c6ba2-7928-410d-b1fd-bb3f9d69a69a,2020-06-08,2022-06-20,,,,5.7465357725251,52.873423610752,POINT (5.746536 52.873424)
09ff4742-8f7e-417e-9dac-0a8c65a72d53,,,G12b,PLACED,[ ],N,Gedempte Hoofddiep,,,600423843.0,2024-03-01,De Wolden,GM1690,Kerkenveld,,https://wegkenmerken.ndw.nu/api/images/b71fc44f-7c95-419c-855f-8d90584c6952,2022-03-03,2022-03-03,,,,6.5031447650346,52.648241639806,POINT (6.503145 52.648242)
0a042be7-1a74-469e-abf6-28a94e4d9269,,,G12b,PLACED,[ ],N,Fietspad,,,600609500.0,2024-03-01,Peel en Maas,GM1894,Koningslust,,https://wegkenmerken.ndw.nu/api/images/97d1ad6b-2332-4311-b9e4-66c20644e3a2,2016-07-19,2022-08-11,,,,5.9732584176799,51.351512161945,POINT (5.973258 51.351512)
0a0a89bf-1a2b-49be-8f72-83080308317f,,,G12b,PLACED,[ ],W,Fietspad,,,600642540.0,2024-03-01,Meierijstad,GM1948,Veghel,,https://wegkenmerken.ndw.nu/api/images/2d46fc9c-7440-4761-85ec-e2db1616cf5f,2016-11-22,2022-05-30,,,,5.5252435555916,51.604812461374,POINT (5.525244 51.604812)
0a45a504-089d-404a-bb3a-9d681934bda5,,,G12b,PLACED,[ ],O,Buitenop,,,600581053.0,2024-03-01,Roermond,GM0957,Roermond,,https://wegkenmerken.ndw.nu/api/images/d2a98264-bcfe-45dc-bb18-2409c0137a72,2016-04-11,2022-05-18,,,,5.9836604957982,51.196318264127,POINT (5.98366 51.196318)
0a45c4da-e03d-4cb5-8ee8-106cab19f2a4,,,G12b,PLACED,[ ],Z,Fietspad,,,600631118.0,2024-03-01,Zwartewaterland,GM1896,Zwartsluis,,https://wegkenmerken.ndw.nu/api/images/06bc2a77-d662-4f00-845f-103c7e8d1460,2017-04-12,2022-05-02,,,,6.0453927736466,52.634766353257,POINT (6.045393 52.634766)
0a4aab94-8830-4d3d-b50e-51f897c359ce,,,G12b,PLACED,[ ],N,Oostweg,,,600494926.0,2024-03-01,Zoetermeer,GM0637,Zoetermeer,,https://wegkenmerken.ndw.nu/api/images/7d336713-b487-4b46-8cb7-a986b13f1306,2016-07-15,2022-07-20,,,,4.5277063871099,52.0599815188,POINT (4.527706 52.059982)
0a520ba2-0a67-4c37-bcd7-3baa06d6e7c1,,,G12b,PLACED,[ ],N,Zomerland,,,600806520.0,2024-03-01,Geldrop-Mierlo,GM1771,Geldrop,,https://wegkenmerken.ndw.nu/api/images/8977cf65-b9d2-429b-a88e-a5217f6041a1,2022-11-08,2022-11-08,,,,5.5370623287015,51.425843864903,POINT (5.537062 51.425844)
0a59c889-7d24-434b-9a05-0768fcba1e4f,,,G12b,PLACED,[ ],W,Ambachtweg,,,341168023.0,2024-03-01,Geldrop-Mierlo,GM1771,Mierlo,,https://wegkenmerken.ndw.nu/api/images/9618a1de-686c-4581-be77-b55dbc74f5b6,2016-10-09,2022-11-07,,,,5.617569703487,51.447000994288,POINT (5.61757 51.447001)
0a625138-48cf-40d8-b38d-c032febc27be,,,G12b,PLACED,[ ],O,Fietspad,,,600536800.0,2024-03-01,Almelo,GM0141,Almelo,,https://wegkenmerken.ndw.nu/api/images/8775e27f-ba9a-4d6e-9e41-877201c5fbfd,2016-10-21,2022-11-22,,,,6.6162027327724,52.362564164657,POINT (6.616203 52.362564)
0a65e848-6960-4607-b9b9-d0b061d9af9e,,,G12b,PLACED,[ ],Z,Fietspad,,,600622076.0,2024-03-01,De Ronde Venen,GM0736,Abcoude,,https://wegkenmerken.ndw.nu/api/images/bbc10559-b69a-4ca4-bcec-5f3c8ca3fd6a,2016-10-06,2022-10-06,,,,4.9555075858364,52.275503859283,POINT (4.955508 52.275504)
0a7417a7-2866-4a0d-bed1-faa8cc913a29,,,G12b,PLACED,[ ],W,Hoofdweg-Noord,,,600695130.0,2024-03-01,Zuidplas,GM1892,Nieuwerkerk aan den IJssel,,https://wegkenmerken.ndw.nu/api/images/048f511f-2174-4967-81d1-7978526fd0ab,2016-07-08,2022-08-09,,,,4.5950235784942,51.965158765063,POINT (4.595024 51.965159)
0a75be21-8ce7-41b0-b82e-1af370f1534e,,,G12b,PLACED,[ ],O,Ljouwerterdyk,,,600667920.0,2024-03-01,Noardeast-Fryslân,GM1970,Ferwert,,https://wegkenmerken.ndw.nu/api/images/9faff220-63f3-4131-a2bd-a2ad4d6d7915,2017-08-23,2022-03-24,,,,5.8225541394072,53.339879757755,POINT (5.822554 53.33988)
0a799ac3-8051-4068-9126-510d112460a4,,,G12b,PLACED,[ ],W,Dieverbrug,,,600942545.0,2024-03-01,Westerveld,GM1701,Diever,,https://wegkenmerken.ndw.nu/api/images/dc563077-60b3-4353-b7e9-162bc16fce86,2016-03-22,2022-05-25,,,,6.3259880412568,52.851628731081,POINT (6.325988 52.851629)
0a7b08a3-abdc-419e-b6af-6978923cfb88,,,G12b,PLACED,[ ],O,Googweg,,,600501669.0,2024-03-01,Gooise Meren,GM1942,Muiderberg,,https://wegkenmerken.ndw.nu/api/images/9cdd844e-9632-46e5-a059-e4d6daa810ff,2016-07-14,2022-06-23,,,,5.1120500109934,52.325845237749,POINT (5.11205 52.325845)
0a7bd769-2d56-47f0-85d2-d871b5591bb5,,,G12b,PLACED,[ ],O,Kamperzand,,,341440037.0,2024-03-01,Urk,GM0184,Urk,,https://wegkenmerken.ndw.nu/api/images/523ed54f-03c6-4fe3-8ee3-04ebbdcebbc8,2016-06-03,2022-07-12,,,,5.6180359938764,52.669631146721,POINT (5.618036 52.669631)
0aa688e2-39cd-4707-97a0-2628de724895,,,G12b,PLACED,[ ],Z,Strengenpad,,,467520001.0,2024-03-01,Assen,GM0106,Assen,,https://wegkenmerken.ndw.nu/api/images/e3bc91a5-16b5-4370-9259-90a3a2df40df,2020-06-23,2022-07-11,,,,6.5603907163805,53.021137706104,POINT (6.560391 53.021138)
0aaf108f-3b9f-4a31-bc4c-db20c31c5632,,,G12b,PLACED,[ ],O,Goorsestraat,,,600877910.0,2024-03-01,Haaksbergen,GM0158,Haaksbergen,,https://wegkenmerken.ndw.nu/api/images/b1ee4245-e5e0-44a4-8789-a65da7fd149c,2016-08-24,2022-06-29,,,,6.7003461836999,52.177231904786,POINT (6.700346 52.177232)
0ab1afdb-4574-4562-9204-9eb73709ca0e,,,G12b,PLACED,[ ],W,Fietspad,,,600674500.0,2024-03-01,Hengelo (O),GM0164,Hengelo,,https://wegkenmerken.ndw.nu/api/images/43e40fe9-f841-421b-a87c-1e002cb2a7e9,2018-05-21,2022-04-24,,,,6.7628917536765,52.247347065924,POINT (6.762892 52.247347)
0ab70bd4-04c5-46fe-a0fc-7523792919c7,,,G12b,PLACED,[ ],W,Munnekenweg,,,600593095.0,2024-03-01,De Wolden,GM1690,Ruinen,,https://wegkenmerken.ndw.nu/api/images/0c7eceb7-e6c0-4320-b2ea-2aeaff5f9f25,2020-02-20,2022-02-28,,,,6.370828117834,52.766646217627,POINT (6.370828 52.766646)
0ab8c3d0-f9fc-4fd0-b365-a9a515a2d0bc,,,G12b,PLACED,[ ],O,Rondweg Sluiskil,,,600586083.0,2024-03-01,Terneuzen,GM0715,Sluiskil,,,2022-11-21,2022-11-21,,,,3.8285120939252,51.283825784924,POINT (3.828512 51.283826)
0ac52416-d305-4daf-a8fa-4a6d9cf673d9,,,G12b,PLACED,[ ],Z,Bredaseweg,,,600485598.0,2024-03-01,Etten-Leur,GM0777,Etten-Leur,,https://wegkenmerken.ndw.nu/api/images/d849b4b7-f8ed-401a-96d8-8cc0ea54ead5,2021-10-14,2022-09-07,,,,4.6679295514696,51.572743200026,POINT (4.66793 51.572743)
0ad8be47-11fc-4f20-aa78-078c3293d903,,,G12b,PLACED,[ ],O,Lange Schenkeldijk,,,600719620.0,,Nissewaard,GM1930,Spijkenisse,,https://wegkenmerken.ndw.nu/api/images/759827e5-af50-438f-8c90-af1f3f0e5682,2020-06-16,2022-06-17,,,,4.3511461888072,51.842015776016,POINT (4.351146 51.842016)
0af8ad67-d211-49ae-85f0-6b28af577015,9867,2025-09-24,G12b,PLACED,[ ],N,Valderend,,,600489519.0,2025-09-01,Peel en Maas,GM1894,Maasbree,,,2025-09-24,2025-09-24,2025-09-24,,,6.0573825260671725,51.356238359090234,POINT (6.057383 51.356238)
0affedc5-a319-421f-9bb4-ec266b8163a7,,,G12b,PLACED,[ ],O,Waterhuizerweg,,,476553041.0,2024-03-01,Groningen,GM0014,Haren Gn,,https://wegkenmerken.ndw.nu/api/images/516cd8c7-6537-48a0-8cbe-8c5dfefb7022,2016-06-03,2022-09-21,,,,6.637480920033,53.173555129006,POINT (6.637481 53.173555)
0b0f21ae-1ad4-4f55-8cf2-1f272ad45b76,,,G12b,PLACED,[ ],O,Stationsweg Oost,,,601075151.0,2024-03-01,Woudenberg,GM0351,Woudenberg,,https://wegkenmerken.ndw.nu/api/images/649b5eab-c027-4bbb-88c7-b284db65c547,2020-11-07,2022-11-02,,,,5.4390855104924,52.078911397362,POINT (5.439086 52.078911)
0b21f45f-07f0-4cb8-8cb7-c9d73ad8c5f4,,,G12b,PLACED,[ ],W,Sonseweg,,,601303667.0,2025-02-01,Best,GM0753,Best,,https://wegkenmerken.ndw.nu/api/images/2839f832-17f7-4373-8d17-eecc57a061aa,2016-12-05,2022-02-15,,,,5.4186211501571,51.515794273169,POINT (5.418621 51.515794)
0b573be7-34d0-4f78-9673-3bbc5eb60e0b,,,G12b,PLACED,[ ],Z,Vogelpark,,,,,Zutphen,GM0301,Zutphen,,https://wegkenmerken.ndw.nu/api/images/db77fae0-0924-4b8c-ac55-71c8fa43fd06,2016-09-15,2022-06-25,,,,6.2004627690939,52.143887016916,POINT (6.200463 52.143887)
0b61904f-b691-4006-b632-6517e57d197f,,,G12b,PLACED,[ ],N,Joute van der Meerweg,,,600635465.0,2024-03-01,Tytsjerksteradiel,GM0737,Sumar,,https://wegkenmerken.ndw.nu/api/images/c9e73bbd-15e5-4b68-95bd-e3f3f703ab95,2018-07-04,2022-07-13,,,,6.0078522319022,53.164607048144,POINT (6.007852 53.164607)
0b64665c-a93b-42fc-8956-bb81452b529b,,,G12b,PLACED,"[ { ""type"": ""UIT"", ""text"": ""uitgezonderd aanwonenden"" } ]",N,Indijkweg,,,255350002.0,2024-03-01,De Ronde Venen,GM0736,Baambrugge,,https://wegkenmerken.ndw.nu/api/images/fbd11e5f-74d0-45e6-8ac6-18695841971a,2016-10-06,2023-12-04,,,,4.9906106085199,52.263746103826,POINT (4.990611 52.263746)
0b66079c-3fe2-4a5c-8211-bacf677b4392,,,G12b,PLACED,[ ],Z,Fietspad,,,600587547.0,2024-03-01,Meierijstad,GM1948,Veghel,,https://wegkenmerken.ndw.nu/api/images/56e243f8-cc80-437b-b582-ddcb63a3219e,2016-11-23,2022-05-31,,,,5.5409747331947,51.62640882565,POINT (5.540975 51.626409)
0b68f558-1cf9-42c7-8ba4-ef75186636dd,,,G12b,PLACED,[ ],N,Fietspad,,,600692736.0,2024-03-01,Soest,GM0342,Soesterberg,,https://wegkenmerken.ndw.nu/api/images/963d6ba8-bef6-48c6-897b-089598540c25,2018-02-13,2022-10-04,,,,5.2828229818744,52.112348985923,POINT (5.282823 52.112349)
0b6a2564-c7d0-494a-8068-e9a1e31d99d6,,,G12b,PLACED,[ ],N,Arendstraat,,,600497973.0,2024-03-01,Boekel,GM0755,Boekel,,https://wegkenmerken.ndw.nu/api/images/04154667-7690-4924-a1ce-df5d10296da5,2016-05-10,2022-04-23,,,,5.6861575494123,51.60021605825,POINT (5.686158 51.600216)
0b8bb922-39c8-437e-92df-6349031d9e2e,,,G12b,PLACED,[ ],W,Jaagweg,,,600538082.0,2024-03-01,Koggenland,GM1598,Avenhorn,,https://wegkenmerken.ndw.nu/api/images/e5a54574-50fb-4c61-9358-310871ff2181,2016-09-26,2022-10-09,,,,4.9594756806389,52.618126931044,POINT (4.959476 52.618127)
0bb2e420-6c2f-4a81-9d0a-e0e58c7d91ed,,,G12b,PLACED,[ ],O,Wijngaardstraat,,,400409084.0,2024-03-01,Zwolle,GM0193,Zwolle,,https://wegkenmerken.ndw.nu/api/images/f3f2cbbc-17df-4c35-b169-735aa463d0a3,2020-01-26,2022-02-17,,,,6.053068545815,52.528096034407,POINT (6.053069 52.528096)
0bb4498c-865f-4ed7-8469-aa5119b47f20,,,G12b,PLACED,[ ],N,Hoofdstraat,,,601052488.0,2024-03-01,Gennep,GM0907,Heijen,,https://wegkenmerken.ndw.nu/api/images/5f035aef-ce92-4547-871f-ad24445fd9fa,2020-09-05,2022-08-08,,,,5.9810502298709,51.668961900513,POINT (5.98105 51.668962)
0bb6c5a7-130a-4286-908e-351a42ab3139,,2024-09-10,G12b,PLACED,[ ],ONO,Mercuriuspad,,,168292192.0,2024-09-01,Delft,GM0503,Delft,,,2024-09-10,2024-09-10,2024-09-10,,,4.358824092069824,52.00037550601502,POINT (4.358824 52.000376)
0bb6f662-f982-4f09-b6e3-f5206ef10b61,,,G12b,PLACED,[ ],Z,Biesbosch,,,600533688.0,2024-03-01,Zwolle,GM0193,Zwolle,,https://wegkenmerken.ndw.nu/api/images/01b683e0-f529-42d2-a299-e90463d2bf07,2016-04-11,2022-02-24,,,,6.1071614236508,52.528323493225,POINT (6.107161 52.528323)
0bd101fc-dc88-45a7-8a67-ac5870410c12,,,G12b,PLACED,[ ],W,Meerleseweg,,,600758139.0,2024-03-01,Baarle-Nassau,GM0744,Ulicoten,,https://wegkenmerken.ndw.nu/api/images/9f050f34-b56b-4768-86af-ed598b6f5b31,2017-01-11,2022-01-20,,,,4.8517990612209,51.459166163492,POINT (4.851799 51.459166)
0bf0e828-2c82-472f-afbb-00eed921b193,,,G12b,PLACED,[ ],W,Napoleonbaan Noord,,,600933665.0,2024-03-01,Sittard-Geleen,GM1883,Geleen,,https://wegkenmerken.ndw.nu/api/images/33a6cfb9-0349-4ec6-802d-3a1097688a5f,2021-09-02,2022-09-13,,,,5.8256511331502,50.983614927434,POINT (5.825651 50.983615)
0bf49ef4-98cb-4e6e-b990-f52581c7cda5,,,G12b,PLACED,[ ],O,Wisentweg,,,600814537.0,2024-03-01,Dronten,GM0303,Dronten,,https://wegkenmerken.ndw.nu/api/images/3292dff8-c32b-4af5-81f2-a88386e24a58,2016-02-24,2022-02-24,,,,5.6343370210075,52.524727136023,POINT (5.634337 52.524727)
0bf63279-2459-40e2-a67b-d9a778403022,,,G12b,PLACED,[ ],W,Lamsoor,,,,,Groningen,GM0014,Groningen,,https://wegkenmerken.ndw.nu/api/images/68ff680a-a21b-4ce6-ad55-8d29a9107eae,2016-10-20,2022-08-31,,,,6.5748251944462,53.247284728924,POINT (6.574825 53.247285)
0c071363-d7ef-4d6f-b566-3ed9228acc56,,,G12b,PLACED,[ ],W,Einsteinlaan,,,226367045.0,2024-11-01,Haarlemmermeer,GM0394,Badhoevedorp,,https://wegkenmerken.ndw.nu/api/images/7527e584-529a-4313-a880-fb05936c5f57,2021-07-28,2024-11-26,,,,4.774398976362249,52.34240252941038,POINT (4.774399 52.342403)
0c0ea392-55a0-48a8-905f-47788b7780fa,,,G12b,PLACED,[ ],W,Fietspad,,,600531731.0,2024-03-01,Roermond,GM0957,Roermond,,https://wegkenmerken.ndw.nu/api/images/69d60559-df14-4fad-9b20-f9a7da30c76b,2021-05-20,2022-05-23,,,,6.0690012921671,51.19942947268,POINT (6.069001 51.199429)
0c3cad08-1817-4b92-aabb-065c74f467a8,,,G12b,PLACED,[ ],Z,Ameliaweg,,,600641110.0,2024-03-01,Terneuzen,GM0715,Westdorpe,,https://wegkenmerken.ndw.nu/api/images/32d36b87-3870-49f1-95a6-d829aa2ca952,2017-11-07,2022-11-15,,,,3.8565036566918,51.251254811298,POINT (3.856504 51.251255)
0c5136fa-28c3-4fe8-bd0a-13d3d7c815fd,,,G12b,PLACED,[ ],Z,Zwolseweg,,,440425002.0,2024-03-01,Hardenberg,GM0160,Balkbrug,,https://wegkenmerken.ndw.nu/api/images/ea4d2e9e-dec4-49c0-b04c-5bcb7940d9dc,2022-08-26,2022-08-26,,,,6.3537299688505,52.596211546717,POINT (6.35373 52.596212)
0c5a6930-fefa-4abc-9744-38713907eeed,,,G12b,PLACED,[ ],Z,Hoofdweg,,,600639117.0,2024-03-01,Capelle aan den IJssel,GM0502,Capelle aan den IJssel,,https://wegkenmerken.ndw.nu/api/images/3e825e4b-706e-444f-9084-2dd0ecd035d0,2022-02-10,2022-02-10,,,,4.5758447703625,51.95599393129,POINT (4.575845 51.955994)
0c5ec8fc-3241-4a2d-8df8-6297f24de970,,,G12b,PLACED,[ ],W,Zijdeweg,,,600641306.0,2024-03-01,Wassenaar,GM0629,Wassenaar,,https://wegkenmerken.ndw.nu/api/images/14ea704f-fd0e-49d5-bb31-aa70b36c5a7d,2016-11-24,2022-11-16,,,,4.3583739361112,52.106137380004,POINT (4.358374 52.106137)
0c639897-9f9b-4975-95e9-218e44a848ad,,,G12b,PLACED,[ ],O,Zuid-Om,,,600407185.0,2024-03-01,Gemert-Bakel,GM1652,Gemert,,https://wegkenmerken.ndw.nu/api/images/f82364de-427e-43b6-8ef5-5e3debc5b3c8,2020-03-30,2022-04-11,,,,5.693917024363,51.547688840911,POINT (5.693917 51.547689)
0c6fb7a5-04ab-4637-9347-0c3877f59108,,,G12b,PLACED,[ ],W,De Bolder,,,600551612.0,2024-03-01,Smallingerland,GM0090,Drachten,,https://wegkenmerken.ndw.nu/api/images/d3d6aff5-2c7d-4964-80f9-36c3446c6953,2016-04-28,2022-04-15,,,,6.077905107439,53.117929599978,POINT (6.077905 53.11793)
0c74a592-ff33-4c81-a663-3692b0a93e30,,,G12b,PLACED,[ ],Z,Frederik Hendriklaan,,,,,Vlaardingen,GM0622,Vlaardingen,,https://wegkenmerken.ndw.nu/api/images/f501cc76-0d84-4786-9274-5f4a42802594,2016-03-30,2022-07-12,,,,4.3475562896583,51.929086776565,POINT (4.347556 51.929087)
0c751acc-74ad-4248-8f1b-4222aa3f38b7,,,G12b,PLACED,[ ],W,Zuid Esmarkerrondweg,,,600525634.0,2024-03-01,Enschede,GM0153,Enschede,,https://wegkenmerken.ndw.nu/api/images/2e2af414-c858-4fdc-8c68-9b46ac004af3,2022-10-26,2022-10-26,,,,6.9258244002384,52.214377821435,POINT (6.925824 52.214378)
0c91bad2-54a4-4bad-ab57-174ffa426880,,,G12b,PLACED,[ ],Z,Kangoeroepad,,,600997495.0,2024-03-01,Zoetermeer,GM0637,Zoetermeer,,https://wegkenmerken.ndw.nu/api/images/767403c2-1df7-483a-a5e5-d735f37c9ac8,2016-07-11,2022-08-04,,,,4.5052572771413,52.061219052801,POINT (4.505257 52.061219)
0c9a3315-990a-4ccf-81cd-38bc8b8c447b,,,G12b,PLACED,[ ],N,Exa,,,600941328.0,2024-03-01,Zevenaar,GM0299,Zevenaar,,https://wegkenmerken.ndw.nu/api/images/02162e44-13cb-44fe-ab02-51ca44270670,2021-04-02,2022-03-15,,,,6.1063713951696,51.921149341672,POINT (6.106371 51.921149)
0ca062f9-b951-499b-827c-744329532d53,,,G12b,PLACED,[ ],Z,Energieweg,,,600501326.0,2024-03-01,Nijmegen,GM0268,Nijmegen,,https://wegkenmerken.ndw.nu/api/images/5fd471cd-5a6c-4b7d-8d59-f12e3abdb7f3,2022-09-01,2022-09-01,,,,5.829803721909,51.849295253775,POINT (5.829804 51.849295)
0ca32306-7c98-47fc-bcac-3bbe960327da,,,G12b,PLACED,[ ],Z,Grotestraat,,,600561906.0,2024-03-01,Peel en Maas,GM1894,Baarlo,,https://wegkenmerken.ndw.nu/api/images/7292bcbb-b808-4052-b0ab-cc155eaf20fe,2022-08-04,2022-08-04,,,,6.0918393578966,51.331245979325,POINT (6.091839 51.331246)
0cb0cf9c-50e4-40c2-b521-b2cf20150399,,,G12b,PLACED,[ ],W,Meedenpad,,,600919021.0,2024-03-01,Groningen,GM0014,Groningen,,https://wegkenmerken.ndw.nu/api/images/f6dd9920-aef4-4a3f-8ed6-4fc6be41f56d,2016-10-25,2022-09-12,,,,6.5870956126646,53.237723919632,POINT (6.587096 53.237724)
0cc52be7-7425-4a34-b527-3d1ec6a30147,,2025-07-09,G12b,PLACED,[ ],ONO,Fietspad,,,600520112.0,2025-07-01,Wijchen,GM0296,Wijchen,,https://wegkenmerken.ndw.nu/api/images/51099a7e-c2c5-4ed2-84e6-69a2d8535a93,2020-04-10,2025-07-09,,,,5.7063261129123,51.801597237587,POINT (5.706326 51.801597)
0cc6885e-20ad-432e-8942-5d74813c9d65,10120,2025-09-24,G12b,PLACED,[ ],N,Maaseikerweg,,,600589105.0,2025-09-01,Echt-Susteren,GM1711,Roosteren,,,2025-09-24,2025-09-24,2025-09-24,,,5.818223731439528,51.08100242186245,POINT (5.818224 51.081002)
0cd67aae-f912-48dd-ba6d-683efd5f9dc3,,,G12b,PLACED,[ ],Z,Gaddijk,,,167254034.0,2024-03-01,Nissewaard,GM1930,Spijkenisse,,https://wegkenmerken.ndw.nu/api/images/e2f92880-b07e-4608-84b3-7411538b125d,2016-04-22,2022-06-28,,,,4.3524830645248,51.83016591974,POINT (4.352483 51.830166)
0cdab43a-0ef7-4476-80e3-fbe544ab793d,,,G12b,PLACED,[ ],W,Crommelinplein,,,168293112.0,2024-03-01,Delft,GM0503,Delft,,https://wegkenmerken.ndw.nu/api/images/44b21a3c-34b9-48b4-971f-37f163e6b382,2021-06-28,2022-07-06,,,,4.3593977550069,52.003896405226,POINT (4.359398 52.003896)
0cebf96d-9284-4c28-b5e6-e3eb4bd53508,,,G12b,PLACED,[ ],W,Pieter Zeemanweg,,,,,Dordrecht,GM0505,Dordrecht,,https://wegkenmerken.ndw.nu/api/images/53103bd9-d6fa-4b7d-a92c-76df7ba19ac3,2016-02-19,2022-04-12,,,,4.6433915691223,51.776634554655,POINT (4.643392 51.776635)
0cec1beb-23a5-4336-8f26-b53563080936,,,G12b,PLACED,[ ],W,Fietspad,,,600703274.0,2023-04-01,Dronten,GM0303,Dronten,,https://wegkenmerken.ndw.nu/api/images/fa22de7d-73e0-47cb-ae6c-7131cc3de73e,2018-02-19,2022-02-24,,,,5.7102140378529,52.527391475163,POINT (5.710214 52.527391)
0cf2ce49-b906-4537-b40f-bd15ee95a411,,,G12b,PLACED,[ ],N,De Singel,,,406538036.0,2024-03-01,Smallingerland,GM0090,Drachten,,https://wegkenmerken.ndw.nu/api/images/20c49f19-bb18-455e-92db-d3fecef55601,2020-04-24,2022-04-21,,,,6.1062864934912,53.106250910534,POINT (6.106286 53.106251)
0d1350e7-29e1-45b5-8580-976c43ff59dd,4844,2025-09-24,G12b,PLACED,[ ],N,Napoleonsweg,,,600516164.0,2025-09-01,Leudal,GM1640,Horn,,,2025-09-24,2025-09-24,2025-09-24,,,5.927294706114541,51.21646498441267,POINT (5.927295 51.216465)
0d1f5870-4d1d-46cb-8d8f-3ea61b94ce93,,,G12b,PLACED,[ ],N,Selhorstpad,,,600854286.0,2024-03-01,Zwolle,GM0193,Zwolle,,https://wegkenmerken.ndw.nu/api/images/46bf1b79-7710-443f-b629-a9c5f8ae20f5,2022-02-24,2022-02-24,,,,6.1417006647824,52.506672253011,POINT (6.141701 52.506672)
0d27170f-925e-4831-9bf2-31e616d3b398,,,G12b,PLACED,[ ],N,Fietspad,,,600537298.0,2024-03-01,Amsterdam,GM0363,Amsterdam,,https://wegkenmerken.ndw.nu/api/images/882784c1-f1c7-4891-89ee-c78777835fab,2016-09-12,2022-05-31,,,,4.9779883073617,52.301005526018,POINT (4.977988 52.301006)
0d3a4539-ebae-4032-a88d-ee97120894e0,,,G12b,PLACED,[ ],W,Witveldweg,,,600487802.0,2024-03-01,Horst aan de Maas,GM1507,Horst,,https://wegkenmerken.ndw.nu/api/images/e04f6933-3bff-4cf7-bb51-0abf68f5be90,2016-12-08,2022-03-11,,,,6.0812671609642,51.442155675573,POINT (6.081267 51.442156)
0d3dc3ec-3623-48ef-b674-ad6c86075de2,,,G12b,PLACED,[ ],O,Fietspad,,,600514518.0,2024-03-01,Midden-Groningen,GM1952,Kolham,,https://wegkenmerken.ndw.nu/api/images/84c5a773-70ae-4726-83e7-c29d63566ca7,2016-09-23,2022-05-18,,,,6.7285606565163,53.171970361742,POINT (6.728561 53.17197)
0d453ff5-2ebb-4cb5-8071-455116c7a9ca,,,G12b,PLACED,[ ],Z,Albergerweg,,,600641240.0,2024-03-01,Borne,GM0147,Zenderen,,https://wegkenmerken.ndw.nu/api/images/a2292a23-c750-485e-b803-4e3e90a2061c,2017-01-05,2021-12-22,,,,6.7238002598676,52.325578932137,POINT (6.7238 52.325579)
0d593ec4-3f2c-47f5-bd96-805229b0cefd,,,G12b,PLACED,[ ],Z,Hoge Rijndijk,,,600975649.0,2024-03-01,Leiden,GM0546,Leiden,,https://wegkenmerken.ndw.nu/api/images/5be3f3dc-f6a7-441b-a83f-0d468b61a66e,2016-03-22,2022-03-24,,,,4.5143744569453,52.154695032764,POINT (4.514374 52.154695)
0d5cb9ce-8498-41f6-85dd-92401012e8d1,,,G12b,PLACED,[ ],N,Dalmsholterweg,,,600692823.0,2024-03-01,Dalfsen,GM0148,Dalfsen,,https://wegkenmerken.ndw.nu/api/images/7dc7f43d-de97-45f4-8fe3-bbdee91d6421,2016-05-02,2022-04-22,,,,6.2904295987259,52.495557706434,POINT (6.29043 52.495558)
0d626abe-8ea1-4d9b-afba-f49f61b9f161,,,G12b,PLACED,[ ],Z,Fietspad,,,600693095.0,2024-03-01,Weert,GM0988,Weert,,https://wegkenmerken.ndw.nu/api/images/23757284-50a2-4de5-9aab-a1df90774c37,2016-08-25,2022-07-13,,,,5.7125401058921,51.267548677466,POINT (5.71254 51.267549)
0d634d25-2327-49d6-9797-dc9e868daafe,,,G12b,PLACED,[ ],N,Nieuwveenseweg,,,600695140.0,2024-03-01,Nieuwkoop,GM0569,Nieuwkoop,,https://wegkenmerken.ndw.nu/api/images/577d91ad-5cac-481f-bcac-69980523ebd6,2016-10-17,2022-10-07,,,,4.7820431202009,52.156243058251,POINT (4.782043 52.156243)
0d6e2e61-c7a1-4581-805d-9c87cfb35a95,TECH-GM0439-000278,,G12b,PLACED,[ ],Z,Westerweg,,,600769237.0,2025-09-01,Purmerend,GM0439,Purmerend,,https://wegkenmerken.ndw.nu/api/images/fba4ccfa-cf1b-419f-8a5c-d40725ff5684,2016-01-26,2025-10-03,,,,5.002689230393886,52.5135815607436,POINT (5.002689 52.513582)
0d743616-5519-4efa-b0ad-2270c65ea56a,,,G12b,PLACED,[ ],N,Maas-Waalweg,,,601179339.0,2024-03-01,Zaltbommel,GM0297,Zuilichem,,https://wegkenmerken.ndw.nu/api/images/625676b2-a2b3-4782-a414-1028f1e52004,2017-01-02,2021-12-21,,,,5.1351637783025,51.806848444882,POINT (5.135164 51.806848)
0d996715-9af1-4c25-bac7-b07f83885a46,,,G12b,PLACED,[ ],N,Ringbaan-West,,,600772624.0,2024-03-01,Tilburg,GM0855,Tilburg,,https://wegkenmerken.ndw.nu/api/images/979ed75a-e7fa-4419-a6f6-4141b0182007,2018-06-07,2022-06-13,,,,5.0659844409819,51.566520428047,POINT (5.065984 51.56652)
0d9b6867-0044-4507-8d8e-a43db50c9e38,,,G12b,PLACED,[ ],O,Verdistraat,,,317204010.0,2024-03-01,Meierijstad,GM1948,Schijndel,,https://wegkenmerken.ndw.nu/api/images/a6233c24-d506-44a6-ae81-b5f3fa290049,2016-12-08,2022-05-20,,,,5.4415229202226,51.611139902375,POINT (5.441523 51.61114)
0d9bdb67-8ee0-4d3f-af61-d73f5b4474a2,,,G12b,PLACED,[ ],W,Staatsspoor,,,600780979.0,2024-03-01,Houten,GM0321,Houten,,https://wegkenmerken.ndw.nu/api/images/5d7a45fe-9496-49a1-92b1-44d59e9d7a80,2016-03-02,2022-03-04,,,,5.1802565294768,52.022273980272,POINT (5.180257 52.022274)
0da3b993-2adf-4056-b6dd-4ff1d74b1e30,,,G12b,PLACED,[ ],Z,Lievelderweg,,,600645294.0,2024-03-01,Oost Gelre,GM1586,Lichtenvoorde,,https://wegkenmerken.ndw.nu/api/images/761452e0-3517-4643-bbb7-93b34696c410,2016-01-29,2022-03-12,,,,6.5837259579632,51.996661989911,POINT (6.583726 51.996662)
0dabf48b-e69f-40c6-8daf-29291cbb2c03,,,G12b,PLACED,[ ],Z,Delftpad,,,600904167.0,2024-03-01,Haarlem,GM0392,Haarlem,,https://wegkenmerken.ndw.nu/api/images/e6b32e60-b5f1-47d8-ac07-7b0502cc4027,2016-09-08,2022-09-28,,,,4.6336618332114,52.406991030615,POINT (4.633662 52.406991)
0db4892c-ce94-495f-99a8-cf95e2fac55b,,,G12b,PLACED,[ ],Z,Heierhoevenweg,,,600429181.0,2024-03-01,Venlo,GM0983,Venlo,,https://wegkenmerken.ndw.nu/api/images/1e0b8fb5-a503-4cae-8b05-6896b158ff55,2018-01-24,2022-02-11,,,,6.1073924258923,51.409300619124,POINT (6.107392 51.409301)
0dc14e48-2009-4e0a-8d2e-665ce879a05a,2260_2665,,G12b,PLACED,[ ],NO,Frederik van Eedenlaan,,,288280103.0,2025-08-01,Culemborg,GM0216,Culemborg,,https://wegkenmerken.ndw.nu/api/images/6b74807b-bd27-476a-97bb-2029b981c5a9,2016-07-14,2025-08-13,,,,5.229734812835619,51.94920659484286,POINT (5.229735 51.949207)
0dd9d23f-beb6-440e-bd1d-12a1104969d0,,,G12b,PLACED,[ ],Z,Javastraat,,,600775213.0,2024-03-01,Tilburg,GM0855,Tilburg,,https://wegkenmerken.ndw.nu/api/images/dba65aa4-c2ac-4fb7-a9f8-bc38e52793fb,2016-07-13,2022-06-20,,,,5.0999810995719,51.565697569691,POINT (5.099981 51.565698)
0ddeda94-cf95-4e4e-8de4-ed49e082dd3e,,,G12b,PLACED,[ ],N,Fietspad,,,600688961.0,2024-03-01,Haarlemmermeer,GM0394,Hoofddorp,,https://wegkenmerken.ndw.nu/api/images/697236a5-32e0-4909-a583-64faf8612cf3,2020-07-22,2022-07-25,,,,4.6551753672552,52.324686156489,POINT (4.655175 52.324686)
0df24754-d1c3-43c9-ae3f-34d9de33b070,,,G12b,PLACED,[ ],W,Den Elterweg,,,600561427.0,2024-03-01,Zutphen,GM0301,Zutphen,,https://wegkenmerken.ndw.nu/api/images/3e76da07-b756-4761-b28f-a7c24722cfc8,2016-09-14,2022-06-25,,,,6.2147015175952,52.15118344357,POINT (6.214702 52.151183)
0df767c9-ef40-4a6f-8705-99436b3a22df,,,G12b,PLACED,[ ],N,Heerenhoogweg,,,600534631.0,2024-03-01,De Fryske Marren,GM1940,Wijckel,,https://wegkenmerken.ndw.nu/api/images/10b7f06b-3cd8-487d-8345-2d427e473b75,2016-07-15,2022-06-22,,,,5.6196130470145,52.887336163667,POINT (5.619613 52.887336)
0dfe5f5b-8b85-4c6f-998d-e7faa3dc52a5,,,G12b,PLACED,[ ],O,Oude Weerseloseweg,,,600886191.0,2024-03-01,Oldenzaal,GM0173,Oldenzaal,,https://wegkenmerken.ndw.nu/api/images/f8735166-9386-4635-8b90-8a1f22281f6f,2016-08-25,2022-06-08,,,,6.9025920080156,52.323671758734,POINT (6.902592 52.323672)
0e03db95-3d1c-4647-94d5-345e35384951,,,G12b,PLACED,[ ],W,Fietspad,,,601369626.0,2025-09-01,Maasdriel,GM0263,Heerewaarden,,https://wegkenmerken.ndw.nu/api/images/dd587921-c8ee-4698-a309-a0b41a81f64e,2018-01-05,2022-01-07,,,,5.3806207753647,51.810794796985,POINT (5.380621 51.810795)
0e051210-ac81-46fb-97e6-d045765077ed,,,G12b,PLACED,[ ],O,Fietspad,,,600598592.0,2024-03-01,Westland,GM1783,Kwintsheul,,https://wegkenmerken.ndw.nu/api/images/0c92bfc0-e475-42db-93be-e3c1971baec6,2016-01-18,2022-03-29,,,,4.2801831638713,52.003134565799,POINT (4.280183 52.003135)
0e0639ce-e9cf-4cc6-9bed-b5c36bf8e807,,,G12b,PLACED,[ ],W,Harlingerstraatweg,,,600689717.0,2024-03-01,Leeuwarden,GM0080,Leeuwarden,,https://wegkenmerken.ndw.nu/api/images/c932610e-87fa-4fe2-ab77-edf51f37ee06,2020-11-25,2022-11-22,,,,5.7753094450652,53.205214628206,POINT (5.775309 53.205215)
0e07c4ae-5aa1-4d6e-a28c-f6ae40711dfa,,,G12b,PLACED,[ ],W,Parallelweg,,,600904139.0,2024-03-01,Duiven,GM0226,Duiven,,https://wegkenmerken.ndw.nu/api/images/87eb6b54-12ce-48ee-a5bd-82bc9bf46aa4,2018-10-17,2022-03-09,,,,6.0142774372896,51.943362000957,POINT (6.014277 51.943362)
0e07e500-bfca-468e-83f9-1a1e839d0f71,,,G12b,PLACED,[ ],O,Maasdijk,,,600213469.0,2024-03-01,Westland,GM1783,'s-Gravenzande,,https://wegkenmerken.ndw.nu/api/images/26638c50-9ada-493c-8c2e-6e84d4cbd38a,2015-12-09,2022-02-01,,,,4.1615521793186,51.98793925161,POINT (4.161552 51.987939)
0e13f7d3-1070-4bf9-b4d7-739cada0bb0e,,,G12b,PLACED,[ ],Z,Burgemeester van Nispenstraat,,,600815422.0,2024-03-01,Laarbeek,GM1659,Beek en Donk,,https://wegkenmerken.ndw.nu/api/images/839c0e0a-34dc-460b-9639-9e511cbe41ce,2020-10-15,2022-09-20,,,,5.6415621042211,51.52893799762,POINT (5.641562 51.528938)
0e2a2de1-c299-4f1c-8db6-9118502e2208,,,G12b,PLACED,[ ],Z,Kanaaldijk WZ,,,600902378.0,2024-03-01,Raalte,GM0177,Raalte,,https://wegkenmerken.ndw.nu/api/images/998166e6-5afe-479b-8710-55fd0d8006b8,2016-07-26,2022-07-25,,,,6.2772491977251,52.371424176656,POINT (6.277249 52.371424)
0e2fd970-e0b9-4a89-bad2-fb7c2556ed3d,,,G12b,PLACED,[ ],Z,Spaarneweg,,,207365008.0,2024-03-01,Haarlemmermeer,GM0394,Cruquius,,https://wegkenmerken.ndw.nu/api/images/25991c34-b6c3-412c-b95c-bd8de2883399,2016-07-28,2022-07-26,,,,4.6333032231208,52.332388818499,POINT (4.633303 52.332389)
0e3a264d-dd91-457d-8c57-cab06815242c,,,G12b,PLACED,[ ],N,Meester Nelissenstraat,,,601438645.0,2025-09-01,Berkelland,GM1859,Beltrum,,https://wegkenmerken.ndw.nu/api/images/3b632392-76d1-43de-8114-534080257075,2018-01-06,2022-03-06,,,,6.5672582313037,52.063459007387,POINT (6.567258 52.063459)
0e3f9084-13bd-403e-a97c-09fe5f39cf4f,,,G12b,PLACED,[ ],W,Fietspad,,,600647632.0,2024-03-01,Geertruidenberg,GM0779,Raamsdonksveer,,https://wegkenmerken.ndw.nu/api/images/a025f4ec-510a-4adc-8dc7-4f2475fb78f9,2016-09-12,2022-09-15,,,,4.8624005085301,51.688207770794,POINT (4.862401 51.688208)
0e4eec12-a902-4f55-8c22-c3642f4cb901,,,G12b,PLACED,[ ],W,Langeveldpad,,,246357098.0,2024-03-01,Ouder-Amstel,GM0437,Ouderkerk aan de Amstel,,https://wegkenmerken.ndw.nu/api/images/665ac88f-28de-43d8-ad7a-f3ff832afe6c,2017-11-04,2022-10-31,,,,4.9198291037757,52.297623064231,POINT (4.919829 52.297623)
0e5599f1-3f76-4f82-8112-0cb135ed2a7a,11685,2025-09-24,G12b,PLACED,[ ],N,Oosttangent Zuid,2.0,293.0,600954089.0,2025-09-01,Roermond,GM0957,Roermond,,,2025-09-24,2025-09-24,2025-09-24,,,6.023195969689653,51.171118809071395,POINT (6.023196 51.171119)
0e68f5e1-b3c0-4ec2-92d7-b6c5f777b958,,,G12b,PLACED,[ ],Z,Deldenerstraat,,,,,Hengelo O,GM0164,Hengelo,,https://wegkenmerken.ndw.nu/api/images/5199d80c-5ee0-4689-9549-bbe6e74e39a4,2018-05-21,2022-04-26,,,,6.7690849563992,52.265814706252,POINT (6.769085 52.265815)
0e6a8862-59f2-4782-959e-1316ec593ca5,,,G12b,PLACED,[ ],N,Fietspad,,,600544658.0,2024-03-01,Goeree-Overflakkee,GM1924,Stellendam,,https://wegkenmerken.ndw.nu/api/images/a68b1619-029e-4413-9a91-1df8c33c0d08,2020-10-26,2022-10-28,,,,4.020581332499,51.799320848635,POINT (4.020581 51.799321)
0e6b8c2c-b4c0-4bc0-bb5d-15724363ab16,,,G12b,PLACED,[ ],Z,Maarsbergseweg,2.0,226.0,601166792.0,2024-03-01,Woudenberg,GM0351,Woudenberg,,https://wegkenmerken.ndw.nu/api/images/445dc96a-8d47-4a0e-bbd4-b604030e86b2,2016-09-30,2022-11-02,,,,5.4136156300587,52.080531441832,POINT (5.413616 52.080531)
0e8490a0-e6a7-40c9-b11f-de46dfbd1e26,,,G12b,PLACED,[ ],O,Fietspad,,,600613964.0,2024-03-01,Lingewaard,GM1705,Huissen,,https://wegkenmerken.ndw.nu/api/images/f600a549-4468-48d5-a55b-581e258fb8db,2016-09-21,2022-10-03,,,,5.9189443851046,51.948290531242,POINT (5.918944 51.948291)
0e950599-ee8d-4ac3-a571-06ec67bd8718,,,G12b,PLACED,[ ],O,Fietspad,,,600602569.0,2024-03-01,Schagen,GM0441,Schagen,,https://wegkenmerken.ndw.nu/api/images/4b533019-c600-440a-bb6f-dc60fd4afdfc,2017-08-15,2022-07-05,,,,4.8103907950343,52.797049995614,POINT (4.810391 52.79705)
0ea8326c-95e5-48ae-b968-751f30da1859,,,G12b,PLACED,[ ],Z,Wipbruglaan,,,601168332.0,2024-03-01,Opmeer,GM0432,Spanbroek,,https://wegkenmerken.ndw.nu/api/images/094ec5e2-166f-4d98-b23c-8484b04759f9,2020-11-08,2022-10-26,,,,4.9284450318504,52.69743501401,POINT (4.928445 52.697435)
0eb79cc3-8973-4479-be45-a65ac09c308b,,,G12b,PLACED,[ ],O,Uilenberg,,,,,Woensdrecht,GM0873,Hoogerheide,,https://wegkenmerken.ndw.nu/api/images/a9de52e1-9658-4f71-95b7-9029e4beb822,2020-09-10,2022-07-08,,,,4.3194791558589,51.426143032314,POINT (4.319479 51.426143)
0ec28822-ccbe-40cb-a110-de8a6d905e76,,,G12b,PLACED,[ ],W,Cruquiusweg,,,600968636.0,2024-03-01,Heemstede,GM0397,Heemstede,,https://wegkenmerken.ndw.nu/api/images/56858b22-cfc1-42ef-a70e-b0e19725fc3e,2016-10-03,2022-10-08,,,,4.6338582937205,52.34124579764,POINT (4.633858 52.341246)
0eed0966-972f-4f67-9f60-de875050a2d7,,,G12b,PLACED,[ ],O,Zuidplasweg,,,200291013.0,2024-03-01,Zuidplas,GM1892,Zevenhuizen,,https://wegkenmerken.ndw.nu/api/images/d69bb365-494d-4914-907e-e278c329747e,2016-07-11,2022-08-11,,,,4.5939216834711,51.999586090955,POINT (4.593922 51.999586)
0f055ee6-5997-4b01-aea8-a5c03ddd765b,,,G12b,PLACED,[ ],Z,Zuidwesthoekweg,,,600499960.0,2024-03-01,Súdwest-Fryslân,GM1900,IJlst,,https://wegkenmerken.ndw.nu/api/images/2b46590c-b1ef-4188-9ddd-f6c377b71ae4,2016-09-05,2022-07-29,,,,5.6079367440813,53.010241064715,POINT (5.607937 53.010241)
0f10f214-b5b2-4202-8227-1bd9e22894cd,,,G12b,PLACED,[ ],Z,Fietspad,,,600592397.0,2024-03-01,Zwolle,GM0193,Zwolle,,https://wegkenmerken.ndw.nu/api/images/55d2e8b1-74c1-4d60-b2b2-65ca235106fb,2018-03-01,2022-02-16,,,,6.1946158730127,52.583574139451,POINT (6.194616 52.583574)
0f179525-d233-443b-b5f9-36c29a893b0b,,,G12b,PLACED,[ ],Z,Middendijk,,,600850199.0,2024-03-01,Voorst,GM0285,Nijbroek,,https://wegkenmerken.ndw.nu/api/images/0b15b9bb-5d29-4bba-af0c-2078c31db06e,2016-05-10,2022-03-30,,,,6.065638919424,52.282454339705,POINT (6.065639 52.282454)
0f1eb467-4bad-4207-a0f2-fac640cb35f7,,,G12b,PLACED,[ ],Z,Provincialeweg,,,600689609.0,2024-03-01,Schagen,GM0441,Schagen,,https://wegkenmerken.ndw.nu/api/images/496dae74-6b77-4cde-9358-9733558c34cc,2017-08-15,2022-07-05,,,,4.8189035562848,52.77417922827,POINT (4.818904 52.774179)
0f1f55ed-d857-487c-af34-c2a047da42b5,,,G12b,PLACED,[ ],W,Fransekade,,,232285001.0,2024-03-01,Krimpenerwaard,GM1931,Bergambacht,,https://wegkenmerken.ndw.nu/api/images/67323cfb-4cd5-460d-af33-97540a53ee2a,2020-11-04,2022-11-02,,,,4.8286544080904,51.956807722538,POINT (4.828654 51.956808)
0f2759c0-63fe-4f98-b7d5-9b684a3247aa,,,G12b,PLACED,[ ],Z,Tolhekbuurt,,,600661580.0,2024-03-01,Opsterland,GM0086,Nij Beets,,https://wegkenmerken.ndw.nu/api/images/ff2be0ef-419a-46a6-8123-d378698cd487,2016-03-08,2022-02-19,,,,6.0197631275272,53.067254130756,POINT (6.019763 53.067254)
0f2763db-dc48-43d0-9075-c0c1546f6141,,,G12b,PLACED,[ ],W,Rietveld,,,600647887.0,2024-03-01,Woerden,GM0632,Woerden,,https://wegkenmerken.ndw.nu/api/images/40245167-1f8a-4334-8022-2d536269942d,2021-06-16,2022-07-06,,,,4.8257599909042,52.08020870993,POINT (4.82576 52.080209)
0f27966e-222a-442e-9c5c-3f331185af09,,,G12b,PLACED,[ ],Z,Korne,,,,,Rotterdam,GM0599,Rotterdam,,https://wegkenmerken.ndw.nu/api/images/18596088-1cd3-439a-80d7-53f300b31216,2021-03-09,2022-03-04,,,,4.5737290559161,51.961958366584,POINT (4.573729 51.961958)
0f330d16-04c1-457f-acb1-3741404f3738,,,G12b,PLACED,[ ],N,Veldm Montgomeryweg,,,600518030.0,2024-03-01,Soest,GM0342,Soesterberg,,https://wegkenmerken.ndw.nu/api/images/c1df2b6e-057c-4ca8-b81d-b68406901fc9,2016-09-19,2022-10-04,,,,5.2837721220504,52.123504401955,POINT (5.283772 52.123504)
0f3472b9-022e-4028-a7db-a99d0435d807,,,G12b,PLACED,[ ],N,Fietspad,,,600504132.0,2024-03-01,Oude IJsselstreek,GM1509,Terborg,,https://wegkenmerken.ndw.nu/api/images/b0598f72-cdea-45f5-8f6b-6a95e94e402f,2016-09-13,2022-10-27,,,,6.3161253149744,51.928956778717,POINT (6.316125 51.928957)
0f36ab95-998e-41e4-aa6e-b8997e387733,,,G12b,PLACED,[ ],O,Fietspad,,,600651297.0,2024-03-01,Maashorst,GM1991,Reek,,https://wegkenmerken.ndw.nu/api/images/8d6f5e2d-99bf-475d-a310-f0d3110e2b9d,2016-05-03,2022-03-08,,,,5.6709436308489,51.736779537972,POINT (5.670944 51.73678)
0f6a8087-713b-4e69-86eb-b0428e386c98,,,G12b,PLACED,[ ],W,Fietspad,,,600679310.0,2024-03-01,Roermond,GM0957,Roermond,,https://wegkenmerken.ndw.nu/api/images/9289e450-f1ae-47eb-84cc-5114124c8586,2016-04-12,2022-05-20,,,,6.033007380147,51.166016066295,POINT (6.033007 51.166016)
0f83a02b-b5ad-4e51-81a0-e65c13285a88,,,G12b,PLACED,[ ],W,Cornelisgracht,,,402452019.0,2024-03-01,Steenwijkerland,GM1708,Giethoorn,,https://wegkenmerken.ndw.nu/api/images/276cf67e-c91c-4af2-98bf-6e7712e0a419,2020-09-22,2023-12-11,,,,6.0717389216977,52.722175604715,POINT (6.071739 52.722176)
0fa02638-e2d4-4991-9e47-fc619c84e75f,,,G12b,PLACED,[ ],N,De Koaten,,,600851411.0,2024-03-01,Achtkarspelen,GM0059,Kootstertille,,https://wegkenmerken.ndw.nu/api/images/374e9aaa-2977-44f1-b8ae-f5cb16ec328b,2020-01-16,2022-06-29,,,,6.0879910082456,53.217009744761,POINT (6.087991 53.21701)
0fa07aba-0214-43e6-94d8-25c4d74567dd,,,G12b,PLACED,[ ],N,Weemstraat,,,600569547.0,2024-03-01,Montferland,GM1955,Didam,,https://wegkenmerken.ndw.nu/api/images/fb1ab351-a835-411e-9e88-ec24c46221fe,2016-05-10,2022-05-13,,,,6.1376465749894,51.951847900385,POINT (6.137647 51.951848)
0fc5e6d5-3e63-4141-94db-4c3a7086dd48,,,G12b,PLACED,[ ],N,Gasthuispad,,,159293005.0,2024-03-01,Midden-Delfland,GM1842,Schipluiden,,https://wegkenmerken.ndw.nu/api/images/42b7f411-6128-4530-9d7e-e4649cca89a2,2016-11-17,2022-11-09,,,,4.2896504668008,52.005984472816,POINT (4.28965 52.005984)
0fd1018b-91fc-450d-880c-f65642701f3e,,,G12b,PLACED,[ ],Z,Fietspad,,,600510293.0,2024-03-01,Alkmaar,GM0361,Alkmaar,,https://wegkenmerken.ndw.nu/api/images/a519e72b-3256-4445-968b-a2817c7b3dd7,2016-05-08,2022-03-12,,,,4.7582610433714,52.656104768335,POINT (4.758261 52.656105)
0fd2dd70-266c-4d76-be66-1f3b366a05ba,,,G12b,PLACED,[ ],W,Europaplein,,,600825703.0,2024-03-01,Leeuwarden,GM0080,Leeuwarden,,https://wegkenmerken.ndw.nu/api/images/b16410ed-f100-4d07-bf9e-90da85fb43de,2020-11-24,2022-11-22,,,,5.7771716279675,53.205244782256,POINT (5.777172 53.205245)
0fd78a42-b387-4fb8-93b4-9e2e7371b93d,,,G12b,PLACED,[ ],O,Katsbogte,,,600772067.0,2024-03-01,Tilburg,GM0855,Tilburg,,https://wegkenmerken.ndw.nu/api/images/1597ee7d-f237-4a68-ae9e-c86d9fbbacd8,2022-06-28,2022-06-28,,,,5.0614930629036,51.537746846904,POINT (5.061493 51.537747)
100df6e1-75a4-42ff-b1db-bd7718f9f561,,,G12b,PLACED,[ ],W,Schuttersweg,,,600635087.0,2024-03-01,Maasgouw,GM1641,Stevensweert,,https://wegkenmerken.ndw.nu/api/images/55e22ca8-54af-4580-bb3c-c01c7466527d,2016-11-03,2022-04-06,,,,5.8621574527543,51.128326160197,POINT (5.862157 51.128326)
10256a0d-0b57-45df-a4c1-c798392817c6,,,G12b,PLACED,[ ],W,Leidseweg,,,600588237.0,2024-03-01,Kaag en Braassem,GM1884,Oud Ade,,https://wegkenmerken.ndw.nu/api/images/74681ea3-c276-4201-9938-395dabfaa887,2020-03-15,2022-03-25,,,,4.5674228043019,52.191595252419,POINT (4.567423 52.191595)
102ecc1a-ec1a-4a62-bbe8-8888aa1d9fac,,,G12b,PLACED,[ ],Z,Industrierondweg,,,600597781.0,2024-03-01,Urk,GM0184,Urk,,https://wegkenmerken.ndw.nu/api/images/5de9e852-49f5-4f05-9510-9059d9dc6ce8,2016-05-30,2022-07-11,,,,5.6096430243555,52.658447999584,POINT (5.609643 52.658448)
1030d9a6-ff2e-4ea9-a4b6-94cc09dd7652,,,G12b,PLACED,[ ],W,Schijndelsedijk,,,601020795.0,2024-03-01,Meierijstad,GM1948,Veghel,,https://wegkenmerken.ndw.nu/api/images/806fa810-9201-4573-b12c-0d545db9deb1,2016-11-30,2022-05-20,,,,5.5027970522887,51.615442305659,POINT (5.502797 51.615442)
10330bf6-cd74-4647-9f08-ba5524b23f65,,,G12b,PLACED,[ ],W,Hoeksestraat,,,601271696.0,2024-12-01,Rucphen,GM0840,Schijf,,https://wegkenmerken.ndw.nu/api/images/e050c4d8-f994-4b45-8bcd-bc69ab44b4a5,2016-05-03,2022-07-20,,,,4.5513832924998,51.493043021883,POINT (4.551383 51.493043)
1034ab90-8298-458f-b84c-ea028d022cec,,,G12b,PLACED,[ ],Z,Laantje,,,247268002.0,2024-03-01,Molenlanden,GM1978,Noordeloos,,https://wegkenmerken.ndw.nu/api/images/b135852f-a526-4a1d-ac78-2b1ce31fd349,2016-07-05,2022-09-20,,,,4.9310656601514,51.895593574891,POINT (4.931066 51.895594)
105374fd-7734-4773-a1f2-9b8408785f2e,,,G12b,PLACED,[ ],O,Hoofdweg,,,600642177.0,2024-03-01,Noordenveld,GM1699,Veenhuizen,,https://wegkenmerken.ndw.nu/api/images/7886872d-f54e-4693-8d8b-ef803b6d204e,2016-02-16,2022-02-16,,,,6.425188717644,53.015285804525,POINT (6.425189 53.015286)
10597c2e-da16-40db-9d91-4993c486a8d2,,,G12b,PLACED,[ ],N,Fietspad,,,600562688.0,2024-03-01,Katwijk,GM0537,Valkenburg,,https://wegkenmerken.ndw.nu/api/images/e9971478-6d90-4ea4-bb9b-805170a3cff3,2016-04-14,2022-04-12,,,,4.4449485711778,52.176086259281,POINT (4.444949 52.176086)
1095b0f8-bef1-430a-8fa4-2eb0be0085df,,,G12b,PLACED,[ ],Z,Leeuwte,,,,,De Wolden,GM1690,Ruinen,,https://wegkenmerken.ndw.nu/api/images/c78d6462-f67f-48db-b6ef-e0c030c8a8ec,2020-02-20,2022-02-28,,,,6.4079080390939,52.768167433379,POINT (6.407908 52.768167)
109839c6-dab6-4461-93e2-590ecfdaf863,,,G12b,PLACED,[ ],Z,Rinus Terlouwpad,,,,,Capelle Aan Den Ijssel,GM0502,Capelle Aan Den Ijssel,,https://wegkenmerken.ndw.nu/api/images/af828b17-7f62-40a6-b659-611e114dd1c9,2022-02-07,2022-02-07,,,,4.603578616589,51.927284098716,POINT (4.603579 51.927284)
10cde4ba-b7aa-4c30-9d08-d21b625ed8c6,,,G12b,PLACED,[ ],W,Tesselschadetunnel,,,409406088.0,2024-03-01,Zwolle,GM0193,Zwolle,,https://wegkenmerken.ndw.nu/api/images/5d9729aa-f7fc-4b0a-b828-4db6e807f937,2020-02-07,2022-02-28,,,,6.1188437964812,52.514167942443,POINT (6.118844 52.514168)
10e63f47-0705-4a12-be15-18d1910ed01a,,,G12b,PLACED,[ ],Z,Waterhuizen,,,600560505.0,2024-03-01,Midden-Groningen,GM1952,Waterhuizen,,https://wegkenmerken.ndw.nu/api/images/84a0cab9-082d-4d30-adef-86908410bd29,2020-04-20,2022-05-18,,,,6.6490612571847,53.185109423195,POINT (6.649061 53.185109)
10fa7aa3-d29a-414e-95fb-94326f847238,,,G12b,PLACED,"[ { ""type"": ""VOOR"", ""text"": ""50 m"" } ]",O,Fietspad,,,600537669.0,2024-03-01,Epe,GM0232,Epe,,https://wegkenmerken.ndw.nu/api/images/6aa3b666-99c0-485c-a5fc-895ea75cbb03,2020-04-16,2023-12-03,,,,5.9387660479682,52.356027465372,POINT (5.938766 52.356027)
110ceb99-2947-4dea-b1fa-3cfbc3257c28,,,G12b,PLACED,[ ],Z,Rijksweg,,,600503062.0,2024-03-01,Maashorst,GM1991,Reek,,https://wegkenmerken.ndw.nu/api/images/315b038d-bec8-4c63-86b5-39aac65a92a8,2022-03-08,2022-03-08,,,,5.6813699689918,51.738196550418,POINT (5.68137 51.738197)
11251787-1119-4b16-a30a-6536680834d1,,,G12b,PLACED,[ ],W,Schoolstraat,,,481480018.0,2024-03-01,Midden-Drenthe,GM1731,Orvelte,,https://wegkenmerken.ndw.nu/api/images/57139e87-b0bc-4654-ac9c-5f8f2d98d861,2016-11-25,2022-11-02,,,,6.6626386904865,52.841597022024,POINT (6.662639 52.841597)
1127da2b-8636-4ecd-915c-8e4d72b8aca5,,,G12b,PLACED,[ ],O,Overheek,,,377043020.0,2024-03-01,Voerendaal,GM0986,Klimmen,,https://wegkenmerken.ndw.nu/api/images/51fc6f30-31e6-4cdd-80d2-dd7b5606bc83,2016-11-08,2022-12-09,,,,5.8699833581905,50.88227743708,POINT (5.869983 50.882277)
113296c0-f26d-41e4-bc95-b11abcef26ae,,,G12b,PLACED,[ ],O,Schilderweg,,,600516825.0,2024-03-01,Texel,GM0448,Oudeschild,,https://wegkenmerken.ndw.nu/api/images/27142653-169d-43f4-b33c-8716016a1317,2017-01-25,2022-02-28,,,,4.8422015080737,53.041315268077,POINT (4.842202 53.041315)
1132f023-706a-45b4-87f1-946d7e967810,,,G12b,PLACED,[ ],O,Couwenhoekpad,,,202276107.0,2024-03-01,Capelle aan den IJssel,GM0502,Capelle aan den IJssel,,https://wegkenmerken.ndw.nu/api/images/802575e9-2894-46b2-8d1a-2b9697e39ef8,2022-02-07,2022-02-07,,,,4.6069253448706,51.930004314697,POINT (4.606925 51.930004)
1135f4b4-3cb3-4b13-85c5-2168c8d98878,,,G12b,PLACED,[ ],N,Fietspad,,,601472678.0,2025-09-01,Heerlen,GM0917,Heerlen,,https://wegkenmerken.ndw.nu/api/images/c7e172dd-f9a1-4327-b0a8-c98c7864724e,2016-05-20,2022-02-26,,,,5.9456948933153,50.921547588949,POINT (5.945695 50.921548)
114663af-6526-4c53-aa61-fb9314a2d54b,,,G12b,PLACED,[ ],N,Fietspad,,,,,Winterswijk,GM0294,Winterswijk,,https://wegkenmerken.ndw.nu/api/images/81204ff6-3b6a-4278-b80c-d530d1872da1,2016-05-30,2022-06-18,,,,6.7210365348208,51.960913186998,POINT (6.721037 51.960913)
11601ab0-457d-461d-8da8-e0be614a70d9,,,G12b,PLACED,[ ],W,Breekade,,,600455751.0,2024-03-01,Krimpen aan den IJssel,GM0542,Krimpen aan den IJssel,,https://wegkenmerken.ndw.nu/api/images/cd74915a-d760-42e9-9ecf-61883c41ec6c,2016-01-07,2022-03-01,,,,4.6200810870523,51.928322587595,POINT (4.620081 51.928323)
116152c2-0a31-4d0b-972c-b7d386b880d5,,,G12b,PLACED,[ ],O,Fietspad,,,600575391.0,2024-03-01,Midden-Delfland,GM1842,Den Hoorn,,https://wegkenmerken.ndw.nu/api/images/b9301e1c-9ef8-443c-9da6-463a6832a2da,2020-11-25,2022-11-10,,,,4.325887844144,52.004611393453,POINT (4.325888 52.004611)
116eff69-c2ca-46f4-b20a-15a00ace9aec,13347,2025-09-24,G12b,PLACED,[ ],N,Lemierserberg,,,600633677.0,2025-09-01,Vaals,GM0981,Vaals,,,2025-09-24,2025-09-24,2025-09-24,,,6.006488243323497,50.777754903897296,POINT (6.006488 50.777755)
1178336d-b1c8-4c6b-87fa-37ced8f2b242,,,G12b,PLACED,"[ { ""type"": ""UIT"", ""text"": ""UITGEZONDERD ONTHEFFINGHOUDERS"" } ]",Z,A.V.H. Destreelaan,,,600754668.0,2024-03-01,Dijk en Waard,GM1980,Sint Pancras,,https://wegkenmerken.ndw.nu/api/images/a50ad035-7803-48c9-9ec8-ee3ce4e955b1,2016-10-24,2023-12-04,,,,4.7848297196437,52.653279373468,POINT (4.78483 52.653279)
11864e01-0c43-4316-8d9b-54ee92f5399d,,,G12b,PLACED,[ ],N,Fietspad,,,600696699.0,2024-03-01,Hendrik-Ido-Ambacht,GM0531,Hendrik-Ido-Ambacht,,https://wegkenmerken.ndw.nu/api/images/0c87abae-7f34-4388-8eba-2e503f51cd18,2016-05-19,2022-05-09,,,,4.6254515512629,51.830010720109,POINT (4.625452 51.830011)
